TrackName,TrackType,SessionFlag,CarName,RacePosition,Lap Nbr,PaceMode,OnPitRoad,LapDistPrct %,SessionTime,IsOnTrack,PreviousLap,LapBestLap,LapCompleted,CurrentLapTime,LapBestLapTime,LapDeltaToBestLap,LapDeltaToBestLap_DD,Throttle %,Brake %,Clutch %,Speed (MPH),currentGear,RPM,SteeringWheelAngle (deg),FuelLevelPct,LFtempCL (F),LFtempCR (F),LFtempCM (F),LRtempCL (F),LRtempCR (F),LRtempCM (F),RFtempCL (F),RFtempCR (F),RFtempCM (F),RRtempCL (F),RRtempCR (F),RRtempCM (F),LFwearL %,LFwearM %,LFwearR %,LRwearL %,LRwearM %,LRwearR %,RFwearL %,RFwearM %,RFwearR %,RRwearL %,RRwearM %,RRwearR %,TrackTemp (F),OilTemp (F),WaterTemp (F),AirDensity (lbs/ft^3),AirPressure (bar),AirTemp (F),WindDir (deg),WindVel (MPH),LatAccel (m/s),LongAccel (m/s),VertAccel (m/s),Roll (deg),RollRate (deg/s),Yaw (deg),YawRate (deg/s),Pitch (deg),PitchRate (deg/s),gForces
Dover International Speedway,,"('Practice',)",Chevrolet National Impala,0,0,Not Pacing,True,9,07:22.000666,True,0.0,0,0,00:00.000000,0.0,00:00.000000,0.0,0,100,100,0.0,1,2075,-3,99,102,102,102,102,102,102,102,102,102,102,102,102,100,100,100,100,100,100,100,100,100,100,100,100,124,177,172,0.07,1.01,78,0,0.0,-0.0258503946932327,0.00279683707078784,1.0005570819010914,1,0,-1,0,0,-1,0.10213212951810204
Dover International Speedway,,"('Practice',)",Chevrolet National Impala,0,0,Not Pacing,True,9,07:22.000816,True,0.0,0,0,00:00.000000,0.0,00:00.000000,0.0,38,100,100,0.0,1,3029,-3,99,102,102,102,102,102,102,102,102,102,102,102,102,100,100,100,100,100,100,100,100,100,100,100,100,124,177,172,0.07,1.01,78,0,0.0,-0.02496367231178478,0.0021582687697036308,1.0054823576978709,1,0,-1,-1,0,-1,0.10263209378822227
Dover International Speedway,,"('Practice',)",Chevrolet National Impala,0,0,Not Pacing,True,9,07:22.000950,True,0.0,0,0,00:00.000000,0.0,00:00.000000,0.0,0,100,100,0.0,1,3352,-3,99,102,102,102,102,102,102,102,102,102,102,102,102,100,100,100,100,100,100,100,100,100,100,100,100,124,177,172,0.07,1.01,78,0,0.0,-0.02602392258872558,0.004940945560171456,1.0012404998872622,1,-1,-1,-1,0,0,0.10220314619162336
Dover International Speedway,,"('Practice',)",Chevrolet National Impala,0,0,Not Pacing,True,9,07:23.000083,True,0.0,0,0,00:00.000000,0.0,00:00.000000,0.0,0,100,100,0.0,1,3005,-3,99,102,102,102,102,102,102,102,102,102,102,102,102,100,100,100,100,100,100,100,100,100,100,100,100,124,177,172,0.07,1.01,78,0,0.0,-0.024955222244534895,0.0020425903414367534,0.9954559450606444,1,-1,-1,0,0,-1,0.10160926467675244
Dover International Speedway,,"('Practice',)",Chevrolet National Impala,0,0,Not Pacing,True,9,07:23.000216,True,0.0,0,0,00:00.000000,0.0,00:00.000000,0.0,1,100,100,0.0,1,2726,-2,99,102,102,102,102,102,102,102,102,102,102,102,102,100,100,100,100,100,100,100,100,100,100,100,100,124,177,172,0.07,1.01,78,0,0.0,-0.025672862775221267,0.001236900998607931,0.999428713115105,1,-1,-1,0,0,0,0.10201624083685008
Dover International Speedway,,"('Practice',)",Chevrolet National Impala,0,0,Not Pacing,True,9,07:23.000350,True,0.0,0,0,00:00.000000,0.0,00:00.000000,0.0,34,100,100,0.0,1,3225,-1,99,102,102,102,102,102,102,102,102,102,102,102,102,100,100,100,100,100,100,100,100,100,100,100,100,124,177,172,0.07,1.01,78,0,0.0,-0.02367443478192515,0.005928493815946044,1.0048385060161624,1,0,-1,-1,0,0,0.10256477971833701
Dover International Speedway,,"('Practice',)",Chevrolet National Impala,0,0,Not Pacing,True,9,07:23.000483,True,0.0,0,0,00:00.000000,0.0,00:00.000000,0.0,0,100,100,0.0,1,3550,0,99,102,102,102,102,102,102,102,102,102,102,102,102,100,100,100,100,100,100,100,100,100,100,100,100,124,177,172,0.07,1.01,78,0,0.0,-0.02499477943513736,0.0029121984126735533,0.989265519666137,1,-1,-1,0,0,0,0.10097811361058352
Dover International Speedway,,"('Practice',)",Chevrolet National Impala,0,0,Not Pacing,True,9,07:23.000633,True,0.0,0,0,00:00.000000,0.0,00:00.000000,0.0,11,100,100,0.0,1,3274,0,99,102,102,102,102,102,102,102,102,102,102,102,102,100,100,100,100,100,100,100,100,100,100,100,100,124,177,172,0.07,1.01,78,0,0.0,-0.02581281521026269,0.0025316518441860342,0.9982555284412629,1,0,-1,-1,0,-1,0.10189718517639736
Dover International Speedway,,"('Practice',)",Chevrolet National Impala,0,0,Not Pacing,True,9,07:23.000766,True,0.0,0,0,00:00.000000,0.0,00:00.000000,0.0,19,100,100,0.0,1,3976,0,99,102,102,102,102,102,102,102,102,102,102,102,102,100,100,100,100,100,100,100,100,100,100,100,100,124,177,172,0.07,1.01,78,0,0.0,-0.023471494941050365,0.002023625158145644,0.998970443927792,1,-1,-1,0,0,0,0.10196410146750766
Dover International Speedway,,"('Practice',)",Chevrolet National Impala,0,0,Not Pacing,True,9,07:23.000900,True,0.0,0,0,00:00.000000,0.0,00:00.000000,0.0,24,100,100,0.0,1,4491,0,99,102,102,102,102,102,102,102,102,102,102,102,102,100,100,100,100,100,100,100,100,100,100,100,100,124,177,172,0.07,1.01,78,0,0.0,-0.027041791897422795,0.0031832408133389144,1.0011791575331692,1,0,-1,-1,0,-1,0.10219891308825915
Dover International Speedway,,"('Practice',)",Chevrolet National Impala,0,0,Not Pacing,True,9,07:24.000050,True,0.0,0,0,00:00.000000,0.0,00:00.000000,0.0,29,0,82,0.01,1,5230,0,99,102,102,102,102,102,102,102,102,102,102,102,102,100,100,100,100,100,100,100,100,100,100,100,100,124,177,172,0.07,1.01,78,0,0.0,-0.033129713707864585,0.0658745491055052,0.9964455887447439,1,0,-1,1,0,-1,0.10195613044434389
Dover International Speedway,,"('Practice',)",Chevrolet National Impala,0,0,Not Pacing,True,9,07:24.000183,True,0.0,0,0,00:00.000000,0.0,00:00.000000,0.0,33,0,68,0.36,1,5819,0,99,102,102,102,102,102,102,102,102,102,102,102,102,100,100,100,100,100,100,100,100,100,100,100,100,124,177,173,0.07,1.01,78,0,0.0,-0.037374263145143465,0.160016537198719,0.9905036436308414,1,0,-1,-1,0,-1,0.10245322760161323
Dover International Speedway,,"('Practice',)",Chevrolet National Impala,0,0,Not Pacing,True,9,07:24.000316,True,0.0,0,0,00:00.000000,0.0,00:00.000000,0.0,37,0,60,0.96,1,6129,0,99,102,102,102,102,102,102,102,102,102,102,102,102,100,100,100,100,100,100,100,100,100,100,100,100,124,178,173,0.07,1.01,78,0,0.0,-0.012777583193220008,0.262910631940027,0.9978220489533061,1,0,-1,0,0,-1,0.10530167825996033
Dover International Speedway,,"('Practice',)",Chevrolet National Impala,0,0,Not Pacing,True,9,07:24.000450,True,0.0,0,0,00:00.000000,0.0,00:00.000000,0.0,40,0,49,1.92,1,6141,1,99,102,102,102,102,102,102,102,102,102,102,102,102,100,100,100,100,100,100,100,100,100,100,100,100,124,178,173,0.07,1.01,78,0,0.0,-0.03580467720401153,0.423554615872351,0.9900435273678903,1,0,-1,0,0,-1,0.10994237035012482
Dover International Speedway,,"('Practice',)",Chevrolet National Impala,0,0,Not Pacing,True,9,07:24.000583,True,0.0,0,0,00:00.000000,0.0,00:00.000000,0.0,42,0,43,3.31,1,5759,1,99,102,102,102,102,102,102,102,102,102,102,102,102,100,100,100,100,100,100,100,100,100,100,100,100,124,178,173,0.07,1.01,78,0,0.0,-0.02847731295711039,0.5122729154658731,0.9906237035473309,1,0,-1,-1,0,-1,0.11383703010069679
Dover International Speedway,,"('Practice',)",Chevrolet National Impala,0,0,Not Pacing,True,10,07:24.000716,True,0.0,0,0,00:00.000000,0.0,00:00.000000,0.0,42,0,43,4.77,1,5340,1,99,102,102,102,102,102,102,102,102,102,102,102,102,100,100,100,100,100,100,100,100,100,100,100,100,124,178,173,0.07,1.01,78,0,0.0,-0.029032182985124964,0.5085356009480421,0.9869054430729266,1,-1,-1,0,0,-1,0.11332659119023201
Dover International Speedway,,"('Practice',)",Chevrolet National Impala,0,0,Not Pacing,True,10,07:24.000850,True,0.0,0,0,00:00.000000,0.0,00:00.000000,0.0,38,0,43,6.24,1,4804,5,99,102,102,102,102,102,102,102,102,102,102,102,102,100,100,100,100,100,100,100,100,100,100,100,100,124,178,173,0.07,1.01,78,0,0.0,-0.04196200409674377,0.5078344899215465,0.9850746022573426,1,-1,-1,0,0,-1,0.11317005789932708
Dover International Speedway,,"('Practice',)",Chevrolet National Impala,0,0,Not Pacing,True,10,07:24.000983,True,0.0,0,0,00:00.000000,0.0,00:00.000000,0.0,35,0,44,7.71,1,4120,8,99,102,102,102,102,102,102,102,102,102,102,102,102,100,100,100,100,100,100,100,100,100,100,100,100,124,178,173,0.07,1.01,78,0,0.0,-0.03424417474340347,0.5207641652114043,0.9816084190003125,1,-1,-1,0,0,-1,0.11344089476372565
Dover International Speedway,,"('Practice',)",Chevrolet National Impala,0,0,Not Pacing,True,10,07:25.000116,True,0.0,0,0,00:00.000000,0.0,00:00.000000,0.0,32,0,44,9.18,1,3448,10,99,102,102,102,102,102,102,102,102,102,102,102,102,100,100,100,100,100,100,100,100,100,100,100,100,124,178,174,0.07,1.01,78,0,0.0,-0.0344229339945693,0.5202939872469499,0.992864109082081,1,-1,-1,0,0,-1,0.11443457463849568
Dover International Speedway,,"('Practice',)",Chevrolet National Impala,0,0,Not Pacing,True,10,07:25.000266,True,0.0,0,0,00:00.000000,0.0,00:00.000000,0.0,32,0,44,10.65,1,2892,13,99,102,102,102,102,102,102,102,102,102,102,102,102,100,100,100,100,100,100,100,100,100,100,100,100,124,178,174,0.07,1.01,78,0,0.0,-0.06343485383083332,0.5187811836919288,0.9988696324837438,1,0,-1,-1,0,-1,0.11503482803522952
Dover International Speedway,,"('Practice',)",Chevrolet National Impala,0,0,Not Pacing,True,10,07:25.000400,True,0.0,0,0,00:00.000000,0.0,00:00.000000,0.0,34,0,44,12.12,1,2525,15,99,102,102,102,102,102,102,102,102,102,102,102,102,100,100,100,100,100,100,100,100,100,100,100,100,124,178,174,0.07,1.01,78,0,0.0,-0.03428631419435554,0.5067601724016071,1.0031421128641453,1,0,-1,-1,0,-1,0.11473470124089206
Dover International Speedway,,"('Practice',)",Chevrolet National Impala,0,0,Not Pacing,True,10,07:25.000533,True,0.0,0,0,00:00.000000,0.0,00:00.000000,0.0,31,0,44,13.78,1,2237,13,99,102,102,102,102,102,102,102,102,102,102,102,102,100,100,100,100,100,100,100,100,100,100,100,100,124,178,174,0.07,1.01,78,0,0.0,-0.036548404640135534,0.5177542096370343,0.9716444180767592,1,-1,-1,0,1,-1,0.11240702959586157
Dover International Speedway,,"('Practice',)",Chevrolet National Impala,0,0,Not Pacing,True,10,07:25.000666,True,0.0,0,0,00:00.000000,0.0,00:00.000000,0.0,29,0,45,15.25,1,2054,11,99,102,102,102,102,102,102,102,102,102,102,102,102,100,100,100,100,100,100,100,100,100,100,100,100,124,178,174,0.07,1.01,78,0,0.0,-0.00966265114075547,0.5171226555904967,1.0107225112837266,1,-2,-1,1,1,-2,0.11585426882616313
Dover International Speedway,,"('Practice',)",Chevrolet National Impala,0,0,Not Pacing,True,10,07:25.000783,True,0.0,0,0,00:00.000000,0.0,00:00.000000,0.0,28,0,45,16.69,1,1923,14,99,102,102,102,102,102,102,102,102,102,102,102,102,100,100,100,100,100,100,100,100,100,100,100,100,124,178,174,0.07,1.01,78,0,0.0,-0.07638223431282937,0.5110501513933188,0.9818055700210742,1,3,-1,0,1,1,0.11321237411277413
Dover International Speedway,,"('Practice',)",Chevrolet National Impala,0,0,Not Pacing,True,10,07:25.000916,True,0.0,0,0,00:00.000000,0.0,00:00.000000,0.0,29,0,45,18.04,1,1939,15,99,102,102,102,102,102,102,102,102,102,102,102,102,100,100,100,100,100,100,100,100,100,100,100,100,124,178,174,0.07,1.01,78,0,0.0,-0.021076624668094117,0.43786079997802485,0.9730045462480986,1,-2,-1,0,1,0,0.10889740037128788
Dover International Speedway,,"('Practice',)",Chevrolet National Impala,0,0,Not Pacing,True,10,07:26.000050,True,0.0,0,0,00:00.000000,0.0,00:00.000000,0.0,28,0,45,19.27,1,2066,14,99,102,102,102,102,102,102,102,102,102,102,102,102,100,100,100,100,100,100,100,100,100,100,100,100,124,178,174,0.07,1.01,78,0,0.0,-0.03244720103179278,0.4303874347309575,0.9774207096702583,1,0,-1,0,0,1,0.10902799355680795
Dover International Speedway,,"('Practice',)",Chevrolet National Impala,0,0,Not Pacing,True,10,07:26.000183,True,0.0,0,0,00:00.000000,0.0,00:00.000000,0.0,28,0,45,20.4,1,2195,14,99,102,102,102,102,102,102,102,102,102,102,102,102,100,100,100,100,100,100,100,100,100,100,100,100,124,178,174,0.07,1.01,78,0,0.0,0.010109078385900406,0.4018774576994014,1.0255138929952297,1,-1,-1,1,0,-2,0.112397226377176
Dover International Speedway,,"('Practice',)",Chevrolet National Impala,0,0,Not Pacing,True,10,07:26.000333,True,0.0,0,0,00:00.000000,0.0,00:00.000000,0.0,28,0,44,21.42,1,2330,16,99,102,102,102,102,102,102,102,102,102,102,102,102,100,100,100,100,100,100,100,100,100,100,100,100,124,178,174,0.07,1.01,78,0,0.0,-0.0523903258106881,0.3835923567216816,1.005877340240945,1,0,-2,0,1,-3,0.10998073862941404
Dover International Speedway,,"('Practice',)",Chevrolet National Impala,0,0,Not Pacing,True,10,07:26.000466,True,0.0,0,0,00:00.000000,0.0,00:00.000000,0.0,28,0,41,22.52,1,2374,15,99,102,102,102,102,102,102,102,102,102,102,102,102,100,100,100,100,100,100,100,100,100,100,100,100,124,178,174,0.07,1.01,78,0,0.0,-0.044880347149816854,0.3724993794214713,0.9469764312837466,1,-1,-2,0,1,0,0.10393819621390805
Dover International Speedway,,"('Practice',)",Chevrolet National Impala,0,0,Not Pacing,True,10,07:26.000600,True,0.0,0,0,00:00.000000,0.0,00:00.000000,0.0,28,0,36,23.61,1,2523,16,99,102,102,102,102,102,102,102,102,102,102,102,102,100,100,100,100,100,100,100,100,100,100,100,100,124,178,174,0.07,1.01,78,0,0.0,-0.09098340976493438,0.3096059678648347,0.9976228564278916,1,1,-2,-3,1,0,0.10699139925892337
Dover International Speedway,,"('Practice',)",Chevrolet National Impala,0,0,Not Pacing,True,10,07:26.000733,True,0.0,0,0,00:00.000000,0.0,00:00.000000,0.0,28,0,26,24.64,1,2585,17,99,102,102,102,102,102,102,102,102,102,102,102,102,100,100,100,100,100,100,100,100,100,100,100,100,124,178,174,0.07,1.01,78,0,0.0,-0.0833578612826286,0.3472768324716861,0.7649676879976138,1,2,-1,-5,1,2,0.08614597893390377
Dover International Speedway,,"('Practice',)",Chevrolet National Impala,0,0,Not Pacing,True,11,07:26.000866,True,0.0,0,0,00:00.000000,0.0,00:00.000000,0.0,28,0,0,25.62,1,2670,15,99,102,102,102,102,102,102,102,102,102,102,102,102,100,100,100,100,100,100,100,100,100,100,100,100,124,178,174,0.07,1.01,78,0,0.0,-0.16450019179255712,0.2879882563630861,1.0272049393493465,1,-3,0,-4,0,4,0.11014489795571117
Dover International Speedway,,"('Practice',)",Chevrolet National Impala,0,0,Not Pacing,True,11,07:27.000000,True,0.0,0,0,00:00.000000,0.0,00:00.000000,0.0,28,0,0,26.43,1,2866,10,99,102,102,102,102,102,102,102,102,102,102,102,102,100,100,100,100,100,100,100,100,100,100,100,100,124,178,174,0.07,1.01,78,0,0.0,-0.04375520770824405,0.2870808318485178,0.873504331474032,1,3,0,-4,0,-6,0.09392965165384032
Dover International Speedway,,"('Practice',)",Chevrolet National Impala,0,0,Not Pacing,True,11,07:27.000133,True,0.0,0,0,00:00.000000,0.0,00:00.000000,0.0,28,0,0,27.48,1,2845,4,99,102,102,102,102,102,102,102,102,102,102,102,102,100,100,100,100,100,100,100,100,100,100,100,100,124,178,174,0.07,1.01,78,0,0.0,-0.04792183060407881,0.26969904807243383,1.0732995868336777,1,-2,0,-1,1,0,0.11303092505833785
Dover International Speedway,,"('Practice',)",Chevrolet National Impala,0,0,Not Pacing,True,11,07:27.000266,True,0.0,0,0,00:00.000000,0.0,00:00.000000,0.0,28,0,0,28.35,1,2946,-1,99,102,102,102,102,102,102,102,102,102,102,102,102,100,100,100,100,100,100,100,100,100,100,100,100,124,178,174,0.07,1.01,78,0,0.0,0.016821934542524702,0.32687690279899384,1.0227872204950703,1,0,0,0,0,-1,0.10957992113391385
Dover International Speedway,,"('Practice',)",Chevrolet National Impala,0,0,Not Pacing,True,11,07:27.000400,True,0.0,0,0,00:00.000000,0.0,00:00.000000,0.0,29,0,0,29.21,1,3054,-5,99,102,102,102,102,102,102,102,102,102,102,102,102,100,100,100,100,100,100,100,100,100,100,100,100,124,178,174,0.07,1.01,78,0,0.0,0.03495486139886605,0.3183227309636263,0.9879464160168693,1,0,0,2,0,-1,0.10597464807201395
Dover International Speedway,,"('Practice',)",Chevrolet National Impala,0,0,Not Pacing,True,11,07:27.000550,True,0.0,0,0,00:00.000000,0.0,00:00.000000,0.0,29,0,0,30.1,1,3134,-8,99,102,102,102,102,102,102,102,102,102,102,102,102,100,100,100,100,100,100,100,100,100,100,100,100,124,178,174,0.07,1.01,78,0,0.0,0.09801115586244853,0.3098576562241798,1.0678134805444062,1,-1,0,3,1,-2,0.11389526885732343
Dover International Speedway,,"('Practice',)",Chevrolet National Impala,0,0,Not Pacing,True,11,07:27.000683,True,0.0,0,0,00:00.000000,0.0,00:00.000000,0.0,29,0,0,31.05,1,3233,-10,99,102,102,102,102,102,102,102,102,102,102,102,102,100,100,100,100,100,100,100,100,100,100,100,100,124,178,174,0.07,1.01,78,0,0.0,0.06077509529121546,0.30305679663484125,0.972574274838882,1,0,-1,4,1,0,0.10413352819241528
Dover International Speedway,,"('Practice',)",Chevrolet National Impala,0,0,Not Pacing,True,11,07:27.000816,True,0.0,0,0,00:00.000000,0.0,00:00.000000,0.0,27,0,0,31.85,1,3306,-7,99,102,102,102,102,102,102,102,102,102,102,102,102,100,100,100,100,100,100,100,100,100,100,100,100,124,178,174,0.07,1.01,78,0,0.0,0.06543094108107136,0.25733533134032704,0.9639798318938742,1,-1,-1,4,0,-1,0.10202856034075723
Dover International Speedway,,"('Practice',)",Chevrolet National Impala,0,0,Not Pacing,True,11,07:27.000950,True,0.0,0,0,00:00.000000,0.0,00:00.000000,0.0,11,0,0,32.36,1,3284,-6,99,102,102,102,102,102,102,102,102,102,102,102,102,100,100,100,100,100,100,100,100,100,100,100,100,124,178,174,0.07,1.01,78,0,0.0,0.0613105771009346,0.060008619660388195,1.0642693312525384,1,0,-2,3,1,0,0.10895117486375835
Dover International Speedway,,"('Practice',)",Chevrolet National Impala,0,0,Not Pacing,True,12,07:28.000083,True,0.0,0,0,00:00.000000,0.0,00:00.000000,0.0,10,0,0,32.43,1,3336,-9,99,102,102,102,102,102,102,102,102,102,102,102,102,100,100,100,100,100,100,100,100,100,100,100,100,124,178,174,0.07,1.01,78,0,0.0,0.09893321116036231,0.07028517737665672,0.940800199207302,1,-2,-3,4,0,-1,0.0967954257635615
Dover International Speedway,,"('Practice',)",Chevrolet National Impala,0,0,Not Pacing,True,12,07:28.000216,True,0.0,0,0,00:00.000000,0.0,00:00.000000,0.0,11,0,0,32.57,1,3350,-11,99,102,102,102,102,102,102,102,102,102,102,102,102,100,100,100,100,100,100,100,100,100,100,100,100,124,178,174,0.07,1.01,78,0,0.0,0.13267444665035827,0.07278696234194632,1.0092409621927958,2,-5,-3,5,0,0,0.10413502884273937
Dover International Speedway,,"('Practice',)",Chevrolet National Impala,0,0,Not Pacing,True,12,07:28.000350,True,0.0,0,0,00:00.000000,0.0,00:00.000000,0.0,12,0,0,32.71,1,3374,-13,99,102,102,102,102,102,102,102,102,102,102,102,102,100,100,100,100,100,100,100,100,100,100,100,100,124,178,174,0.07,1.01,78,0,0.0,0.14048276448225513,0.070202867068525,1.0219258027460718,2,2,-4,6,0,-2,0.10550231861640941
Dover International Speedway,,"('Practice',)",Chevrolet National Impala,0,0,Not Pacing,False,12,07:28.000483,True,0.0,0,0,00:00.000000,0.0,00:00.000000,0.0,16,0,0,32.95,1,3405,-14,99,102,102,102,102,102,102,102,102,102,102,102,102,100,100,100,100,100,100,100,100,100,100,100,100,124,178,174,0.07,1.01,78,0,0.0,0.1327485241049048,0.12438842888150618,1.0171756102769016,1,0,-5,6,1,0,0.1054403547478311
Dover International Speedway,,"('Practice',)",Chevrolet National Impala,0,0,Not Pacing,False,12,07:28.000633,True,0.0,0,0,00:00.000000,0.0,00:00.000000,0.0,24,0,0,33.36,1,3475,-14,99,102,102,102,102,102,102,102,102,102,102,102,102,100,100,100,100,100,100,100,100,100,100,100,100,124,178,174,0.07,1.01,78,0,0.0,0.15637049495140953,0.21408787804155416,1.0170872422897852,1,1,-6,6,1,-2,0.10725221870799519
Dover International Speedway,,"('Practice',)",Chevrolet National Impala,0,0,Not Pacing,False,12,07:28.000800,True,0.0,0,0,00:00.000000,0.0,00:00.000000,0.0,33,0,0,34.29,1,3566,-18,99,102,102,102,102,102,102,102,102,102,102,102,102,100,100,100,100,100,100,100,100,100,100,100,100,124,178,174,0.07,1.01,78,0,0.0,0.18266149009525715,0.3068072108075281,1.0005096412215393,1,0,-7,7,1,0,0.10839959869931873
Dover International Speedway,,"('Practice',)",Chevrolet National Impala,0,0,Not Pacing,False,12,07:28.000933,True,0.0,0,0,00:00.000000,0.0,00:00.000000,0.0,37,0,0,35.34,1,3689,-20,99,102,102,102,102,102,102,102,102,102,102,102,102,100,100,100,100,100,100,100,100,100,100,100,100,124,178,174,0.07,1.01,78,0,0.0,0.1939514482908414,0.3564737137183015,0.9574931938956879,1,0,-8,8,1,0,0.10611675265436028
Dover International Speedway,,"('Practice',)",Chevrolet National Impala,0,0,Not Pacing,False,13,07:29.000066,True,0.0,0,0,00:00.000000,0.0,00:00.000000,0.0,37,0,0,36.31,1,3793,-20,99,102,102,102,102,102,102,102,102,102,102,102,102,100,100,100,100,100,100,100,100,100,100,100,100,124,178,174,0.07,1.01,78,0,0.0,0.23123294449241397,0.3673694427832429,0.9778084011252867,1,-2,-9,9,1,-2,0.10916642298498874
Dover International Speedway,,"('Practice',)",Chevrolet National Impala,0,0,Not Pacing,False,13,07:29.000200,True,0.0,0,0,00:00.000000,0.0,00:00.000000,0.0,34,0,0,37.22,1,3876,-21,99,102,102,102,102,102,102,102,102,102,102,102,102,100,100,100,100,100,100,100,100,100,100,100,100,124,178,174,0.07,1.01,78,0,0.0,0.24771755988444755,0.30432389052271475,1.0049391230311961,1,0,-11,9,1,0,0.11008495360290244
Dover International Speedway,,"('Practice',)",Chevrolet National Impala,0,0,Not Pacing,False,13,07:29.000333,True,0.0,0,0,00:00.000000,0.0,00:00.000000,0.0,40,0,0,38.09,1,3999,-17,99,102,102,102,102,102,102,102,102,102,102,102,102,100,100,100,100,100,100,100,100,100,100,100,100,124,178,174,0.07,1.01,78,0,0.0,0.21603600816017018,0.3542807488631035,0.9831279789635894,1,-1,-12,9,1,-2,0.10888893217765247
Dover International Speedway,,"('Practice',)",Chevrolet National Impala,0,0,Not Pacing,False,13,07:29.000483,True,0.0,0,0,00:00.000000,0.0,00:00.000000,0.0,46,0,0,39.21,1,4102,-10,99,102,102,102,102,102,102,102,102,102,102,102,102,100,100,100,100,100,100,100,100,100,100,100,100,124,178,174,0.07,1.01,78,0,0.0,0.14172158110032387,0.42201522414958925,0.9893883015888303,1,-2,-13,6,1,-1,0.11070704703527152
Dover International Speedway,,"('Practice',)",Chevrolet National Impala,0,0,Not Pacing,False,13,07:29.000616,True,0.0,0,0,00:00.000000,0.0,00:00.000000,0.0,48,0,0,40.36,1,4244,-4,99,102,102,102,102,102,102,102,102,102,102,102,102,100,100,100,100,100,100,100,100,100,100,100,100,124,178,174,0.07,1.01,78,0,0.0,0.08540481602380035,0.45419735767547265,1.0273973268592516,2,-5,-14,3,1,-2,0.11495496870893535
Dover International Speedway,,"('Practice',)",Chevrolet National Impala,0,0,Not Pacing,False,13,07:29.000750,True,0.0,0,0,00:00.000000,0.0,00:00.000000,0.0,49,0,0,41.74,1,4378,-5,99,102,102,102,102,102,102,102,102,102,102,102,102,100,100,100,100,100,100,100,100,100,100,100,100,124,178,174,0.07,1.01,78,0,0.0,0.06781599572674579,0.4537924592526559,1.1139113361074775,2,-7,-14,2,1,-3,0.12292954465625121
Dover International Speedway,,"('Practice',)",Chevrolet National Impala,0,0,Not Pacing,False,14,07:29.000883,True,0.0,0,0,00:00.000000,0.0,00:00.000000,0.0,50,0,0,42.94,1,4515,-12,99,102,102,102,102,102,102,102,102,102,102,102,102,100,100,100,100,100,100,100,100,100,100,100,100,124,178,174,0.07,1.01,78,0,0.0,0.11271358629979124,0.478371397557001,1.1272573325247575,3,-4,-15,5,1,-4,0.1254833487225399
Dover International Speedway,,"('Practice',)",Chevrolet National Impala,0,0,Not Pacing,False,14,07:30.000016,True,0.0,0,0,00:00.000000,0.0,00:00.000000,0.0,50,0,0,44.2,1,4624,-17,99,102,102,102,102,102,102,102,102,102,102,102,102,100,100,100,100,100,100,100,100,100,100,100,100,124,178,174,0.07,1.01,78,0,0.0,0.21439806523065438,0.4244548708170075,1.0197274910929734,4,-6,-16,7,1,6,0.11481168253781811
Dover International Speedway,,"('Practice',)",Chevrolet National Impala,0,0,Not Pacing,False,14,07:30.000166,True,0.0,0,0,00:00.000000,0.0,00:00.000000,0.0,50,0,0,45.24,1,4868,-18,99,102,102,102,102,102,102,102,102,102,102,102,102,100,100,100,100,100,100,100,100,100,100,100,100,124,178,174,0.07,1.01,78,0,0.0,0.2853336684200742,0.5104848976407454,0.9796023976426119,5,-4,-17,10,1,-4,0.11641739158796281
Dover International Speedway,,"('Practice',)",Chevrolet National Impala,0,0,Not Pacing,False,14,07:30.000300,True,0.0,0,0,00:00.000000,0.0,00:00.000000,0.0,50,0,0,46.71,1,4899,-22,99,102,102,102,102,102,102,102,102,102,102,102,102,100,100,100,100,100,100,100,100,100,100,100,100,124,178,174,0.07,1.01,78,0,0.0,0.28550807124613253,0.36678445448569197,0.9647171067170776,5,0,-19,11,1,-2,0.1092706496406165
Dover International Speedway,,"('Practice',)",Chevrolet National Impala,0,0,Not Pacing,False,14,07:30.000433,True,0.0,0,0,00:00.000000,0.0,00:00.000000,0.0,50,0,0,47.92,1,5029,-20,99,102,102,102,102,102,102,102,102,102,102,102,102,100,100,100,100,100,100,100,100,100,100,100,100,124,178,174,0.07,1.01,78,0,0.0,0.3497280962727242,0.3954699523101402,0.9987939023825735,5,-4,-20,12,1,1,0.11527882483177627
Dover International Speedway,,"('Practice',)",Chevrolet National Impala,0,0,Not Pacing,False,14,07:30.000566,True,0.0,0,0,00:00.000000,0.0,00:00.000000,0.0,50,0,0,49.1,1,5189,-15,99,102,102,102,102,102,102,102,102,102,102,102,102,100,100,100,100,100,100,100,100,100,100,100,100,124,178,174,0.07,1.01,78,0,0.0,0.36355676271864396,0.5032032394020322,1.1176992993836008,5,-2,-22,11,1,-3,0.13046223623070882
Dover International Speedway,,"('Practice',)",Chevrolet National Impala,0,0,Not Pacing,False,15,07:30.000700,True,0.0,0,0,00:00.000000,0.0,00:00.000000,0.0,50,0,0,50.38,1,5291,-11,99,102,102,102,102,102,102,102,102,102,102,102,102,100,100,100,100,100,100,100,100,100,100,100,100,124,178,175,0.07,1.01,78,0,0.0,0.2077808924528194,0.43549221711542746,0.9444916284776973,6,-2,-23,7,1,1,0.10822537717509859
Dover International Speedway,,"('Practice',)",Chevrolet National Impala,0,0,Not Pacing,False,15,07:30.000850,True,0.0,0,0,00:00.000000,0.0,00:00.000000,0.0,52,0,0,51.79,1,5465,-9,99,102,102,102,102,102,102,102,102,102,102,102,102,100,100,100,100,100,100,100,100,100,100,100,100,124,178,175,0.07,1.01,78,0,0.0,0.1862109375777716,0.5436368430912434,1.0788901987182742,6,-3,-24,6,1,0,0.12473293383343634
Dover International Speedway,,"('Practice',)",Chevrolet National Impala,0,0,Not Pacing,False,15,07:30.000983,True,0.0,0,0,00:00.000000,0.0,00:00.000000,0.0,53,0,0,53.05,1,5662,-10,99,102,102,102,102,102,102,102,102,102,102,102,102,100,100,100,100,100,100,100,100,100,100,100,100,124,178,175,0.07,1.01,78,0,0.0,0.17132480817711193,0.4952555645739509,0.9944061255965393,6,0,-25,7,1,-5,0.11469831709226361
Dover International Speedway,,"('Practice',)",Chevrolet National Impala,0,0,Not Pacing,False,15,07:31.000116,True,0.0,0,0,00:00.000000,0.0,00:00.000000,0.0,53,0,0,54.52,1,5720,-12,99,102,102,102,102,102,102,102,102,102,102,102,102,100,100,100,100,100,100,100,100,100,100,100,100,124,178,175,0.07,1.01,78,0,0.0,0.1939027802781349,0.39271090737905706,1.0519840423241789,6,-3,-26,7,1,-1,0.11627686776789824
Dover International Speedway,,"('Practice',)",Chevrolet National Impala,0,0,Not Pacing,False,16,07:31.000250,True,0.0,0,0,00:00.000000,0.0,00:00.000000,0.0,53,0,0,55.91,1,5799,-14,99,102,102,102,102,102,102,102,102,102,102,102,102,100,100,100,100,100,100,100,100,100,100,100,100,124,178,175,0.07,1.01,78,0,0.0,0.2936296628277357,0.5898723057893681,1.2364911498401263,7,-5,-27,9,1,-3,0.14296927376526697
Dover International Speedway,,"('Practice',)",Chevrolet National Impala,0,0,Not Pacing,False,16,07:31.000400,True,0.0,0,0,00:00.000000,0.0,00:00.000000,0.0,52,0,0,57.31,1,6027,-19,99,102,102,102,102,102,102,102,102,102,102,102,102,100,100,100,100,100,100,100,100,100,100,100,100,124,178,175,0.07,1.01,78,0,0.0,0.34961557048054887,0.5153218054504083,1.0920073521854194,7,3,-29,11,1,-3,0.12827418131756593
Dover International Speedway,,"('Practice',)",Chevrolet National Impala,0,0,Not Pacing,False,16,07:31.000533,True,0.0,0,0,00:00.000000,0.0,00:00.000000,0.0,50,0,0,58.51,1,6165,-22,99,102,102,102,102,102,102,102,102,102,102,102,102,100,100,100,100,100,100,100,100,100,100,100,100,124,178,175,0.07,1.01,78,0,0.0,0.43343617889373187,0.3912492629584916,0.9360558396085686,7,-3,-31,14,1,-1,0.11257573885341816
Dover International Speedway,,"('Practice',)",Chevrolet National Impala,0,0,Not Pacing,False,16,07:31.000666,True,0.0,0,0,00:00.000000,0.0,00:00.000000,0.0,50,0,0,59.67,1,6271,-22,99,102,102,102,102,102,102,102,102,102,102,102,102,100,100,100,100,100,100,100,100,100,100,100,100,124,178,175,0.07,1.01,78,0,0.0,0.5832002797258009,0.43819541231207887,1.1020258904475562,7,0,-33,15,1,-2,0.13485607306351066
Dover International Speedway,,"('Practice',)",Chevrolet National Impala,0,0,Not Pacing,False,16,07:31.000800,True,0.0,0,0,00:00.000000,0.0,00:00.000000,0.0,48,0,0,60.77,1,6371,-20,99,102,102,102,102,102,102,102,102,102,102,102,102,100,100,100,100,100,100,100,100,100,100,100,100,124,178,175,0.07,1.01,78,0,0.0,0.6324955204332762,0.46624121437500493,1.1170892783504256,7,-5,-35,14,1,-2,0.13936399494041093
Dover International Speedway,,"('Practice',)",Chevrolet National Impala,0,0,Not Pacing,False,17,07:31.000933,True,0.0,0,0,00:00.000000,0.0,00:00.000000,0.0,46,0,0,61.76,1,6520,-21,99,102,102,102,102,102,102,102,102,102,102,102,102,100,100,100,100,100,100,100,100,100,100,100,100,124,178,175,0.07,1.01,78,0,0.0,0.6080362531873914,0.4121175235200001,1.2126886638054182,7,13,-37,14,1,-2,0.1446736814761973
Dover International Speedway,,"('Practice',)",Chevrolet National Impala,0,0,Not Pacing,False,17,07:32.000066,True,0.0,0,0,00:00.000000,0.0,00:00.000000,0.0,45,0,0,62.72,1,6572,-25,99,102,102,102,102,102,102,102,102,102,102,102,102,100,100,100,100,100,100,100,100,100,100,100,100,124,178,175,0.07,1.01,78,0,0.0,0.574651819242736,0.34223497217705245,0.8939662353951146,5,5,-39,14,1,3,0.1139264177011361
Dover International Speedway,,"('Practice',)",Chevrolet National Impala,0,0,Not Pacing,False,17,07:32.000216,True,0.0,0,0,00:00.000000,0.0,00:00.000000,0.0,42,0,0,63.54,1,6724,-28,99,102,102,102,102,102,102,102,102,102,102,102,102,100,100,100,100,100,100,100,100,100,100,100,100,124,178,175,0.07,1.01,78,0,0.0,0.7773099932344925,0.26182131908233985,0.8978058195746029,4,19,-41,15,-1,8,0.12408836743144712
Dover International Speedway,,"('Practice',)",Chevrolet National Impala,0,0,Not Pacing,False,17,07:32.000350,True,0.0,0,0,00:00.000000,0.0,00:00.000000,0.0,37,0,0,64.32,1,6639,-30,99,102,102,102,102,102,102,102,102,102,102,102,102,100,100,100,100,100,100,100,100,100,100,100,100,124,178,175,0.07,1.01,78,0,0.0,1.6038612731249202,0.4812458361082242,1.769263591241399,3,3,-44,21,0,-8,0.24857490935981943
Dover International Speedway,,"('Practice',)",Chevrolet National Impala,0,0,Not Pacing,False,18,07:32.000483,True,0.0,0,0,00:00.000000,0.0,00:00.000000,0.0,31,0,0,64.83,1,6700,-27,99,102,102,102,102,102,102,102,102,102,102,102,102,100,100,100,100,100,100,100,100,100,100,100,100,124,179,175,0.07,1.01,78,0,0.0,0.7720900116588969,0.19002364194599738,1.1175037037949556,3,0,-46,14,0,4,0.1399502536490438
Dover International Speedway,,"('Practice',)",Chevrolet National Impala,0,0,Not Pacing,False,18,07:32.000633,True,0.0,0,0,00:00.000000,0.0,00:00.000000,0.0,28,0,0,65.17,1,6701,-24,99,102,102,102,102,102,102,102,102,102,102,102,102,100,100,100,100,100,100,100,100,100,100,100,100,124,179,175,0.07,1.01,78,0,0.0,0.6414386232086399,0.1083542812125763,0.8073339646987837,4,-3,-49,16,-1,1,0.10579680650438315
Dover International Speedway,,"('Practice',)",Chevrolet National Impala,0,0,Not Pacing,False,18,07:32.000766,True,0.0,0,0,00:00.000000,0.0,00:00.000000,0.0,26,0,0,65.31,1,6750,-23,99,102,102,102,102,102,102,102,102,102,102,102,102,100,100,100,100,100,100,100,100,100,100,100,100,124,179,175,0.07,1.01,78,0,0.0,0.914198421435497,0.08373332193745993,1.0977634231614044,4,-2,-51,18,-1,-6,0.1460237437470703
Dover International Speedway,,"('Practice',)",Chevrolet National Impala,0,0,Not Pacing,False,18,07:32.000900,True,0.0,0,0,00:00.000000,0.0,00:00.000000,0.0,26,0,0,65.48,1,6743,-22,99,102,102,102,102,102,102,102,102,102,102,102,102,100,100,100,100,100,100,100,100,100,100,100,100,124,179,175,0.07,1.01,78,0,0.0,0.8215891597953897,0.06123529661686048,1.114509594185272,4,1,-53,16,-1,-2,0.1414246747032185
Dover International Speedway,,"('Practice',)",Chevrolet National Impala,0,0,Not Pacing,False,19,07:33.000033,True,0.0,0,0,00:00.000000,0.0,00:00.000000,0.0,28,0,0,65.64,1,6766,-16,99,102,102,102,102,102,102,102,102,102,102,102,102,100,100,100,100,100,100,100,100,100,100,100,100,124,179,175,0.07,1.01,78,0,0.0,0.6575511014668097,0.09750389663937381,0.9731080796983507,4,-3,-55,14,0,-1,0.12025326406578106
Dover International Speedway,,"('Practice',)",Chevrolet National Impala,0,0,Not Pacing,False,19,07:33.000183,True,0.0,0,0,00:00.000000,0.0,00:00.000000,0.0,28,0,0,65.85,1,6806,-9,99,102,102,102,102,102,102,102,102,102,102,102,102,100,100,100,100,100,100,100,100,100,100,100,100,124,179,175,0.07,1.01,78,0,0.0,0.4889353092049726,0.09300759200777603,0.9789016754741454,5,-2,-57,11,-1,-2,0.11205720109018212
Dover International Speedway,,"('Practice',)",Chevrolet National Impala,0,0,Not Pacing,False,19,07:33.000316,True,0.0,0,0,00:00.000000,0.0,00:00.000000,0.0,27,0,0,66.06,1,6818,-5,99,102,102,102,102,102,102,102,102,102,102,102,102,100,100,100,100,100,100,100,100,100,100,100,100,124,179,175,0.07,1.01,78,0,0.0,0.37749166031739273,0.08771619422477075,1.0922943294109069,5,4,-59,7,0,-3,0.11826618594175747
Dover International Speedway,,"('Practice',)",Chevrolet National Impala,0,0,Not Pacing,False,20,07:33.000450,True,0.0,0,0,00:00.000000,0.0,00:00.000000,0.0,24,0,0,66.3,1,6813,-6,99,102,102,102,102,102,102,102,102,102,102,102,102,100,100,100,100,100,100,100,100,100,100,100,100,124,179,175,0.07,1.01,78,0,0.0,0.3265091403179577,0.012473043559402014,0.9695996081306543,4,-1,-59,6,-1,5,0.10440561797879659
Dover International Speedway,,"('Practice',)",Chevrolet National Impala,0,0,Not Pacing,False,20,07:33.000583,True,0.0,0,0,00:00.000000,0.0,00:00.000000,0.0,23,0,0,66.34,1,6807,-6,99,102,102,102,102,102,102,102,102,102,102,102,102,100,100,100,100,100,100,100,100,100,100,100,100,124,179,175,0.07,1.01,78,0,0.0,0.41441688965341483,0.0951642107890651,1.5435439487966678,4,5,-60,7,0,-7,0.16337131466940238
Dover International Speedway,,"('Practice',)",Chevrolet National Impala,0,0,Not Pacing,False,20,07:33.000716,True,0.0,0,0,00:00.000000,0.0,00:00.000000,0.0,18,0,0,66.39,1,6790,-7,99,102,102,102,102,102,102,102,102,102,102,102,102,100,100,100,100,100,100,100,100,100,100,100,100,124,180,175,0.07,1.01,78,0,0.0,0.2832945455226451,0.00409833350191301,0.9924779730591691,3,3,-61,7,0,3,0.1053190311493647
Dover International Speedway,,"('Practice',)",Chevrolet National Impala,0,0,Not Pacing,False,20,07:33.000866,True,0.0,0,0,00:00.000000,0.0,00:00.000000,0.0,5,0,0,66.26,1,6518,-10,99,102,102,102,102,102,102,102,102,102,102,102,102,100,100,100,100,100,100,100,100,100,100,100,100,124,180,174,0.07,1.01,78,0,0.0,0.43446592356208386,-0.11463789886412391,1.005347229532753,4,-3,-63,9,0,-2,0.11236661019470816
Dover International Speedway,,"('Practice',)",Chevrolet National Impala,0,0,Not Pacing,False,21,07:34.000000,True,0.0,0,0,00:00.000000,0.0,00:00.000000,0.0,0,0,0,65.31,1,6580,-14,99,102,102,102,102,102,102,102,102,102,102,102,102,100,100,100,100,100,100,100,100,100,100,100,100,124,180,174,0.07,1.01,78,0,0.0,0.5710682980754203,-0.23527084626675138,1.1133365067259373,4,-1,-64,12,-1,-1,0.1299164161734899
Dover International Speedway,,"('Practice',)",Chevrolet National Impala,0,0,Not Pacing,False,21,07:34.000133,True,0.0,0,0,00:00.000000,0.0,00:00.000000,0.0,0,0,0,64.5,1,6533,-16,99,102,102,102,102,102,102,102,102,102,102,102,102,100,100,100,100,100,100,100,100,100,100,100,100,124,180,174,0.07,1.01,78,0,0.0,0.6276601680557298,-0.24706658724008104,1.078449330927764,4,-7,-66,12,0,2,0.1297986516395222
Dover International Speedway,,"('Practice',)",Chevrolet National Impala,0,0,Not Pacing,False,21,07:34.000283,True,0.0,0,0,00:00.000000,0.0,00:00.000000,0.0,0,0,0,63.78,1,6425,-13,99,102,102,102,102,102,102,102,102,102,102,102,102,100,100,100,100,100,100,100,100,100,100,100,100,124,180,174,0.07,1.01,78,0,0.0,0.6324313102512185,-0.2753612098343875,1.1390380781603393,4,-1,-68,13,-1,-1,0.1358791733327546
Dover International Speedway,,"('Practice',)",Chevrolet National Impala,0,0,Not Pacing,False,21,07:34.000416,True,0.0,0,0,00:00.000000,0.0,00:00.000000,0.0,0,0,0,62.92,1,6354,-12,99,102,102,102,102,102,102,102,102,102,102,102,102,100,100,100,100,100,100,100,100,100,100,100,100,124,180,173,0.07,1.01,78,0,0.0,0.5781631586383971,-0.26336581456673375,1.1306158993222297,5,3,-70,11,-1,-3,0.1323358256190969
Dover International Speedway,,"('Practice',)",Chevrolet National Impala,0,0,Not Pacing,False,22,07:34.000550,True,0.0,0,0,00:00.000000,0.0,00:00.000000,0.0,0,0,0,62.17,1,6292,-15,99,102,102,102,102,102,102,102,102,102,102,102,102,100,100,100,100,100,100,100,100,100,100,100,100,124,180,173,0.07,1.01,78,0,0.0,0.505757939438815,-0.20414589620389947,0.9797036951591965,4,-1,-71,11,-1,2,0.11441710607394895
Dover International Speedway,,"('Practice',)",Chevrolet National Impala,0,0,Not Pacing,False,22,07:34.000683,True,0.0,0,0,00:00.000000,0.0,00:00.000000,0.0,0,0,0,61.5,1,6198,-16,99,102,102,102,102,102,102,102,102,102,102,102,102,100,100,100,100,100,100,100,100,100,100,100,100,124,180,173,0.07,1.01,78,0,0.0,0.5649795590555267,-0.2542861497122699,1.0366659524122388,4,1,-73,15,-1,-4,0.12323470887387648
Dover International Speedway,,"('Practice',)",Chevrolet National Impala,0,0,Not Pacing,False,22,07:34.000816,True,0.0,0,0,00:00.000000,0.0,00:00.000000,0.0,0,0,0,60.74,1,6161,-15,99,102,102,102,102,102,102,102,102,102,102,102,102,100,100,100,100,100,100,100,100,100,100,100,100,124,180,173,0.07,1.01,78,0,0.0,0.5663060996146012,-0.20142634466639836,1.0573061477396708,4,1,-75,11,-1,1,0.12410325825388403
Dover International Speedway,,"('Practice',)",Chevrolet National Impala,0,0,Not Pacing,False,22,07:34.000950,True,0.0,0,0,00:00.000000,0.0,00:00.000000,0.0,0,0,0,60.08,1,6062,-16,99,102,102,102,102,102,102,102,102,102,102,102,102,100,100,100,100,100,100,100,100,100,100,100,100,124,180,173,0.07,1.01,78,0,0.0,0.6100981728867775,-0.24433289099177088,1.0946081318986525,4,0,-77,13,-1,-2,0.13028040213291076
Dover International Speedway,,"('Practice',)",Chevrolet National Impala,0,0,Not Pacing,False,23,07:35.000100,True,0.0,0,0,00:00.000000,0.0,00:00.000000,0.0,0,0,0,59.38,1,6008,-18,99,102,102,102,102,102,102,102,102,102,102,102,102,100,100,100,100,100,100,100,100,100,100,100,100,124,180,173,0.07,1.01,78,0,0.0,0.6210310135898726,-0.22574146710161525,1.1167136414942997,4,5,-79,13,-1,-1,0.13240510919740828
Dover International Speedway,,"('Practice',)",Chevrolet National Impala,0,0,Not Pacing,False,23,07:35.000233,True,0.0,0,0,00:00.000000,0.0,00:00.000000,0.0,0,0,0,58.61,1,5927,-15,99,102,102,102,102,102,102,102,102,102,102,102,102,100,100,100,100,100,100,100,100,100,100,100,100,124,180,172,0.07,1.01,78,0,0.0,0.624663385047096,-0.23547105954449232,1.1277173515732013,3,1,-81,14,0,-5,0.1337239891113651
Dover International Speedway,,"('Practice',)",Chevrolet National Impala,0,0,Not Pacing,False,23,07:35.000366,True,0.0,0,0,00:00.000000,0.0,00:00.000000,0.0,0,0,0,57.94,1,5862,-8,99,102,102,102,102,102,102,102,102,102,102,102,102,100,100,100,100,100,100,100,100,100,100,100,100,124,180,172,0.07,1.01,78,0,0.0,0.39851770002421494,-0.19419305064505635,0.9501227788118289,3,-1,-82,10,0,-1,0.10698533575944301
Dover International Speedway,,"('Practice',)",Chevrolet National Impala,0,0,Not Pacing,False,23,07:35.000500,True,0.0,0,0,00:00.000000,0.0,00:00.000000,0.0,15,0,0,57.34,1,5897,-2,99,102,102,102,102,102,102,102,102,102,102,102,102,100,100,100,100,100,100,100,100,100,100,100,100,124,180,172,0.07,1.01,78,0,0.0,0.26573036302727904,-0.12357405080221721,0.9513393211559175,3,-4,-83,6,-1,1,0.10157699052747991
Dover International Speedway,,"('Practice',)",Chevrolet National Impala,0,0,Not Pacing,False,23,07:35.000633,True,0.0,0,0,00:00.000000,0.0,00:00.000000,0.0,28,0,0,57.27,1,6164,-2,99,102,102,102,102,102,102,102,102,102,102,102,102,100,100,100,100,100,100,100,100,100,100,100,100,124,181,172,0.07,1.01,78,0,0.0,0.2244540067744668,0.2922249375011821,1.1369874353437976,4,-1,-84,4,0,-4,0.12195971314498746
Dover International Speedway,,"('Practice',)",Chevrolet National Impala,0,0,Not Pacing,False,24,07:35.000766,True,0.0,0,0,00:00.000000,0.0,00:00.000000,0.0,32,0,0,57.95,1,6055,-4,99,102,102,102,102,102,102,102,102,102,102,102,102,100,100,100,100,100,100,100,100,100,100,100,100,124,181,172,0.07,1.01,78,0,0.0,0.12110815621783366,0.10008957772444511,1.0271201682989992,4,1,-85,4,0,0,0.10602728018810488
Dover International Speedway,,"('Practice',)",Chevrolet National Impala,0,0,Not Pacing,False,24,07:35.000916,True,0.0,0,0,00:00.000000,0.0,00:00.000000,0.0,33,0,0,58.54,1,6060,-4,99,102,102,102,102,102,102,102,102,102,102,102,102,100,100,100,100,100,100,100,100,100,100,100,100,124,181,172,0.07,1.01,78,0,0.0,0.1746070858899971,0.21354709804118832,1.02529379935075,4,-1,-85,4,0,-1,0.1083420438440477
Dover International Speedway,,"('Practice',)",Chevrolet National Impala,0,0,Not Pacing,False,24,07:36.000050,True,0.0,0,0,00:00.000000,0.0,00:00.000000,0.0,37,0,0,59.21,1,6191,-8,99,102,102,102,102,102,102,102,102,102,102,102,102,100,100,100,100,100,100,100,100,100,100,100,100,124,181,172,0.07,1.01,78,0,0.0,0.23476015415638835,0.2300927641437931,1.0067502293018025,4,-3,-86,6,0,-4,0.10806700733645479
Dover International Speedway,,"('Practice',)",Chevrolet National Impala,0,0,Not Pacing,False,24,07:36.000183,True,0.0,0,0,00:00.000000,0.0,00:00.000000,0.0,42,0,0,60.09,1,6239,-13,99,102,102,102,102,102,102,102,102,102,102,102,102,100,100,100,100,100,100,100,100,100,100,100,100,124,181,172,0.07,1.01,78,0,0.0,0.34873385920315586,0.30270631403247394,1.136292157187739,4,-3,-87,8,0,-2,0.12515738877832258
Dover International Speedway,,"('Practice',)",Chevrolet National Impala,0,0,Not Pacing,False,25,07:36.000333,True,0.0,0,0,00:00.000000,0.0,00:00.000000,0.0,47,0,0,61.06,1,6365,-17,99,102,102,102,102,102,102,102,102,102,102,102,102,100,100,100,100,100,100,100,100,100,100,100,100,124,181,172,0.07,1.01,78,0,0.0,0.40085199046936965,0.37704432776214875,1.006800975274602,4,2,-89,11,0,-1,0.1170801291187906
Dover International Speedway,,"('Practice',)",Chevrolet National Impala,0,0,Not Pacing,False,25,07:36.000466,True,0.0,0,0,00:00.000000,0.0,00:00.000000,0.0,53,0,0,62.3,1,6588,-19,99,102,102,102,102,102,102,102,102,102,102,102,102,100,100,100,100,100,100,100,100,100,100,100,100,124,181,172,0.07,1.01,78,0,0.0,0.5451720059829385,0.47374719508926433,1.106315577795746,4,0,-90,13,0,-3,0.13481685320894507
Dover International Speedway,,"('Practice',)",Chevrolet National Impala,0,0,Not Pacing,False,25,07:36.000600,True,0.0,0,0,00:00.000000,0.0,00:00.000000,0.0,54,0,0,63.58,1,6702,-19,99,102,102,102,102,102,102,102,102,102,102,102,102,100,100,100,100,100,100,100,100,100,100,100,100,124,181,172,0.07,1.01,78,0,0.0,0.5373600912142723,0.47045857412977926,0.9599853850042904,4,0,-92,13,1,-2,0.12209383348716743
Dover International Speedway,,"('Practice',)",Chevrolet National Impala,0,0,Not Pacing,False,25,07:36.000733,True,0.0,0,0,00:00.000000,0.0,00:00.000000,0.0,54,0,0,64.77,1,6887,-15,99,102,102,102,102,102,102,102,102,102,102,102,102,100,100,100,100,100,100,100,100,100,100,100,100,124,181,172,0.07,1.01,78,0,0.0,0.5148983876639549,0.38017023594007576,0.9354078077030473,4,-1,-94,12,0,1,0.11565495026175437
Dover International Speedway,,"('Practice',)",Chevrolet National Impala,0,0,Not Pacing,False,26,07:36.000866,True,0.0,0,0,00:00.000000,0.0,00:00.000000,0.0,56,0,0,65.99,1,7044,-12,99,102,102,102,102,102,102,102,102,102,102,102,102,100,100,100,100,100,100,100,100,100,100,100,100,124,181,172,0.07,1.01,78,0,0.0,0.5005925924163103,0.4941171340864611,0.9224727370080354,4,-1,-96,11,0,2,0.11837177315365235
Dover International Speedway,,"('Practice',)",Chevrolet National Impala,0,0,Not Pacing,False,26,07:37.000000,True,0.0,0,0,00:00.000000,0.0,00:00.000000,0.0,57,0,0,67.24,1,7216,-11,99,102,102,102,102,102,102,102,102,102,102,102,102,100,100,100,100,100,100,100,100,100,100,100,100,124,181,173,0.07,1.01,78,0,0.0,0.6907184068094577,0.5498120544153615,1.2065862175399982,4,-6,-97,12,0,-8,0.15255820449411597
Dover International Speedway,,"('Practice',)",Chevrolet National Impala,0,0,Not Pacing,False,26,07:37.000133,True,0.0,0,0,00:00.000000,0.0,00:00.000000,0.0,58,0,0,68.8,1,7152,-11,99,102,102,102,102,102,102,102,102,102,102,102,102,100,100,100,100,100,100,100,100,100,100,100,100,124,182,173,0.07,1.01,78,0,0.0,0.4982354808655718,0.5163129559593705,1.2034055532908463,4,2,-99,7,1,2,0.14296652476366548
Dover International Speedway,,"('Practice',)",Chevrolet National Impala,0,0,Not Pacing,False,26,07:37.000283,True,0.0,0,0,00:00.000000,0.0,00:00.000000,0.0,58,0,0,69.79,1,7585,-13,99,102,102,102,102,102,102,102,102,102,102,102,102,100,100,100,100,100,100,100,100,100,100,100,100,124,182,173,0.07,1.01,78,0,0.0,0.4281708467504907,0.47771179712511347,1.0330714460056005,4,5,-100,10,0,-2,0.1240866442861949
Dover International Speedway,,"('Practice',)",Chevrolet National Impala,0,0,Not Pacing,False,27,07:37.000416,True,0.0,0,0,00:00.000000,0.0,00:00.000000,0.0,60,0,0,71.43,1,7510,-14,99,102,102,102,102,102,102,102,102,102,102,102,102,100,100,100,100,100,100,100,100,100,100,100,100,124,182,173,0.07,1.01,78,0,0.0,0.5284109125322036,0.5712828018857312,1.002354675355186,4,-3,-102,10,1,-3,0.12948722386197462
Dover International Speedway,,"('Practice',)",Chevrolet National Impala,0,0,Not Pacing,False,27,07:37.000550,True,0.0,0,0,00:00.000000,0.0,00:00.000000,0.0,61,0,0,72.63,1,7788,-13,99,102,102,102,102,102,102,102,102,102,102,102,102,100,100,100,100,100,100,100,100,100,100,100,100,124,182,173,0.07,1.01,78,0,0.0,0.47291285158054297,0.3557015145833582,0.9681544172654457,4,-1,-103,11,0,0,0.11578342193445235
Dover International Speedway,,"('Practice',)",Chevrolet National Impala,0,0,Not Pacing,False,27,07:37.000683,True,0.0,0,0,00:00.000000,0.0,00:00.000000,0.0,61,0,0,74.0,1,7804,-14,99,102,102,102,102,102,102,102,102,102,102,102,102,100,100,100,100,100,100,100,100,100,100,100,100,124,182,173,0.07,1.01,78,0,0.0,0.7749960449249859,0.6567748436261875,1.34136295221389,5,0,-105,12,0,-5,0.1716964208034558
Dover International Speedway,,"('Practice',)",Chevrolet National Impala,0,0,Not Pacing,False,28,07:37.000816,True,0.0,0,0,00:00.000000,0.0,00:00.000000,0.0,61,0,0,75.3,1,7931,-15,99,102,102,102,102,102,102,102,102,102,102,102,102,100,100,100,100,100,100,100,100,100,100,100,100,124,182,173,0.07,1.01,78,0,0.0,0.5367452580629868,0.44085184733072913,1.013362079585364,5,-3,-106,11,1,-1,0.12536280243092857
Dover International Speedway,,"('Practice',)",Chevrolet National Impala,0,0,Not Pacing,False,28,07:37.000983,True,0.0,0,0,00:00.000000,0.0,00:00.000000,0.0,61,0,0,76.18,1,7878,-19,99,102,102,102,102,102,102,102,102,102,102,102,102,100,100,100,100,100,100,100,100,100,100,100,100,124,183,173,0.07,1.01,78,0,0.0,0.5695643410405616,0.18149466081982843,0.9453718086266006,5,0,-108,11,0,4,0.11413399673686546
Dover International Speedway,,"('Practice',)",Chevrolet National Impala,0,0,Not Pacing,False,28,07:38.000116,True,0.0,0,0,00:00.000000,0.0,00:00.000000,0.0,61,0,0,76.39,1,7802,-24,99,102,102,102,102,102,102,102,102,102,102,102,102,100,100,100,100,100,100,100,100,100,100,100,100,124,183,173,0.07,1.01,78,0,0.0,0.7209415707991635,0.04359615262252232,0.8805307044166307,5,2,-110,17,0,-1,0.11620973793474063
Dover International Speedway,,"('Practice',)",Chevrolet National Impala,0,0,Not Pacing,False,29,07:38.000250,True,0.0,0,0,00:00.000000,0.0,00:00.000000,0.0,61,0,0,76.39,1,7942,-24,99,102,102,102,102,102,102,102,102,102,102,102,102,100,100,100,100,100,100,100,100,100,100,100,100,124,183,173,0.07,1.01,78,0,0.0,1.151486881889942,0.09159807279083221,1.3835959478255804,5,8,-113,17,0,-2,0.1839184871685146
Dover International Speedway,,"('Practice',)",Chevrolet National Impala,0,0,Not Pacing,False,29,07:38.000383,True,0.0,0,0,00:00.000000,0.0,00:00.000000,0.0,52,0,0,76.48,1,7829,-26,99,102,102,102,102,102,102,102,102,102,102,102,102,100,100,100,100,100,100,100,100,100,100,100,100,124,183,173,0.07,1.01,78,0,0.0,0.9283217450529792,0.07526658239957632,1.0116006499279773,5,-9,-115,16,0,0,0.14031195519226936
Dover International Speedway,,"('Practice',)",Chevrolet National Impala,0,0,Not Pacing,False,29,07:38.000516,True,0.0,0,0,00:00.000000,0.0,00:00.000000,0.0,41,0,0,76.47,1,7909,-26,99,102,102,102,102,102,102,102,102,102,102,102,102,100,100,100,100,100,100,100,100,100,100,100,100,124,184,173,0.07,1.01,78,0,0.0,1.172510394019575,0.035078275215856644,1.3044691717709727,5,6,-118,19,0,-2,0.17901260166055039
Dover International Speedway,,"('Practice',)",Chevrolet National Impala,0,0,Not Pacing,False,29,07:38.000650,True,0.0,0,0,00:00.000000,0.0,00:00.000000,0.0,43,0,0,76.48,1,7896,-19,99,102,102,102,102,102,102,102,102,102,102,102,102,100,100,100,100,100,100,100,100,100,100,100,100,124,184,173,0.07,1.01,78,0,0.0,0.9783322901050128,0.046960628239265154,1.0345328716935245,5,5,-120,15,0,1,0.1453713749768262
Dover International Speedway,,"('Practice',)",Chevrolet National Impala,0,0,Not Pacing,False,30,07:38.000800,True,0.0,0,0,00:00.000000,0.0,00:00.000000,0.0,14,0,51,76.5,1,7781,-17,99,102,102,102,102,102,102,102,102,102,102,102,102,100,100,100,100,100,100,100,100,100,100,100,100,124,184,173,0.07,1.01,78,0,0.0,0.8161407727349423,-0.0010535736149604167,0.8857492763818707,4,0,-123,16,-1,-2,0.12290047084766122
Dover International Speedway,,"('Practice',)",Chevrolet National Impala,0,0,Not Pacing,False,30,07:38.000950,True,0.0,0,0,00:00.000000,0.0,00:00.000000,0.0,0,0,100,76.25,N,6928,-11,99,102,102,102,102,102,102,102,102,102,102,102,102,100,100,100,100,100,100,100,100,100,100,100,100,124,184,173,0.07,1.01,78,0,0.0,0.7510298010527662,-0.044474549492807804,0.9830962870342165,4,-6,-125,12,-1,-1,0.12632068073570843
Dover International Speedway,,"('Practice',)",Chevrolet National Impala,0,0,Not Pacing,False,30,07:39.000083,True,0.0,0,0,00:00.000000,0.0,00:00.000000,0.0,24,0,42,76.12,2,6305,-12,99,102,102,102,102,102,102,102,102,102,102,102,102,100,100,100,100,100,100,100,100,100,100,100,100,124,184,172,0.07,1.01,78,0,0.0,0.5984200371636285,0.16677436721677322,0.9472984057318544,4,-3,-126,9,-1,3,0.11559447870146702
Dover International Speedway,,"('Practice',)",Chevrolet National Impala,0,0,Not Pacing,False,31,07:39.000216,True,0.0,0,0,00:00.000000,0.0,00:00.000000,0.0,64,0,0,77.3,2,6135,-10,99,102,102,102,102,102,102,102,102,102,102,102,102,100,100,100,100,100,100,100,100,100,100,100,100,124,184,172,0.07,1.01,78,0,0.0,0.6701389219418213,0.484124649312275,1.1501681670987034,4,0,-128,11,0,-5,0.14453640085536487
Dover International Speedway,,"('Practice',)",Chevrolet National Impala,0,0,Not Pacing,False,31,07:39.000350,True,0.0,0,0,00:00.000000,0.0,00:00.000000,0.0,65,0,0,78.53,2,6277,-9,99,102,102,102,102,102,102,102,102,102,102,102,102,100,100,100,100,100,100,100,100,100,100,100,100,124,184,173,0.07,1.01,78,0,0.0,0.5629225486887582,0.4279885209420891,1.0791408177180393,4,-4,-129,8,0,0,0.1316524615037955
Dover International Speedway,,"('Practice',)",Chevrolet National Impala,0,0,Not Pacing,False,31,07:39.000483,True,0.0,0,0,00:00.000000,0.0,00:00.000000,0.0,66,0,0,79.77,2,6396,-12,99,102,102,102,102,102,102,102,102,102,102,102,102,100,100,100,100,100,100,100,100,100,100,100,100,124,184,173,0.07,1.01,78,0,0.0,0.5818532269056905,0.5090982299089188,1.1163664884888067,5,2,-131,11,0,-6,0.13856557958478094
Dover International Speedway,,"('Practice',)",Chevrolet National Impala,0,0,Not Pacing,False,32,07:39.000633,True,0.0,0,0,00:00.000000,0.0,00:00.000000,0.0,66,0,0,80.99,2,6561,-10,99,102,102,102,102,102,102,102,102,102,102,102,102,100,100,100,100,100,100,100,100,100,100,100,100,124,184,173,0.07,1.01,78,0,0.0,0.4910462250160271,0.4111578705113962,0.9122080516134683,4,-2,-132,11,0,-2,0.1137332088935818
Dover International Speedway,,"('Practice',)",Chevrolet National Impala,0,0,Not Pacing,False,32,07:39.000766,True,0.0,0,0,00:00.000000,0.0,00:00.000000,0.0,66,0,0,82.37,2,6668,-11,99,102,102,102,102,102,102,102,102,102,102,102,102,100,100,100,100,100,100,100,100,100,100,100,100,124,184,173,0.07,1.01,78,0,0.0,0.6531226404094793,0.44265537086976775,1.1948132490649985,5,-6,-134,12,0,-7,0.1461034811582009
Dover International Speedway,,"('Practice',)",Chevrolet National Impala,0,0,Not Pacing,False,32,07:39.000900,True,0.0,0,0,00:00.000000,0.0,00:00.000000,0.0,66,0,0,83.72,2,6669,-15,99,102,102,102,102,102,102,102,102,102,102,102,102,100,100,100,100,100,100,100,100,100,100,100,100,124,184,173,0.07,1.01,78,0,0.0,0.5537143419520448,0.3256438825959216,0.97657785989215,6,-8,-135,7,0,6,0.11927641010427073
Dover International Speedway,,"('Practice',)",Chevrolet National Impala,0,0,Not Pacing,False,33,07:40.000033,True,0.0,0,0,00:00.000000,0.0,00:00.000000,0.0,66,0,0,84.88,2,6779,-14,99,102,102,102,102,102,102,102,102,102,102,102,102,100,100,100,100,100,100,100,100,100,100,100,100,124,185,173,0.07,1.01,78,0,0.0,0.7246118073069721,0.49975931826716896,1.1858768054833835,6,1,-137,15,0,-6,0.15070034496988463
Dover International Speedway,,"('Practice',)",Chevrolet National Impala,0,0,Not Pacing,False,33,07:40.000166,True,0.0,0,0,00:00.000000,0.0,00:00.000000,0.0,65,0,0,86.12,2,6849,-13,99,102,102,102,102,102,102,102,102,102,102,102,102,100,100,100,100,100,100,100,100,100,100,100,100,124,185,173,0.07,1.01,78,0,0.0,0.6888214601289241,0.4386821167427708,1.0022472533246427,6,0,-139,11,0,1,0.13192171079413353
Dover International Speedway,,"('Practice',)",Chevrolet National Impala,0,0,Not Pacing,False,33,07:40.000316,True,0.0,0,0,00:00.000000,0.0,00:00.000000,0.0,61,0,0,87.08,2,7068,-19,99,102,102,102,102,102,102,102,102,102,102,102,102,100,100,100,100,100,100,100,100,100,100,100,100,124,185,173,0.07,1.01,78,0,0.0,1.0237915435697689,0.49949970692548057,1.2817396422531018,7,-4,-141,18,0,-6,0.17497859666896376
Dover International Speedway,,"('Practice',)",Chevrolet National Impala,0,0,Not Pacing,False,34,07:40.000450,True,0.0,0,0,00:00.000000,0.0,00:00.000000,0.0,61,0,0,88.35,2,7001,-21,99,102,102,102,102,102,102,102,102,102,102,102,102,100,100,100,100,100,100,100,100,100,100,100,100,124,185,174,0.07,1.01,78,0,0.0,1.0097897380863854,0.3800423016484967,1.228244054329626,7,-6,-143,16,0,-1,0.1668200679181429
Dover International Speedway,,"('Practice',)",Chevrolet National Impala,0,0,Not Pacing,False,34,07:40.000583,True,0.0,0,0,00:00.000000,0.0,00:00.000000,0.0,61,0,0,89.24,2,7162,-18,99,102,102,102,102,102,102,102,102,102,102,102,102,100,100,100,100,100,100,100,100,100,100,100,100,124,185,174,0.07,1.01,78,0,0.0,0.9880619068515166,0.3893124097227199,1.1170984165141098,8,1,-146,19,0,-4,0.15727993478978539
Dover International Speedway,,"('Practice',)",Chevrolet National Impala,0,0,Not Pacing,False,34,07:40.000716,True,0.0,0,0,00:00.000000,0.0,00:00.000000,0.0,57,0,0,90.16,2,7192,-13,99,102,102,102,102,102,102,102,102,102,102,102,102,100,100,100,100,100,100,100,100,100,100,100,100,124,185,174,0.07,1.01,78,0,0.0,0.833475674814891,0.2773568292398093,0.8589089342092033,7,5,-148,17,0,-1,0.1253621604279561
Dover International Speedway,,"('Practice',)",Chevrolet National Impala,0,0,Not Pacing,False,35,07:40.000866,True,0.0,0,0,00:00.000000,0.0,00:00.000000,0.0,58,0,0,90.93,2,7341,-16,99,102,102,102,102,102,102,102,102,102,102,102,102,100,100,100,100,100,100,100,100,100,100,100,100,124,185,174,0.07,1.01,78,0,0.0,1.184872871266714,0.38947240049807424,1.280996631773969,7,-3,-151,19,0,-6,0.18243816004620153
Dover International Speedway,,"('Practice',)",Chevrolet National Impala,0,0,Not Pacing,False,35,07:41.000000,True,0.0,0,0,00:00.000000,0.0,00:00.000000,0.0,58,0,0,91.84,2,7277,-17,99,102,102,102,102,102,102,102,102,102,102,102,102,100,100,100,100,100,100,100,100,100,100,100,100,124,185,174,0.07,1.01,78,0,0.0,1.183410765077239,0.34648499600627247,1.2655474967062168,7,-3,-153,14,0,0,0.18030133962731085
Dover International Speedway,,"('Practice',)",Chevrolet National Impala,0,0,Not Pacing,False,35,07:41.000133,True,0.0,0,0,00:00.000000,0.0,00:00.000000,0.0,57,0,0,92.7,2,7406,-18,99,102,102,102,102,102,102,102,102,102,102,102,102,100,100,100,100,100,100,100,100,100,100,100,100,124,185,174,0.07,1.01,78,0,0.0,0.9549435490132836,0.32863510007401364,1.0391853635828794,7,7,-155,17,0,-2,0.14786500981478437
Dover International Speedway,,"('Practice',)",Chevrolet National Impala,0,0,Not Pacing,False,36,07:41.000266,True,0.0,0,0,00:00.000000,0.0,00:00.000000,0.0,52,0,0,93.38,2,7496,-8,99,102,102,102,102,102,102,102,102,102,102,102,102,100,100,100,100,100,100,100,100,100,100,100,100,124,186,174,0.07,1.01,78,0,0.0,1.106429221554755,0.30271997267074663,1.2520099877095976,7,-18,-157,15,-1,-3,0.17326981357231108
Dover International Speedway,,"('Practice',)",Chevrolet National Impala,0,0,Not Pacing,False,36,07:41.000400,True,0.0,0,0,00:00.000000,0.0,00:00.000000,0.0,52,0,0,94.05,2,7406,-11,99,102,102,102,102,102,102,102,102,102,102,102,102,100,100,100,100,100,100,100,100,100,100,100,100,124,186,174,0.07,1.01,78,0,0.0,1.551031215718276,0.473991397931549,1.7495245743964425,9,17,-160,14,0,-9,0.24343102135958228
Dover International Speedway,,"('Practice',)",Chevrolet National Impala,0,0,Not Pacing,False,36,07:41.000550,True,0.0,0,0,00:00.000000,0.0,00:00.000000,0.0,55,0,0,94.7,2,7580,-13,99,102,102,102,102,102,102,102,102,102,102,102,102,100,100,100,100,100,100,100,100,100,100,100,100,124,186,174,0.07,1.01,78,0,0.0,0.6315616778763548,0.20295357242393686,0.7838919986643192,8,1,-161,11,-1,2,0.10478687494967996
Dover International Speedway,,"('Practice',)",Chevrolet National Impala,0,0,Not Pacing,False,37,07:41.000683,True,0.0,0,0,00:00.000000,0.0,00:00.000000,0.0,55,0,0,95.59,2,7535,-11,99,102,102,102,102,102,102,102,102,102,102,102,102,100,100,100,100,100,100,100,100,100,100,100,100,124,186,174,0.07,1.01,78,0,0.0,1.1740765197318384,0.32984731637252823,1.490713696961009,7,3,-163,17,0,-10,0.1965307778786612
Dover International Speedway,,"('Practice',)",Chevrolet National Impala,0,0,Not Pacing,False,37,07:41.000816,True,0.0,0,0,00:00.000000,0.0,00:00.000000,0.0,55,0,0,96.34,2,7580,-10,99,102,102,102,102,102,102,102,102,102,102,102,102,100,100,100,100,100,100,100,100,100,100,100,100,124,186,174,0.07,1.01,78,0,0.0,0.5034455465614248,0.18185667549312173,0.8026324280905067,7,-4,-165,6,0,5,0.09844416952093
Dover International Speedway,,"('Practice',)",Chevrolet National Impala,0,0,Not Pacing,False,38,07:41.000966,True,0.0,0,0,00:00.000000,0.0,00:00.000000,0.0,57,0,0,97.01,2,7736,-10,99,102,102,102,102,102,102,102,102,102,102,102,102,100,100,100,100,100,100,100,100,100,100,100,100,124,186,174,0.07,1.01,78,0,0.0,0.6218765853741847,0.3305091527380831,1.0414910000520137,8,-6,-166,10,-1,0,0.12829052122835638
Dover International Speedway,,"('Practice',)",Chevrolet National Impala,0,0,Not Pacing,False,38,07:42.000100,True,0.0,0,0,00:00.000000,0.0,00:00.000000,0.0,58,0,0,98.0,2,7618,-9,99,102,102,102,102,102,102,102,102,102,102,102,102,100,100,100,100,100,100,100,100,100,100,100,100,124,186,174,0.07,1.01,78,0,0.0,0.7890404789698111,0.3259792726460339,1.4832403317139418,8,-7,-168,9,0,-3,0.17463143926589325
Dover International Speedway,,"('Practice',)",Chevrolet National Impala,0,0,Not Pacing,False,38,07:42.000233,True,0.0,0,0,00:00.000000,0.0,00:00.000000,0.0,59,0,0,98.7,2,7832,-11,99,102,102,102,102,102,102,102,102,102,102,102,102,100,100,100,100,100,100,100,100,100,100,100,100,124,187,175,0.07,1.01,78,0,0.0,0.40739953335636614,0.17065337187896323,0.6655931715814588,9,-4,-169,8,-1,7,0.0815121063496378
Dover International Speedway,,"('Practice',)",Chevrolet National Impala,0,0,Not Pacing,False,39,07:42.000366,True,0.0,0,0,00:00.000000,0.0,00:00.000000,0.0,59,0,0,99.26,2,7850,-11,99,102,102,102,102,102,102,102,102,102,102,102,102,100,100,100,100,100,100,100,100,100,100,100,100,124,187,175,0.07,1.01,78,0,0.0,0.8769989013671874,0.3991912750415238,1.3750261973654214,10,-1,-171,14,-1,-8,0.17133068726678854
Dover International Speedway,,"('Practice',)",Chevrolet National Impala,0,0,Not Pacing,False,39,07:42.000500,True,0.0,0,0,00:00.000000,0.0,00:00.000000,0.0,60,0,0,100.1,2,7867,-7,99,102,102,102,102,102,102,102,102,102,102,102,102,100,100,100,100,100,100,100,100,100,100,100,100,124,187,175,0.07,1.01,78,0,0.0,0.8269383880584125,0.28373422243544083,1.3581576332768897,10,-11,-173,11,0,-5,0.16481801088579104
