TrackName,TrackType,SessionFlag,CarName,RacePosition,Lap Nbr,PaceMode,OnPitRoad,LapDistPrct %,SessionTime,IsOnTrack,PreviousLap,LapBestLap,LapCompleted,CurrentLapTime,LapBestLapTime,LapDeltaToBestLap,LapDeltaToBestLap_DD,Throttle %,Brake %,Clutch %,Speed (MPH),currentGear,RPM,SteeringWheelAngle (deg),FuelLevelPct,LFtempCL (F),LFtempCR (F),LFtempCM (F),LRtempCL (F),LRtempCR (F),LRtempCM (F),RFtempCL (F),RFtempCR (F),RFtempCM (F),RRtempCL (F),RRtempCR (F),RRtempCM (F),LFwearL %,LFwearM %,LFwearR %,LRwearL %,LRwearM %,LRwearR %,RFwearL %,RFwearM %,RFwearR %,RRwearL %,RRwearM %,RRwearR %,TrackTemp (F),OilTemp (F),WaterTemp (F),AirDensity (lbs/ft^3),AirPressure (bar),AirTemp (F),WindDir (deg),WindVel (MPH),LatAccel (m/s),LongAccel (m/s),VertAccel (m/s),Roll (deg),RollRate (deg/s),Yaw (deg),YawRate (deg/s),Pitch (deg),PitchRate (deg/s),gForces
Autodromo Nazionale Monza,,"('Practice',)",Cadillac V-Series.R,0,0,Not Pacing,True,4,04:46.000916,True,0.0,0,0,00:00.000000,0.0,00:00.000000,0.0,0,100,100,0,N,1549,4.945313518069931,99,120,120,120,120,120,120,120,120,120,120,120,120,100,100,100,100,100,100,100,100,100,100,100,100,121,200,156,0.07,0.99,78,0.0,0,0.021468318626664342,-0.004676208431689139,0.999358718669864,1.2737791605103088,-1,179.83348499699142,-1,0.30540977430300453,-1,0.10200002267291486
Autodromo Nazionale Monza,,"('Practice',)",Cadillac V-Series.R,0,0,Not Pacing,True,4,04:47.000183,True,0.0,0,0,00:00.000000,0.0,00:00.000000,0.0,0,100,100,0,N,1549,6.107460386950668,99,120,120,120,120,120,120,120,120,120,120,120,120,100,100,100,100,100,100,100,100,100,100,100,100,121,200,156,0.07,0.99,78,0.0,0,0.022514079385090553,-0.00509965242049016,0.9993350955445953,1.2742626098374987,0,179.83363526115318,0,0.3053925654279473,-1,0.1020001716712023
Autodromo Nazionale Monza,,"('Practice',)",Cadillac V-Series.R,0,0,Not Pacing,True,4,04:47.000449,True,0.0,0,0,00:00.000000,0.0,00:00.000000,0.0,0,100,100,0,N,1549,7.253573813641624,99,120,120,120,120,120,120,120,120,120,120,120,120,100,100,100,100,100,100,100,100,100,100,100,100,121,200,156,0.07,0.99,78,0.0,0,0.022796110822520123,-0.0053772822432561745,0.999418991664377,1.274899204812485,-1,179.8342636385568,0,0.30545355688280135,0,0.10200953085358604
Autodromo Nazionale Monza,,"('Practice',)",Cadillac V-Series.R,0,0,Not Pacing,True,4,04:47.000716,True,0.0,0,0,00:00.000000,0.0,00:00.000000,0.0,0,100,100,0,N,1549,6.912441296205807,99,120,120,120,120,120,120,120,120,120,120,120,120,100,100,100,100,100,100,100,100,100,100,100,100,121,200,156,0.07,0.99,78,0.0,0,0.021801418059948872,-0.0057020246466122386,0.9997111212587502,1.2745257855639558,-1,179.8342636385568,-1,0.3054020903401883,0,0.10203725202361254
Autodromo Nazionale Monza,,"('Practice',)",Cadillac V-Series.R,0,0,Not Pacing,True,4,04:47.000966,True,0.0,0,0,00:00.000000,0.0,00:00.000000,0.0,0,100,100,0,N,1549,6.845355605064764,99,120,120,120,120,120,120,120,120,120,120,120,120,100,100,100,100,100,100,100,100,100,100,100,100,121,200,155,0.07,0.99,78,0.0,0,0.02250164048508888,-0.005726492322913003,0.9992845440008102,1.2746856546792165,0,179.83435926120518,-1,0.30545240962446424,0,0.10199533253737722
Autodromo Nazionale Monza,,"('Practice',)",Cadillac V-Series.R,0,0,Not Pacing,True,4,04:48.000233,True,0.0,0,0,00:00.000000,0.0,00:00.000000,0.0,0,100,100,0,N,1549,6.968371153998102,99,120,120,120,120,120,120,120,120,120,120,120,120,100,100,100,100,100,100,100,100,100,100,100,100,121,200,155,0.07,0.99,78,0.0,0,0.02231704380655629,-0.005390950754877259,0.9996777766827535,1.2748902401891995,0,179.83448220461025,-1,0.30534934313710577,0,0.10203483502815092
Autodromo Nazionale Monza,,"('Practice',)",Cadillac V-Series.R,0,0,Not Pacing,True,4,04:48.000499,True,0.0,0,0,00:00.000000,0.0,00:00.000000,0.0,0,100,100,0,N,1549,7.29271933532226,99,120,120,120,120,120,120,120,120,120,120,120,120,100,100,100,100,100,100,100,100,100,100,100,100,121,200,155,0.07,0.99,78,0.0,0,0.0215771183690529,-0.005102374046949801,0.9989203784565434,1.274992906470161,-1,179.83430461969184,-1,0.30550203521765257,-1,0.10195575683127979
Autodromo Nazionale Monza,,"('Practice',)",Cadillac V-Series.R,0,0,Not Pacing,True,4,04:48.000766,True,0.0,0,0,00:00.000000,0.0,00:00.000000,0.0,0,100,100,0,N,1549,7.756992052643767,99,120,120,120,120,120,120,120,120,120,120,120,120,100,100,100,100,100,100,100,100,100,100,100,100,121,200,155,0.07,0.99,78,0.0,0,0.022293091063348768,-0.005372157215950564,0.9994725568578877,1.275450102257729,0,179.83445488385357,-1,0.30550283563044595,-1,0.10201383489680971
Autodromo Nazionale Monza,,"('Practice',)",Cadillac V-Series.R,0,0,Not Pacing,True,4,04:49.000016,True,0.0,0,0,00:00.000000,0.0,00:00.000000,0.0,0,100,100,0,N,1549,8.36693819080966,99,120,120,120,120,120,120,120,120,120,120,120,120,100,100,100,100,100,100,100,100,100,100,100,100,121,200,155,0.07,0.99,78,0.0,0,0.02254396677017212,-0.005299377347229696,0.999057548126314,1.2756793404817475,-1,179.8348100536904,0,0.3056114783269315,0,0.1019720328533145
Autodromo Nazionale Monza,,"('Practice',)",Cadillac V-Series.R,0,0,Not Pacing,True,4,04:49.000283,True,0.0,0,0,00:00.000000,0.0,00:00.000000,0.0,0,100,100,0,N,1549,8.635642101626194,99,120,120,120,120,120,120,120,120,120,120,120,120,100,100,100,100,100,100,100,100,100,100,100,100,121,200,155,0.07,0.99,78,0.0,0,0.0225075766459396,-0.005351921788413955,0.9999777806522162,1.2756303552187938,0,179.8348100536904,0,0.3055665751692239,-1,0.10206585386051328
Autodromo Nazionale Monza,,"('Practice',)",Cadillac V-Series.R,0,0,Not Pacing,True,4,04:49.000549,True,0.0,0,0,00:00.000000,0.0,00:00.000000,0.0,0,100,100,0,1,1549,11.415616178733302,99,120,120,120,120,120,120,120,120,120,120,120,120,100,100,100,100,100,100,100,100,100,100,100,100,121,200,155,0.07,0.99,78,0.0,0,0.023401760240821176,-0.00608756257245786,0.9995548975455529,1.2770890274934146,0,179.83643563871286,0,0.3053938194079902,0,0.10202523830108408
Autodromo Nazionale Monza,,"('Practice',)",Cadillac V-Series.R,0,0,Not Pacing,True,4,04:49.000816,True,0.0,0,0,00:00.000000,0.0,00:00.000000,0.0,14,100,100,0,1,1809,21.829187257165078,99,120,120,120,120,120,120,120,120,120,120,120,120,100,100,100,100,100,100,100,100,100,100,100,100,121,200,155,0.07,0.99,78,0.0,0,0.025596121035584615,-0.006145011789329676,0.9993902161702224,1.2857855658541333,0,179.84121677113188,0,0.305307241424175,0,0.10201396211732734
Autodromo Nazionale Monza,,"('Practice',)",Cadillac V-Series.R,0,0,Not Pacing,True,4,04:50.000083,True,0.0,0,0,00:00.000000,0.0,00:00.000000,0.0,19,100,100,0,1,2899,36.92301227565928,99,120,120,120,120,120,120,120,120,120,120,120,120,100,100,100,100,100,100,100,100,100,100,100,100,121,200,155,0.07,0.99,78,0.0,0,0.025172290087475322,-0.005448859462193635,0.9995718128698194,1.2942771985397516,0,179.85066975294316,0,0.30480391517928324,-1,0.10203097622664412
Autodromo Nazionale Monza,,"('Practice',)",Cadillac V-Series.R,0,0,Not Pacing,True,4,04:50.000333,True,0.0,0,0,00:00.000000,0.0,00:00.000000,0.0,7,100,100,0,1,2810,57.65046440649191,99,120,120,120,120,120,120,120,120,120,120,120,120,100,100,100,100,100,100,100,100,100,100,100,100,121,200,155,0.07,0.99,78,0.0,0,0.025800760611360104,-0.00407876376590476,0.9997900594386606,1.3005762337800901,0,179.86381103690627,0,0.3028781753593099,-1,0.10205420720881941
Autodromo Nazionale Monza,,"('Practice',)",Cadillac V-Series.R,0,0,Not Pacing,True,4,04:50.000616,True,0.0,0,0,00:00.000000,0.0,00:00.000000,0.0,10,100,100,0,1,2505,80.15540496692867,99,120,120,120,120,120,120,120,120,120,120,120,120,100,100,100,100,100,100,100,100,100,100,100,100,121,200,155,0.07,0.99,78,0.0,0,0.017835174010312763,-0.0036916723066635205,0.9996448209647859,1.31584394773089,0,179.88068160415622,0,0.2990091133183357,-1,0.10202150276193232
Autodromo Nazionale Monza,,"('Practice',)",Cadillac V-Series.R,0,0,Not Pacing,True,4,04:50.000883,True,0.0,0,0,00:00.000000,0.0,00:00.000000,0.0,12,100,100,0,1,2405,88.4481766948621,99,120,120,120,120,120,120,120,120,120,120,120,120,100,100,100,100,100,100,100,100,100,100,100,100,121,200,155,0.07,0.99,78,0.0,0,0.02238948380424585,-0.003969010485907699,0.9985056613684915,1.3206932753198934,0,179.8860364724655,0,0.2975097267129592,-1,0.10191474854296949
Autodromo Nazionale Monza,,"('Practice',)",Cadillac V-Series.R,0,0,Not Pacing,True,4,04:51.000149,True,0.0,0,0,00:00.000000,0.0,00:00.000000,0.0,18,100,100,0,1,3076,99.14106323675968,99,120,120,120,120,120,120,120,120,120,120,120,120,100,100,100,100,100,100,100,100,100,100,100,100,121,200,155,0.07,0.99,78,0.0,0,0.024692291938808956,-0.004155011458377468,0.9996481262580335,1.3300823308294278,0,179.89451956741465,0,0.29469040605047775,-1,0.10203690552365997
Autodromo Nazionale Monza,,"('Practice',)",Cadillac V-Series.R,0,0,Not Pacing,True,4,04:51.000399,True,0.0,0,0,00:00.000000,0.0,00:00.000000,0.0,21,100,100,0,1,4245,108.97191160350994,99,120,120,120,120,120,120,120,120,120,120,120,120,100,100,100,100,100,100,100,100,100,100,100,100,121,200,155,0.07,0.99,78,0.0,0,0.023331941996874793,-0.004270518622024101,0.9988670076920473,1.3365523342424284,0,179.90132243582798,0,0.292223560501766,-1,0.10195393831697444
Autodromo Nazionale Monza,,"('Practice',)",Cadillac V-Series.R,0,0,Not Pacing,True,4,04:51.000666,True,0.0,0,0,00:00.000000,0.0,00:00.000000,0.0,22,0,76,1,1,1681,117.92403564297055,99,120,120,120,120,120,120,120,120,120,120,120,120,100,100,100,100,100,100,100,100,100,100,100,100,121,200,155,0.07,0.99,78,0.0,0,0.06404022071947259,-0.16196297821527106,0.9926859148902387,1.2410597796215974,1,179.9308151926641,2,0.18904769673511865,0,0.10284167774304372
Autodromo Nazionale Monza,,"('Practice',)",Cadillac V-Series.R,0,0,Not Pacing,True,4,04:51.000933,True,0.0,0,0,00:00.000000,0.0,00:00.000000,0.0,23,0,76,1,1,1678,129.55090274254317,99,120,120,120,120,120,120,120,120,120,120,120,120,100,100,100,100,100,100,100,100,100,100,100,100,121,200,155,0.07,0.99,78,0.0,0,0.06859133610545555,0.11901013348080695,1.0115739159384756,1.301653055791425,0,-179.41803191053623,2,0.2856209020084793,0,0.1041691294225189
Autodromo Nazionale Monza,,"('Practice',)",Cadillac V-Series.R,0,0,Not Pacing,True,4,04:52.000183,True,0.0,0,0,00:00.000000,0.0,00:00.000000,0.0,27,0,74,2,1,1671,142.79145667504466,99,120,120,120,120,120,120,120,120,120,120,120,120,100,100,100,100,100,100,100,100,100,100,100,100,121,200,155,0.07,0.99,78,0.0,0,0.07305774120015834,0.1385034528104294,1.0027534492640442,1.3003496635987162,-1,-178.5174168269567,4,0.28488820413743676,0,0.1035618835453228
Autodromo Nazionale Monza,,"('Practice',)",Cadillac V-Series.R,0,0,Not Pacing,True,4,04:52.000449,True,0.0,0,0,00:00.000000,0.0,00:00.000000,0.0,32,0,72,3,1,1661,136.33807538116318,99,120,120,120,120,120,120,120,120,120,120,120,120,100,100,100,100,100,100,100,100,100,100,100,100,121,200,155,0.07,0.99,78,0.0,0,0.047272547061776284,0.17455721484776301,1.0039504514921695,1.2668437437383955,-1,-177.16576337134617,5,0.2684026087606854,-1,0.1040927076947035
Autodromo Nazionale Monza,,"('Practice',)",Cadillac V-Series.R,0,0,Not Pacing,True,4,04:52.000749,True,0.0,0,0,00:00.000000,0.0,00:00.000000,0.0,32,0,72,4,1,1661,106.66578019252518,99,120,120,120,120,120,120,120,120,120,120,120,120,100,100,100,100,100,100,100,100,100,100,100,100,121,200,155,0.07,0.99,78,0.0,0,0.04865366749078126,0.17862657766701856,1.0071220747921443,1.1725520217510175,-1,-175.42858671822347,5,0.1947704347642373,-1,0.10448947241374947
Autodromo Nazionale Monza,,"('Practice',)",Cadillac V-Series.R,0,0,Not Pacing,True,4,04:53.000016,True,0.0,0,0,00:00.000000,0.0,00:00.000000,0.0,34,0,71,6,1,1656,84.46655206914902,99,120,120,120,120,120,120,120,120,120,120,120,120,100,100,100,100,100,100,100,100,100,100,100,100,121,200,155,0.07,0.99,78,0.0,0,0.048029030864027294,0.19363947478516993,1.0028791476219558,1.0051489943924707,-1,-173.9197023079193,5,0.059234095205421555,-1,0.10433989660074745
Autodromo Nazionale Monza,,"('Practice',)",Cadillac V-Series.R,0,0,Not Pacing,True,4,04:53.000283,True,0.0,0,0,00:00.000000,0.0,00:00.000000,0.0,35,0,71,7,1,1625,69.91839257099443,99,120,120,120,120,120,120,120,120,120,120,120,120,100,100,100,100,100,100,100,100,100,100,100,100,121,200,156,0.07,0.99,78,0.0,0,0.048156548955997074,0.21030001197993814,0.9995553836180894,0.8621268075239608,-1,-172.429696540481,5,-0.1390702687631915,-1,0.10434421225468024
Autodromo Nazionale Monza,,"('Practice',)",Cadillac V-Series.R,0,0,Not Pacing,True,4,04:53.000549,True,0.0,0,0,00:00.000000,0.0,00:00.000000,0.0,36,0,70,8,1,1534,58.09483651389294,99,120,120,120,120,120,120,120,120,120,120,120,120,100,100,100,100,100,100,100,100,100,100,100,100,121,200,156,0.07,0.99,78,0.0,0,0.03734077274738588,0.22075190821189764,0.999734744384019,0.7380528460735355,-1,-170.95124745311838,5,-0.4387181248308707,-2,0.10454056968612382
Autodromo Nazionale Monza,,"('Practice',)",Cadillac V-Series.R,0,0,Not Pacing,True,4,04:53.000816,True,0.0,0,0,00:00.000000,0.0,00:00.000000,0.0,34,0,71,9,1,1450,45.85418470984088,99,120,120,120,120,120,120,120,120,120,120,120,120,100,100,100,100,100,100,100,100,100,100,100,100,121,200,156,0.07,0.99,78,0.0,0,0.03367433975717465,0.20841198473044734,1.0022485171132374,0.6389191602948531,0,-169.5837342982551,4,-0.6464327419078586,-1,0.10451448641009185
Autodromo Nazionale Monza,,"('Practice',)",Cadillac V-Series.R,0,0,Not Pacing,True,4,04:54.000083,True,0.0,0,0,00:00.000000,0.0,00:00.000000,0.0,35,0,71,10,1,1369,27.236779504205696,99,120,120,120,120,120,120,120,120,120,120,120,120,100,100,100,100,100,100,100,100,100,100,100,100,121,200,156,0.07,0.99,78,0.0,0,0.020278005971821073,0.21225849544357936,1.016735909060479,0.7766528597550691,0,-168.55898735669976,2,-0.5691330898324054,0,0.10600546805947791
Autodromo Nazionale Monza,,"('Practice',)",Cadillac V-Series.R,0,0,Not Pacing,True,4,04:54.000349,True,0.0,0,0,00:00.000000,0.0,00:00.000000,0.0,35,0,62,11,1,1309,11.146286451834065,99,120,120,120,120,120,120,120,120,120,120,120,120,100,100,100,100,100,100,100,100,100,100,100,100,121,200,156,0.07,0.99,78,0.0,0,0.0031768500987178322,0.19754367015655858,0.9949381805948768,0.9210575196002722,-1,-168.00322852431415,1,-0.45687007292167436,0,0.10350659362068833
Autodromo Nazionale Monza,,"('Practice',)",Cadillac V-Series.R,0,0,Not Pacing,True,4,04:54.000616,True,0.0,0,0,00:00.000000,0.0,00:00.000000,0.0,35,0,0,13,1,1462,-1.322416937589992,99,120,120,120,120,120,120,120,120,120,120,120,120,100,100,100,100,100,100,100,100,100,100,100,100,121,200,156,0.07,0.99,78,0.0,0,-0.0009539872256015539,0.19796781705181654,1.0242794631818017,1.1444722602994488,1,-167.9378909347138,-1,-0.40046557034293073,-1,0.1064526155836338
Autodromo Nazionale Monza,,"('Practice',)",Cadillac V-Series.R,0,0,Not Pacing,True,4,04:54.000866,True,0.0,0,0,00:00.000000,0.0,00:00.000000,0.0,35,0,0,14,1,1601,-6.733670486190817,99,120,120,120,120,120,120,120,120,120,120,120,120,100,100,100,100,100,100,100,100,100,100,100,100,121,200,156,0.07,0.99,78,0.0,0,-0.009592407583339742,0.19512569017245013,1.0411479300558262,1.1588704057915413,0,-168.09984838031315,-1,-0.31923599817383774,0,0.10809369448714658
Autodromo Nazionale Monza,,"('Practice',)",Cadillac V-Series.R,0,0,Not Pacing,True,4,04:55.000133,True,0.0,0,0,00:00.000000,0.0,00:00.000000,0.0,38,0,0,15,1,1734,-8.32793439555428,99,120,120,120,120,120,120,120,120,120,120,120,120,100,100,100,100,100,100,100,100,100,100,100,100,121,200,156,0.07,0.99,78,0.0,0,0.0179038894771922,0.21441451878601134,1.044194341070426,1.23716657179469,-2,-168.38785013685592,-1,-0.3270381019183901,-1,0.10878890855608649
Autodromo Nazionale Monza,,"('Practice',)",Cadillac V-Series.R,0,0,Not Pacing,True,4,04:55.000399,True,0.0,0,0,00:00.000000,0.0,00:00.000000,0.0,40,0,0,16,1,1863,-6.985269895778345,99,120,120,120,120,120,120,120,120,120,120,120,120,100,100,100,100,100,100,100,100,100,100,100,100,121,200,156,0.07,0.99,78,0.0,0,0.008201912030289053,0.2222123617547489,1.0616950910997924,1.156367568347555,1,-168.65738306188297,-1,-0.08182502592649143,1,0.11068687103182018
Autodromo Nazionale Monza,,"('Practice',)",Cadillac V-Series.R,0,0,Not Pacing,True,4,04:55.000649,True,0.0,0,0,00:00.000000,0.0,00:00.000000,0.0,40,0,0,17,1,2002,-8.092877704136527,99,120,120,120,120,120,120,120,120,120,120,120,120,100,100,100,100,100,100,100,100,100,100,100,100,121,200,156,0.07,0.99,78,0.0,0,-0.010343312184258945,0.20663470910837403,0.9159929040253587,1.3371172122311294,0,-168.93714761028667,-2,0.18755994279567234,-2,0.09582322068501735
Autodromo Nazionale Monza,,"('Practice',)",Cadillac V-Series.R,0,0,Not Pacing,True,4,04:55.000916,True,0.0,0,0,00:00.000000,0.0,00:00.000000,0.0,40,0,0,19,1,2135,-9.313421409760394,99,120,120,120,120,120,120,120,120,120,120,120,120,100,100,100,100,100,100,100,100,100,100,100,100,121,200,156,0.07,0.99,78,0.0,0,0.01100159718234483,0.20609028356398523,1.0231141528830494,1.4312166217046893,-2,-169.35335201755058,-2,-0.3811172986107181,-3,0.10650230339471686
Autodromo Nazionale Monza,,"('Practice',)",Cadillac V-Series.R,0,0,Not Pacing,True,4,04:56.000166,True,0.0,0,0,00:00.000000,0.0,00:00.000000,0.0,40,0,0,20,1,2263,-9.117382173976353,99,120,120,120,120,120,120,120,120,120,120,120,120,100,100,100,100,100,100,100,100,100,100,100,100,121,200,156,0.07,0.99,78,0.0,0,0.015196245197856097,0.2040243780698008,0.995215339155129,1.2486070319327556,-2,-169.76142849970216,-2,-0.6622908403350038,-1,0.10367620336286147
Autodromo Nazionale Monza,,"('Practice',)",Cadillac V-Series.R,0,0,Not Pacing,True,4,04:56.000433,True,0.0,0,0,00:00.000000,0.0,00:00.000000,0.0,40,0,0,21,1,2386,-8.540646123102363,99,120,120,120,120,120,120,120,120,120,120,120,120,100,100,100,100,100,100,100,100,100,100,100,100,121,200,156,0.07,0.99,78,0.0,0,0.005598086768820137,0.2049080093337126,0.9694922833146183,1.1052275941541423,-1,-170.19245441746497,-2,-0.3779749847057019,1,0.10111487637532786
Autodromo Nazionale Monza,,"('Practice',)",Cadillac V-Series.R,0,0,Not Pacing,True,4,04:56.000699,True,0.0,0,0,00:00.000000,0.0,00:00.000000,0.0,40,0,0,22,1,2512,-7.863465310294146,99,120,120,120,120,120,120,120,120,120,120,120,120,100,100,100,100,100,100,100,100,100,100,100,100,121,200,156,0.07,0.99,78,0.0,0,0.000541942017523156,0.20685446250207803,1.0117383056702842,0.8718396033279834,-1,-170.6220459955021,-2,-0.3147429343191561,-1,0.10537429872273067
Autodromo Nazionale Monza,,"('Practice',)",Cadillac V-Series.R,0,0,Not Pacing,True,4,04:56.000949,True,0.0,0,0,00:00.000000,0.0,00:00.000000,0.0,38,0,0,23,1,2633,-7.074753911642006,99,120,120,120,120,120,120,120,120,120,120,120,120,100,100,100,100,100,100,100,100,100,100,100,100,121,200,156,0.07,0.99,78,0.0,0,-0.01789721509367683,0.19290251590911522,1.0074726303053922,0.6324969682060428,-2,-170.99871726784997,-2,-0.30779791259368494,-1,0.1046867559223318
Autodromo Nazionale Monza,,"('Practice',)",Cadillac V-Series.R,0,0,Not Pacing,True,4,04:57.000216,True,0.0,0,0,00:00.000000,0.0,00:00.000000,0.0,38,0,0,24,1,2757,-7.253690780631132,99,120,120,120,120,120,120,120,120,120,120,120,120,100,100,100,100,100,100,100,100,100,100,100,100,121,200,156,0.07,0.99,78,0.0,0,-0.022209746332100527,0.1876169631483601,1.0033625953666538,0.625767897852258,-1,-171.43497511051703,-2,-0.31574579818834536,-1,0.1041831185634574
Autodromo Nazionale Monza,,"('Practice',)",Cadillac V-Series.R,0,0,Not Pacing,True,4,04:57.000466,True,0.0,0,0,00:00.000000,0.0,00:00.000000,0.0,37,0,0,25,1,2871,-7.628485458504542,99,120,120,120,120,120,120,120,120,120,120,120,120,100,100,100,100,100,100,100,100,100,100,100,100,121,200,156,0.07,0.99,78,0.0,0,-0.030939075924934594,0.181131989948611,1.0017558339903478,0.8037287434812047,1,-171.87530374592941,-2,-0.32420074528761234,-1,0.10392549188105374
Autodromo Nazionale Monza,,"('Practice',)",Cadillac V-Series.R,0,0,Not Pacing,True,4,04:57.000733,True,0.0,0,0,00:00.000000,0.0,00:00.000000,0.0,36,0,0,26,1,2977,-8.115253403857537,99,120,120,120,120,120,120,120,120,120,120,120,120,100,100,100,100,100,100,100,100,100,100,100,100,121,200,156,0.07,0.99,78,0.0,0,-0.049812257836718075,0.17701691200730754,1.0337922915770736,1.1274962520042051,2,-172.36741887562883,-2,-0.37287961022400395,0,0.10714493439636348
Autodromo Nazionale Monza,,"('Practice',)",Cadillac V-Series.R,0,0,Not Pacing,True,4,04:57.000999,True,0.0,0,0,00:00.000000,0.0,00:00.000000,0.0,35,0,0,27,1,3089,-8.988574197740036,99,120,120,120,120,120,120,120,120,120,120,120,120,100,100,100,100,100,100,100,100,100,100,100,100,121,199,156,0.07,0.99,78,0.0,0,-0.04583143920587351,0.1689147147199065,1.0327486938414345,1.197828951043648,-1,-172.9232050287711,-3,-0.2898788846257503,-1,0.10688514030700588
Autodromo Nazionale Monza,,"('Practice',)",Cadillac V-Series.R,0,0,Not Pacing,True,5,04:58.000249,True,0.0,0,0,00:00.000000,0.0,00:00.000000,0.0,35,0,0,28,1,3189,-10.243631703013648,99,120,120,120,120,120,120,120,120,120,120,120,120,100,100,100,100,100,100,100,100,100,100,100,100,121,199,156,0.07,0.99,78,0.0,0,-0.008612532438245144,0.1690416282591591,0.996731788254173,1.1747074800426853,-1,-173.61273994624057,-3,-0.32687684542094075,0,0.10316339174762983
Autodromo Nazionale Monza,,"('Practice',)",Cadillac V-Series.R,0,0,Not Pacing,True,5,04:58.000516,True,0.0,0,0,00:00.000000,0.0,00:00.000000,0.0,35,0,0,29,1,3298,-11.859414550244026,99,120,120,120,120,120,120,120,120,120,120,120,120,100,100,100,100,100,100,100,100,100,100,100,100,121,199,156,0.07,0.99,78,0.0,0,-0.04694863439942961,0.16644246473710955,0.9801834487526181,1.3169361376678574,0,-174.43896060938033,-4,-0.137534023148703,0,0.10156351951326623
Autodromo Nazionale Monza,,"('Practice',)",Cadillac V-Series.R,0,0,Not Pacing,True,5,04:58.000783,True,0.0,0,0,00:00.000000,0.0,00:00.000000,0.0,34,0,0,30,1,3401,-12.921248565218946,99,120,120,120,120,120,120,120,120,120,120,120,120,100,100,100,100,100,100,100,100,100,100,100,100,121,199,156,0.07,0.99,78,0.0,0,-0.05700825186679851,0.16027866396578322,1.014754094115091,1.6625921613249275,0,-175.40345162207782,-4,-0.02965199896135573,-1,0.10499127621020143
Autodromo Nazionale Monza,,"('Practice',)",Cadillac V-Series.R,0,0,Not Pacing,True,5,04:59.000066,True,0.0,0,0,00:00.000000,0.0,00:00.000000,0.0,35,0,0,31,1,3513,-12.78073876738705,99,120,120,120,120,120,120,120,120,120,120,120,120,100,100,100,100,100,100,100,100,100,100,100,100,121,199,156,0.07,0.99,78,0.0,0,-0.0706315162106513,0.15853936276061575,1.0224160555062793,1.827320636014885,0,-176.4979621158157,-5,0.09119860678871432,0,0.10582071169469229
Autodromo Nazionale Monza,,"('Practice',)",Cadillac V-Series.R,0,0,Not Pacing,True,5,04:59.000333,True,0.0,0,0,00:00.000000,0.0,00:00.000000,0.0,35,0,0,32,1,3621,-11.359819509629801,99,120,120,120,120,120,120,120,120,120,120,120,120,100,100,100,100,100,100,100,100,100,100,100,100,121,199,156,0.07,0.99,78,0.0,0,-0.051442429681558245,0.14907838615316377,1.0709881174941067,2.3812660531758443,3,-177.50019675386667,-4,0.13312417554410375,-2,0.11046295353905994
Autodromo Nazionale Monza,,"('Practice',)",Cadillac V-Series.R,0,0,Not Pacing,True,5,04:59.000599,True,0.0,0,0,00:00.000000,0.0,00:00.000000,0.0,35,0,0,33,1,3719,-8.417501227461628,99,120,120,120,120,120,120,120,120,120,120,120,120,100,100,100,100,100,100,100,100,100,100,100,100,121,199,156,0.07,0.99,78,0.0,0,-0.005266021758652122,0.16818622565779845,0.9608459278227235,2.7623974390517256,1,-178.2968426979003,-3,-0.11993331934866092,2,0.0995376250547389
Autodromo Nazionale Monza,,"('Practice',)",Cadillac V-Series.R,0,0,Not Pacing,True,5,04:59.000849,True,0.0,0,0,00:00.000000,0.0,00:00.000000,0.0,30,0,0,34,1,3820,-4.448314803113931,99,120,120,120,120,120,120,120,120,120,120,120,120,100,100,100,100,100,100,100,100,100,100,100,100,121,199,156,0.07,0.99,78,0.0,0,0.01422820591902271,0.12614592135134822,0.9879101550056543,2.8356140787465005,-1,-178.79626613001162,-2,0.16970774929596308,-2,0.10163601900420347
Autodromo Nazionale Monza,,"('Practice',)",Cadillac V-Series.R,0,0,Not Pacing,True,5,05:00.000116,True,0.0,0,0,00:00.000000,0.0,00:00.000000,0.0,31,0,0,34,1,3900,-0.9094984916470708,99,120,120,120,120,120,120,120,120,120,120,120,120,100,100,100,100,100,100,100,100,100,100,100,100,121,199,156,0.07,0.99,78,0.0,0,0.03749500356318389,0.12983784884609334,1.0117580402152617,2.5775072064272426,-1,-179.1047584540644,-1,-0.08929637909454868,-1,0.10415753905881484
Autodromo Nazionale Monza,,"('Practice',)",Cadillac V-Series.R,0,0,Not Pacing,True,5,05:00.000366,True,0.0,0,0,00:00.000000,0.0,00:00.000000,0.0,33,0,0,35,1,3986,0.07251990703858062,99,120,120,120,120,120,120,120,120,120,120,120,120,100,100,100,100,100,100,100,100,100,100,100,100,121,199,156,0.07,0.99,78,0.0,0,0.044063708833233656,0.15393020423788056,0.8940401184206466,2.3566946610801347,-1,-179.1956409511606,-1,-0.210551640202425,0,0.09268002010240058
Autodromo Nazionale Monza,,"('Practice',)",Cadillac V-Series.R,0,0,Not Pacing,True,5,05:00.000633,True,0.0,0,0,00:00.000000,0.0,00:00.000000,0.0,32,0,0,36,1,4088,1.2331036764555903,99,120,120,120,120,120,120,120,120,120,120,120,120,100,100,100,100,100,100,100,100,100,100,100,100,121,199,156,0.07,0.99,78,0.0,0,0.04712997591094504,0.14514393276638454,0.9630127419754634,2.113842802828689,-2,-179.17280079857608,0,0.02061256709501298,-1,0.09949275438067866
Autodromo Nazionale Monza,,"('Practice',)",Cadillac V-Series.R,0,0,Not Pacing,True,5,05:00.000899,True,0.0,0,0,00:00.000000,0.0,00:00.000000,0.0,32,0,0,37,1,4174,4.001509440821106,99,120,120,120,120,120,120,120,120,120,120,120,120,100,100,100,100,100,100,100,100,100,100,100,100,121,199,156,0.07,0.99,78,0.0,0,0.05716688771495761,0.1371777507264801,0.9628072305070758,1.8598220911803907,1,-179.01592501371923,1,-0.0756905688967322,0,0.0994091013127248
Autodromo Nazionale Monza,,"('Practice',)",Cadillac V-Series.R,0,0,Not Pacing,False,5,05:01.000166,True,0.0,0,0,00:00.000000,0.0,00:00.000000,0.0,34,0,0,38,1,4273,4.76657472456669,99,120,120,120,120,120,120,120,120,120,120,120,120,100,100,100,100,100,100,100,100,100,100,100,100,121,199,156,0.07,0.99,78,0.0,0,0.11058291164013223,0.15403782069743832,1.0669344669695902,2.378894910316792,1,-178.55539267874195,2,-0.09430764353186305,-1,0.11057691032130931
Autodromo Nazionale Monza,,"('Practice',)",Cadillac V-Series.R,0,0,Not Pacing,False,5,05:01.000433,True,0.0,0,0,00:00.000000,0.0,00:00.000000,0.0,36,0,0,39,1,4379,6.465181299446331,99,120,120,120,120,120,120,120,120,120,120,120,120,100,100,100,100,100,100,100,100,100,100,100,100,121,199,156,0.07,0.99,78,0.0,0,0.14712716947394164,0.1747328571587892,0.9762718286232359,2.6118562277632367,-2,-177.99697007258004,2,-0.14577165817456716,1,0.10231008649055862
Autodromo Nazionale Monza,,"('Practice',)",Cadillac V-Series.R,0,0,Not Pacing,False,5,05:01.000699,True,0.0,0,0,00:00.000000,0.0,00:00.000000,0.0,43,0,0,40,1,4518,7.919257710529407,99,120,120,120,120,120,120,120,120,120,120,120,120,100,100,100,100,100,100,100,100,100,100,100,100,121,199,156,0.07,0.99,78,0.0,0,0.14002974487833533,0.24300433323167028,0.9743827563177919,2.662922137092837,-1,-177.28975862553858,2,-0.1350527701696933,0,0.10346361087753293
Autodromo Nazionale Monza,,"('Practice',)",Cadillac V-Series.R,0,0,Not Pacing,False,6,05:01.000949,True,0.0,0,0,00:00.000000,0.0,00:00.000000,0.0,49,0,0,41,1,4678,8.383734479752368,99,120,120,120,120,120,120,120,120,120,120,120,120,100,100,100,100,100,100,100,100,100,100,100,100,121,199,156,0.07,0.99,78,0.0,0,0.13664298587375215,0.30787486913371886,0.9825654958244735,2.508379502167778,0,-176.53972189240116,3,-0.10536869466568533,0,0.10598957508761485
Autodromo Nazionale Monza,,"('Practice',)",Cadillac V-Series.R,0,0,Not Pacing,False,6,05:02.000216,True,0.0,0,0,00:00.000000,0.0,00:00.000000,0.0,52,0,0,43,1,4889,7.236781793567148,99,120,120,120,120,120,120,120,120,120,120,120,120,100,100,100,100,100,100,100,100,100,100,100,100,121,199,156,0.07,0.99,78,0.0,0,0.16404175247985653,0.33563345093488933,1.076078171880724,2.2925557696791303,-3,-175.7103320214865,2,-0.32148179638943475,-3,0.11623267525695812
Autodromo Nazionale Monza,,"('Practice',)",Cadillac V-Series.R,0,0,Not Pacing,False,6,05:02.000483,True,0.0,0,0,00:00.000000,0.0,00:00.000000,0.0,52,0,0,45,1,5095,5.213458634034992,99,120,120,120,120,120,120,120,120,120,120,120,120,100,100,100,100,100,100,100,100,100,100,100,100,121,199,156,0.07,0.99,78,0.0,0,0.08189488623849478,0.3503972723335787,0.8848515004071499,2.1232831914787043,0,-175.04497597367887,2,-0.31646102038007484,-2,0.09747153273711977
Autodromo Nazionale Monza,,"('Practice',)",Cadillac V-Series.R,0,0,Not Pacing,False,6,05:02.000733,True,0.0,0,0,00:00.000000,0.0,00:00.000000,0.0,54,0,0,47,1,5323,4.319800098125108,99,120,120,120,120,120,120,120,120,120,120,120,120,100,100,100,100,100,100,100,100,100,100,100,100,121,199,156,0.07,0.99,78,0.0,0,0.11576175932733533,0.3708902362897369,0.9280953324655266,2.0362281616386606,-2,-174.55649450461792,1,-0.31901564453181663,-1,0.10266752943248426
Autodromo Nazionale Monza,,"('Practice',)",Cadillac V-Series.R,0,0,Not Pacing,False,6,05:02.000999,True,0.0,0,0,00:00.000000,0.0,00:00.000000,0.0,55,0,0,49,1,5555,3.6609408408786375,99,120,120,120,120,120,120,120,120,120,120,120,120,100,100,100,100,100,100,100,100,100,100,100,100,121,199,156,0.07,0.99,78,0.0,0,0.15492075930798574,0.387926325277937,1.1166572570800781,1.9075068434274232,-4,-174.0779304702318,1,-0.2918221268054708,-1,0.12165605108542614
Autodromo Nazionale Monza,,"('Practice',)",Cadillac V-Series.R,0,0,Not Pacing,False,6,05:03.000249,True,0.0,0,0,00:00.000000,0.0,00:00.000000,0.0,56,0,0,49,1,5488,2.6617484117726526,99,120,120,120,120,120,120,120,120,120,120,120,120,100,100,100,100,100,100,100,100,100,100,100,100,121,199,156,0.07,0.99,78,0.0,0,0.05068371298359317,-0.03263998043768024,1.0405821416234629,1.4287853945252822,-2,-173.7308065962334,1,-0.24366086214212146,-1,0.1063598894236039
Autodromo Nazionale Monza,,"('Practice',)",Cadillac V-Series.R,0,0,Not Pacing,False,6,05:03.000516,True,0.0,0,0,00:00.000000,0.0,00:00.000000,0.0,56,0,0,49,1,5464,1.1270899624702952,99,120,120,120,120,120,120,120,120,120,120,120,120,100,100,100,100,100,100,100,100,100,100,100,100,121,199,156,0.07,0.99,78,0.0,0,0.031203146982144384,-0.03731188181100392,1.0363167579020929,1.2579783716391304,0,-173.50165374957948,0,-0.1935143336273768,0,0.10586301862873536
Autodromo Nazionale Monza,,"('Practice',)",Cadillac V-Series.R,0,0,Not Pacing,False,6,05:03.000783,True,0.0,0,0,00:00.000000,0.0,00:00.000000,0.0,56,0,0,49,1,5502,-0.6584227654698225,99,120,120,120,120,120,120,120,120,120,120,120,120,100,100,100,100,100,100,100,100,100,100,100,100,121,199,156,0.07,0.99,78,0.0,0,-0.015973081768591954,-0.05674647750232319,0.9600065777668773,1.0475456861180326,-2,-173.45259933096045,-1,-0.15637217846750673,-1,0.0981443791181984
Autodromo Nazionale Monza,,"('Practice',)",Cadillac V-Series.R,0,0,Not Pacing,False,6,05:04.000033,True,0.0,0,0,00:00.000000,0.0,00:00.000000,0.0,56,0,0,49,1,5471,-3.286950844666819,99,120,120,120,120,120,120,120,120,120,120,120,120,100,100,100,100,100,100,100,100,100,100,100,100,121,199,156,0.07,0.99,78,0.0,0,-0.05569122010171717,-0.03645958703592283,0.9918117620407866,0.890648717002582,0,-173.76248501360394,-2,-0.18551242016917513,0,0.10143295399750882
Autodromo Nazionale Monza,,"('Practice',)",Cadillac V-Series.R,0,0,Not Pacing,False,6,05:04.000299,True,0.0,0,0,00:00.000000,0.0,00:00.000000,0.0,57,0,0,49,1,5976,-2.8404005472507947,99,120,120,120,120,120,120,120,120,120,120,120,120,100,100,100,100,100,100,100,100,100,100,100,100,121,199,156,0.07,0.99,78,0.0,0,-0.0524841803415592,-0.030694453845087295,0.9453869740897362,0.9542209695067402,0,-174.16573938220148,-2,-0.05472495305878056,0,0.0966673573794762
Autodromo Nazionale Monza,,"('Practice',)",Cadillac V-Series.R,0,0,Not Pacing,False,6,05:04.000566,True,0.0,0,0,00:00.000000,0.0,00:00.000000,0.0,57,0,0,51,1,5848,-0.8760315252093847,99,120,120,120,120,120,120,120,120,120,120,120,120,100,100,100,100,100,100,100,100,100,100,100,100,121,199,156,0.07,0.99,78,0.0,0,0.0003870869023112103,0.42474403536890865,1.0136003523427046,1.0546116235361165,1,-174.4279640048166,-1,-0.20628937537668435,1,0.11214250058841896
Autodromo Nazionale Monza,,"('Practice',)",Cadillac V-Series.R,0,0,Not Pacing,False,7,05:04.000816,True,0.0,0,0,00:00.000000,0.0,00:00.000000,0.0,59,0,0,54,1,6129,-1.1606006848073775,99,120,120,120,120,120,120,120,120,120,120,120,120,100,100,100,100,100,100,100,100,100,100,100,100,121,199,156,0.07,0.99,78,0.0,0,-0.0019446501430507585,0.43807209570959554,0.9823714556679448,1.122625900239163,-2,-174.55037465512157,-1,-0.20957041415903177,-1,0.10975743861472642
Autodromo Nazionale Monza,,"('Practice',)",Cadillac V-Series.R,0,0,Not Pacing,False,7,05:05.000083,True,0.0,0,0,00:00.000000,0.0,00:00.000000,0.0,61,0,0,56,1,6417,-1.1215442757510914,99,120,120,120,120,120,120,120,120,120,120,120,120,100,100,100,100,100,100,100,100,100,100,100,100,121,199,157,0.07,0.99,78,0.0,0,-0.03307970899568299,0.47155602870245106,0.9770228106919656,0.9951697678499649,0,-174.77661784118908,-1,-0.20673469837447556,0,0.11075227073228942
Autodromo Nazionale Monza,,"('Practice',)",Cadillac V-Series.R,0,0,Not Pacing,False,7,05:05.000333,True,0.0,0,0,00:00.000000,0.0,00:00.000000,0.0,63,0,0,59,1,6733,-1.2498700833206726,99,120,120,120,120,120,120,120,120,120,120,120,120,100,100,100,100,100,100,100,100,100,100,100,100,121,199,157,0.07,0.99,78,0.0,0,-0.03468168255750557,0.4987760421332963,0.9500644501074617,0.7578026048628919,-1,-175.0021097064479,-1,-0.18912757793191304,1,0.10955034837138607
Autodromo Nazionale Monza,,"('Practice',)",Cadillac V-Series.R,0,0,Not Pacing,False,7,05:05.000599,True,0.0,0,0,00:00.000000,0.0,00:00.000000,0.0,65,0,0,62,1,7082,-1.5344726468126169,99,120,120,120,120,120,120,120,120,120,120,120,120,100,100,100,100,100,100,100,100,100,100,100,100,121,199,157,0.07,0.99,78,0.0,0,-0.0591837302624997,0.5241451399528044,1.0469445394813466,0.6888692408296555,2,-175.29459206708617,-2,-0.18929074207983376,0,0.1196240340449023
Autodromo Nazionale Monza,,"('Practice',)",Cadillac V-Series.R,0,0,Not Pacing,False,7,05:05.000866,True,0.0,0,0,00:00.000000,0.0,00:00.000000,0.0,66,0,0,65,1,7448,-1.322416830868292,99,120,120,120,120,120,120,120,120,120,120,120,120,100,100,100,100,100,100,100,100,100,100,100,100,121,199,158,0.07,0.99,78,0.0,0,-0.03202656601061028,0.5383934328193937,1.0368203290497977,0.6062688817106352,-1,-175.5761051439174,-1,-0.15671803683551389,-2,0.11925640708413343
Autodromo Nazionale Monza,,"('Practice',)",Cadillac V-Series.R,0,0,Not Pacing,False,7,05:06.000116,True,0.0,0,0,00:00.000000,0.0,00:00.000000,0.0,68,0,0,68,1,7747,-0.16182667148910923,99,120,120,120,120,120,120,120,120,120,120,120,120,100,100,100,100,100,100,100,100,100,100,100,100,121,199,158,0.07,0.99,78,0.0,0,-0.031020736111048892,0.5312048088641463,0.959199308498433,0.5620996491737494,1,-175.73822651405683,-1,-0.13907389730121622,0,0.11192924765755534
Autodromo Nazionale Monza,,"('Practice',)",Cadillac V-Series.R,0,0,Not Pacing,False,7,05:06.000383,True,0.0,0,0,00:00.000000,0.0,00:00.000000,0.0,70,0,0,71,1,8115,-0.5524138539612977,99,120,120,120,120,120,120,120,120,120,120,120,120,100,100,100,100,100,100,100,100,100,100,100,100,121,199,158,0.07,0.99,78,0.0,0,-0.030250545063271555,0.5449878330988985,0.8114211056210578,0.43673704980643957,-2,-175.8220329351729,-2,-0.1257714502221461,1,0.09978793864166316
Autodromo Nazionale Monza,,"('Practice',)",Cadillac V-Series.R,0,0,Not Pacing,False,7,05:06.000633,True,0.0,0,0,00:00.000000,0.0,00:00.000000,0.0,73,0,0,74,1,8443,-1.7465126679444438,99,120,120,120,120,120,120,120,120,120,120,120,120,100,100,100,100,100,100,100,100,100,100,100,100,121,200,159,0.07,0.99,78,0.0,0,-0.11169700204536212,0.5161762237548828,1.0468611294341015,0.0706685922681766,0,-176.0385499318623,-2,-0.03238000919935757,-1,0.11964616803024353
Autodromo Nazionale Monza,,"('Practice',)",Cadillac V-Series.R,0,0,Not Pacing,False,8,05:06.000899,True,0.0,0,0,00:00.000000,0.0,00:00.000000,0.0,77,0,0,77,2,7101,-1.3559069559161117,99,120,120,120,120,120,120,120,120,120,120,120,120,100,100,100,100,100,100,100,100,100,100,100,100,121,200,159,0.07,0.99,78,0.0,0,-0.09231253866026524,0.5380554179775848,1.1027773585888223,-0.11788174129736717,-1,-176.3988560709588,-2,-0.11193571477929254,0,0.12556175895801616
Autodromo Nazionale Monza,,"('Practice',)",Cadillac V-Series.R,0,0,Not Pacing,False,8,05:07.000166,True,0.0,0,0,00:00.000000,0.0,00:00.000000,0.0,83,0,0,80,2,7373,-1.2666148256794827,99,120,120,120,120,120,120,120,120,120,120,120,120,100,100,100,100,100,100,100,100,100,100,100,100,121,200,160,0.07,0.99,78,0.0,0,-0.01803194224895201,0.6088235934818435,0.9733440193075166,-0.2807832604462419,-5,-176.6846448462105,-2,-0.1425529048477756,-1,0.11716444988910588
Autodromo Nazionale Monza,,"('Practice',)",Cadillac V-Series.R,0,0,Not Pacing,False,8,05:07.000416,True,0.0,0,0,00:00.000000,0.0,00:00.000000,0.0,87,0,0,84,2,7670,-0.4631275400575987,99,120,120,120,120,120,120,120,120,120,120,120,120,100,100,100,100,100,100,100,100,100,100,100,100,121,200,160,0.07,0.99,78,0.0,0,-0.06125188991807165,0.6021292566888558,0.9299866407046381,-0.3217667166634328,5,-176.836083800488,-1,-0.17940361636942725,0,0.11322331395095131
Autodromo Nazionale Monza,,"('Practice',)",Cadillac V-Series.R,0,0,Not Pacing,False,8,05:07.000683,True,0.0,0,0,00:00.000000,0.0,00:00.000000,0.0,95,0,0,87,2,8028,-0.5858801267079343,99,120,120,120,120,120,120,120,120,120,120,120,120,100,100,100,100,100,100,100,100,100,100,100,100,121,200,161,0.07,0.99,78,0.0,0,-0.03474721121131827,0.6912652870201553,0.9792772151157639,-0.3380003687732369,-1,-176.93665150582729,-1,-0.12295080887855647,-1,0.12236557234876234
Autodromo Nazionale Monza,,"('Practice',)",Cadillac V-Series.R,0,0,Not Pacing,False,8,05:07.000933,True,0.0,0,0,00:00.000000,0.0,00:00.000000,0.0,100,0,0,91,2,8355,-1.1773238693816097,99,120,120,120,120,120,120,120,120,120,120,120,120,100,100,100,100,100,100,100,100,100,100,100,100,121,201,162,0.07,0.99,78,0.0,0,-0.08938283973756064,0.6754764844639707,1.077324947936576,-0.35310068972853514,2,-177.1134851034389,-1,-0.15527642669360375,1,0.13007249830852552
Autodromo Nazionale Monza,,"('Practice',)",Cadillac V-Series.R,0,0,Not Pacing,False,9,05:08.000199,True,0.0,0,0,00:00.000000,0.0,00:00.000000,0.0,100,0,0,95,2,8694,-1.2498702967640725,98,120,120,120,120,120,120,120,120,120,120,120,120,100,100,100,100,100,100,100,100,100,100,100,100,121,201,162,0.07,0.99,78,0.0,0,-0.06860342715979838,0.6365624407380364,0.9779986499160315,-0.3784501631006947,-3,-177.35169478093226,-1,-0.13029993234295034,0,0.11927866681988875
Autodromo Nazionale Monza,,"('Practice',)",Cadillac V-Series.R,0,0,Not Pacing,False,9,05:08.000466,True,0.0,0,0,00:00.000000,0.0,00:00.000000,0.0,100,0,0,98,3,7588,-0.8034876057869837,98,120,120,120,120,120,120,120,120,120,120,120,120,100,100,100,100,100,100,100,100,100,100,100,100,121,201,163,0.07,0.99,78,0.0,0,-0.059012839310516756,0.6160505199529587,1.0557992256623403,-0.3677739637781201,-3,-177.5659987963306,-1,-0.15635619689203395,-2,0.12487864843575772
Autodromo Nazionale Monza,,"('Practice',)",Cadillac V-Series.R,0,0,Not Pacing,False,9,05:08.000716,True,0.0,0,0,00:00.000000,0.0,00:00.000000,0.0,100,0,0,102,3,7833,-1.1940903829683975,98,120,120,120,120,120,120,120,120,120,120,120,120,100,100,100,100,100,100,100,100,100,100,100,100,121,201,164,0.07,0.99,78,0.0,0,-0.05601228923972593,0.5790167506195597,0.9859601292041463,-0.2919531276993439,-1,-177.749170809492,-2,-0.14863430784959064,0,0.11681401394016491
Autodromo Nazionale Monza,,"('Practice',)",Cadillac V-Series.R,0,0,Not Pacing,False,9,05:08.000983,True,0.0,0,0,00:00.000000,0.0,00:00.000000,0.0,100,0,0,105,3,8099,-1.5512181362233264,98,120,120,120,120,120,120,120,120,120,120,120,120,100,100,100,100,100,100,100,100,100,100,100,100,121,201,164,0.07,0.99,78,0.0,0,-0.12485719723560515,0.5879551384913204,1.1814591838436146,-0.5501699767363561,4,-177.9013884053349,-2,-0.2229917492182949,-3,0.1352618808941942
Autodromo Nazionale Monza,,"('Practice',)",Cadillac V-Series.R,0,0,Not Pacing,False,9,05:09.000249,True,0.0,0,0,00:00.000000,0.0,00:00.000000,0.0,100,0,0,108,3,8364,-0.7644323706694536,98,120,120,120,120,120,120,120,120,120,120,120,120,100,100,100,100,100,100,100,100,100,100,100,100,121,201,165,0.07,0.99,78,0.0,0,-0.09417062384151416,0.5582065757261503,0.9489831331429982,-0.5199402531609962,-3,-178.30111839632073,-1,-0.05804236726748968,-3,0.11275541022067569
Autodromo Nazionale Monza,,"('Practice',)",Cadillac V-Series.R,0,0,Not Pacing,False,10,05:09.000516,True,0.0,0,0,00:00.000000,0.0,00:00.000000,0.0,100,0,0,111,3,8569,-1.1438560491702674,98,120,120,120,120,120,120,120,120,120,120,120,120,100,100,100,100,100,100,100,100,100,100,100,100,121,202,166,0.07,0.99,78,0.0,0,-0.10211443439293101,0.523175182206429,0.8773383744266054,-0.4450908247285952,4,-178.53406882815318,-1,-0.177592468981004,-2,0.10475285029156467
Autodromo Nazionale Monza,,"('Practice',)",Cadillac V-Series.R,0,0,Not Pacing,False,10,05:09.000783,True,0.0,0,0,00:00.000000,0.0,00:00.000000,0.0,100,0,0,114,4,8503,-1.7465127746661437,98,120,120,120,120,120,120,120,120,120,120,120,120,100,100,100,100,100,100,100,100,100,100,100,100,121,202,166,0.07,0.99,78,0.0,0,-0.05141043395685007,0.7663964496110921,0.7781174083246976,-0.5263841097560658,-3,-178.97180199168096,-2,-0.03591611952862195,0,0.11156908105893264
Autodromo Nazionale Monza,,"('Practice',)",Cadillac V-Series.R,0,0,Not Pacing,False,10,05:10.000033,True,0.0,0,0,00:00.000000,0.0,00:00.000000,0.0,100,0,0,117,4,7558,-0.3738418131233061,98,120,120,120,120,120,120,120,120,120,120,120,120,100,100,100,100,100,100,100,100,100,100,100,100,121,202,167,0.07,0.99,78,0.0,0,-0.03162592983634707,0.42192267593865973,0.9383596290020646,-0.4484164865241951,0,-179.2327015575971,-1,-0.10272750587034807,-3,0.10503454030420324
Autodromo Nazionale Monza,,"('Practice',)",Cadillac V-Series.R,0,0,Not Pacing,False,10,05:10.000299,True,0.0,0,0,00:00.000000,0.0,00:00.000000,0.0,100,0,0,119,4,7683,-0.23436828305460722,98,120,120,120,120,120,120,120,120,120,120,120,120,100,100,100,100,100,100,100,100,100,100,100,100,121,202,167,0.07,0.99,78,0.0,0,-0.010758723444651876,0.47964442152981845,1.1274446648802838,-0.5345422904719612,2,-179.1965288757527,0,-0.32680451478483974,-5,0.1250283596984389
Autodromo Nazionale Monza,,"('Practice',)",Cadillac V-Series.R,0,0,Not Pacing,False,11,05:10.000566,True,0.0,0,0,00:00.000000,0.0,00:00.000000,0.0,100,0,0,122,4,7833,-0.4296400296915408,98,120,120,120,120,120,120,120,120,120,120,120,120,100,100,100,100,100,100,100,100,100,100,100,100,121,202,168,0.07,0.99,78,0.0,0,0.012540968398921472,0.48301630671478796,1.0360950116109895,0.042489066032022106,-1,-179.25177144575977,-1,-0.26293064005972155,1,0.11665523294230455
Autodromo Nazionale Monza,,"('Practice',)",Cadillac V-Series.R,0,0,Not Pacing,False,11,05:10.000833,True,0.0,0,0,00:00.000000,0.0,00:00.000000,0.0,100,0,0,124,4,7977,0.03346574914325388,98,120,120,120,120,120,120,120,120,120,120,120,120,100,100,100,100,100,100,100,100,100,100,100,100,121,202,168,0.07,0.99,78,0.0,0,-0.01537845404505365,0.40875399878265656,0.9464759710002747,0.3287880444085037,2,-179.32865205505743,-1,-0.1985628706204352,4,0.10521259749231637
Autodromo Nazionale Monza,,"('Practice',)",Cadillac V-Series.R,0,0,Not Pacing,False,11,05:11.000099,True,0.0,0,0,00:00.000000,0.0,00:00.000000,0.0,100,0,0,127,4,8172,0.6807121273308091,98,120,120,120,120,120,120,120,120,120,120,120,120,100,100,100,100,100,100,100,100,100,100,100,100,121,202,169,0.07,0.99,78,0.0,0,0.08347976827475638,0.392282993421642,0.680948057184404,0.5552312536330669,-1,-179.26569137128826,1,-0.11730841895371213,1,0.08064098397697625
Autodromo Nazionale Monza,,"('Practice',)",Cadillac V-Series.R,0,0,Not Pacing,False,11,05:11.000349,True,0.0,0,0,00:00.000000,0.0,00:00.000000,0.0,100,0,0,129,4,8294,0.01672202397569694,98,120,120,120,120,120,120,120,120,120,120,120,120,100,100,100,100,100,100,100,100,100,100,100,100,121,202,170,0.07,0.99,78,0.0,0,0.087968374732559,0.35359951820334645,1.0372345600653132,0.37622477541130006,-4,-179.11780411537916,0,-0.21386749694124774,0,0.11218117796267892
Autodromo Nazionale Monza,,"('Practice',)",Cadillac V-Series.R,0,0,Not Pacing,False,12,05:11.000616,True,0.0,0,0,00:00.000000,0.0,00:00.000000,0.0,100,0,0,131,4,8440,0.03346573913809396,98,120,120,120,120,120,120,120,120,120,120,120,120,100,100,100,100,100,100,100,100,100,100,100,100,121,203,170,0.07,0.99,78,0.0,0,-0.03156149788369461,0.34235583411322695,0.8443469787348786,0.43775373413656654,-2,-179.12395128563216,-1,-0.20378386989006003,0,0.09302661512941279
Autodromo Nazionale Monza,,"('Practice',)",Cadillac V-Series.R,0,0,Not Pacing,False,12,05:11.000883,True,0.0,0,0,00:00.000000,0.0,00:00.000000,0.0,100,0,0,133,4,8565,-0.2120361257896093,98,120,120,120,120,120,120,120,120,120,120,120,120,100,100,100,100,100,100,100,100,100,100,100,100,121,203,171,0.07,0.99,78,0.0,0,-0.0015745613492349358,0.35098291682905375,0.9711309310493119,0.5873985631377708,1,-179.15218728766098,-1,-0.273722472350471,-1,0.10536853337596333
Autodromo Nazionale Monza,,"('Practice',)",Cadillac V-Series.R,0,0,Not Pacing,False,12,05:12.000133,True,0.0,0,0,00:00.000000,0.0,00:00.000000,0.0,100,0,0,135,4,8700,0.6248916059260865,98,120,120,120,120,120,120,120,120,120,120,120,120,100,100,100,100,100,100,100,100,100,100,100,100,121,203,171,0.07,0.99,78,0.0,0,0.04241802519857579,0.3672482892035466,0.8767706417040966,0.3188481181341517,-2,-179.18849657328877,0,-0.24079802570412312,2,0.097094255170524
Autodromo Nazionale Monza,,"('Practice',)",Cadillac V-Series.R,0,0,Not Pacing,False,12,05:12.000399,True,0.0,0,0,00:00.000000,0.0,00:00.000000,0.0,100,0,0,137,5,7555,-1.3391621068356017,98,120,120,120,120,120,120,120,120,120,120,120,120,100,100,100,100,100,100,100,100,100,100,100,100,121,203,172,0.07,0.99,78,0.0,0,-0.019869420992611138,0.29408523431247163,0.816477329359142,0.52556992986267,-4,-179.18629725237602,-2,-0.1310314829556205,2,0.08857684481515327
Autodromo Nazionale Monza,,"('Practice',)",Cadillac V-Series.R,0,0,Not Pacing,False,13,05:12.000666,True,0.0,0,0,00:00.000000,0.0,00:00.000000,0.0,100,0,0,139,5,7634,0.6416573191000877,98,120,120,120,120,120,120,120,120,120,120,120,120,100,100,100,100,100,100,100,100,100,100,100,100,121,203,172,0.07,0.99,78,0.0,0,0.1169228772504614,0.3062564177129125,1.131929947817119,0.3088442655580367,-5,-179.1843711390301,0,-0.3837489491535848,-7,0.12024934871382421
Autodromo Nazionale Monza,,"('Practice',)",Cadillac V-Series.R,0,0,Not Pacing,False,13,05:12.000933,True,0.0,0,0,00:00.000000,0.0,00:00.000000,0.0,11,70,0,138,5,7537,1.802296957330074,98,120,120,120,120,120,120,120,120,120,120,120,120,100,100,100,100,100,100,100,100,100,100,100,100,121,203,172,0.07,0.99,78,0.0,0,0.1019172043853822,-1.264188923966994,1.070062829813826,0.46344274261564566,4,-178.9342769323809,1,-0.09398829883764392,-5,0.16932612635265373
Autodromo Nazionale Monza,,"('Practice',)",Cadillac V-Series.R,0,0,Not Pacing,False,13,05:13.000199,True,0.0,0,0,00:00.000000,0.0,00:00.000000,0.0,0,66,0,128,5,6987,0.926199584828234,98,120,120,120,120,120,120,120,120,120,120,120,120,100,100,100,100,100,100,100,100,100,100,100,100,121,203,172,0.07,0.99,78,0.0,0,0.041865688823657175,-1.6095156577262917,1.0158576732017213,0.5215455076985045,1,-178.5240694312083,0,-0.018638724133666074,-1,0.19426010058205642
Autodromo Nazionale Monza,,"('Practice',)",Cadillac V-Series.R,0,0,Not Pacing,False,13,05:13.000466,True,0.0,0,0,00:00.000000,0.0,00:00.000000,0.0,0,62,0,119,5,6454,3.3371418494524314,98,120,120,120,120,120,120,120,120,120,120,120,120,100,100,100,100,100,100,100,100,100,100,100,100,121,203,171,0.07,0.99,78,0.0,0,0.2392167588135761,-1.4757659943218016,0.8852682589998546,0.7847966330406929,0,-178.03194064113052,2,-0.022509735513324358,2,0.17729308669259833
Autodromo Nazionale Monza,,"('Practice',)",Cadillac V-Series.R,0,0,Not Pacing,False,14,05:13.000716,True,0.0,0,0,00:00.000000,0.0,00:00.000000,0.0,0,60,0,111,5,5981,2.142710810799159,98,120,120,120,120,120,120,120,120,120,120,120,120,100,100,100,100,100,100,100,100,100,100,100,100,121,203,171,0.07,0.99,78,0.0,0,0.27515912517738145,-1.5071932085914106,1.1510879135520693,0.7855624680013806,0,-177.1102066126373,2,0.08498235424152918,0,0.1955445864946208
Autodromo Nazionale Monza,,"('Practice',)",Cadillac V-Series.R,0,0,Not Pacing,False,14,05:13.000983,True,0.0,0,0,00:00.000000,0.0,00:00.000000,0.0,0,62,0,102,4,6473,1.964117372259193,98,120,120,120,120,120,120,120,120,120,120,120,120,100,100,100,100,100,100,100,100,100,100,100,100,121,203,171,0.07,0.99,78,0.0,0,0.27414695203122014,-1.4883056936157102,1.1043210277499043,0.4120806005112225,-2,-176.1630916011883,2,0.007374844229231703,0,0.1911662000678777
Autodromo Nazionale Monza,,"('Practice',)",Cadillac V-Series.R,0,0,Not Pacing,False,14,05:14.000249,True,0.0,0,0,00:00.000000,0.0,00:00.000000,0.0,0,63,0,94,4,5904,0.23432511412462573,98,120,120,120,120,120,120,120,120,120,120,120,120,100,100,100,100,100,100,100,100,100,100,100,100,121,203,170,0.07,0.99,78,0.0,0,0.11276108773841041,-1.5355767338526236,1.1145966011692867,0.08123326740817316,-2,-175.728992098299,0,-0.007495553148601175,0,0.1939590739397163
Autodromo Nazionale Monza,,"('Practice',)",Cadillac V-Series.R,0,0,Not Pacing,False,14,05:14.000499,True,0.0,0,0,00:00.000000,0.0,00:00.000000,0.0,0,59,0,86,3,6420,0.21201451464419063,98,120,120,120,120,120,120,120,120,120,120,120,120,100,100,100,100,100,100,100,100,100,100,100,100,121,203,170,0.07,0.99,78,0.0,0,0.04250595268245623,-1.4228597207414508,1.0408779653691127,-0.26089596405859083,1,-175.4618633998598,0,0.09983215933270216,-1,0.17994409677598036
Autodromo Nazionale Monza,,"('Practice',)",Cadillac V-Series.R,0,0,Not Pacing,False,14,05:14.000766,True,0.0,0,0,00:00.000000,0.0,00:00.000000,0.0,0,58,0,77,3,5797,-0.6416573191000907,98,120,120,120,120,120,120,120,120,120,120,120,120,100,100,100,100,100,100,100,100,100,100,100,100,121,203,170,0.07,0.99,78,0.0,0,-0.008843806510550044,-1.4427055763299068,1.0770187222386476,-0.49423019382544453,-1,-175.3985885273888,-1,0.11860117899646003,-2,0.18371447730821858
Autodromo Nazionale Monza,,"('Practice',)",Cadillac V-Series.R,0,0,Not Pacing,False,15,05:15.000033,True,0.0,0,0,00:00.000000,0.0,00:00.000000,0.0,0,55,0,70,2,5997,-1.445178382141819,98,120,120,120,120,120,120,120,120,120,120,120,120,100,100,100,100,100,100,100,100,100,100,100,100,121,203,170,0.07,0.99,78,0.0,0,-0.04181903193606999,-1.418491581285887,1.1195420975835801,-0.5314176923700984,-3,-175.5286626499425,-2,0.10434564705382443,-3,0.18444401030968052
Autodromo Nazionale Monza,,"('Practice',)",Cadillac V-Series.R,0,0,Not Pacing,False,15,05:15.000283,True,0.0,0,0,00:00.000000,0.0,00:00.000000,0.0,0,54,0,62,2,5471,-3.0357691438357506,98,120,120,120,120,120,120,120,120,120,120,120,120,100,100,100,100,100,100,100,100,100,100,100,100,121,203,169,0.07,0.99,78,0.0,0,-0.09788600433614032,-1.254181176515165,0.8546918660979509,-0.4000379631482929,1,-175.9212892441915,-3,0.09629229373342404,0,0.1551909747495977
Autodromo Nazionale Monza,,"('Practice',)",Cadillac V-Series.R,0,0,Not Pacing,False,15,05:15.000549,True,0.0,0,0,00:00.000000,0.0,00:00.000000,0.0,0,34,0,56,2,4922,-2.533412999249549,98,120,120,120,120,120,120,120,120,120,120,120,120,100,100,100,100,100,100,100,100,100,100,100,100,121,203,169,0.07,0.99,78,0.0,0,-0.05478440925372607,-0.9478605972274484,0.9208419636484315,-0.5045444731632642,-1,-176.40619169412741,-2,0.08503584182644552,-1,0.1349638206140262
Autodromo Nazionale Monza,,"('Practice',)",Cadillac V-Series.R,0,0,Not Pacing,False,15,05:15.000816,True,0.0,0,0,00:00.000000,0.0,00:00.000000,0.0,0,25,0,52,1,5490,-2.751084511352076,98,120,120,120,120,120,120,120,120,120,120,120,120,100,100,100,100,100,100,100,100,100,100,100,100,121,203,169,0.07,0.99,78,0.0,0,-0.04034877795570366,-0.5394541889155676,0.9187967648442974,-0.44935883918623176,-3,-176.75647111552234,-2,-0.03950164200767858,-1,0.10879801911832501
Autodromo Nazionale Monza,,"('Practice',)",Cadillac V-Series.R,0,0,Not Pacing,False,15,05:16.000066,True,0.0,0,0,00:00.000000,0.0,00:00.000000,0.0,0,16,0,47,1,5297,-13.050553437717383,98,120,120,120,120,120,120,120,120,120,120,120,120,100,100,100,100,100,100,100,100,100,100,100,100,121,203,169,0.07,0.99,78,0.0,0,-0.2787595130617101,-0.5242372020911976,0.9528304944830689,-0.37838042046593046,1,-177.37028655585306,-6,-0.11270788634129758,-1,0.11455950537933458
Autodromo Nazionale Monza,,"('Practice',)",Cadillac V-Series.R,0,0,Not Pacing,False,15,05:16.000349,True,0.0,0,0,00:00.000000,0.0,00:00.000000,0.0,1,0,0,45,1,5091,-46.53450228702542,98,120,120,120,120,120,120,120,120,120,120,120,120,100,100,100,100,100,100,100,100,100,100,100,100,121,203,169,0.07,0.99,78,0.0,0,-0.8293400724607384,-0.2501426729830276,0.9865751081771927,-0.30660540425327554,0,178.90333617544076,-22,-0.06710973687535216,-1,0.13396940122858958
Autodromo Nazionale Monza,,"('Practice',)",Cadillac V-Series.R,0,0,Not Pacing,False,15,05:16.000733,True,0.0,0,0,00:00.000000,0.0,00:00.000000,0.0,4,0,0,43,1,4876,-61.27432372347971,98,120,120,120,120,120,120,120,120,120,120,120,120,100,100,100,100,100,100,100,100,100,100,100,100,121,203,168,0.07,0.99,78,0.0,0,-1.1181320983700067,-0.2254942020023513,1.0620938650086507,-0.3303146984097225,1,169.23162438616262,-31,-0.0032366492228561583,-1,0.1590367716533889
Autodromo Nazionale Monza,,"('Practice',)",Cadillac V-Series.R,0,0,Not Pacing,False,15,05:16.000983,True,0.0,0,0,00:00.000000,0.0,00:00.000000,0.0,0,0,0,42,1,4735,-59.01943922183756,98,120,120,120,120,120,120,120,120,120,120,120,120,100,100,100,100,100,100,100,100,100,100,100,100,121,203,168,0.07,0.99,78,0.0,0,-0.9081599423158666,-0.25518706085485054,1.026841940379167,-0.029898559452249174,-2,162.21987512763258,-28,0.17363991054548059,1,0.14228307715953625
Autodromo Nazionale Monza,,"('Practice',)",Cadillac V-Series.R,0,0,Not Pacing,False,16,05:17.000249,True,0.0,0,0,00:00.000000,0.0,00:00.000000,0.0,0,0,0,41,1,4608,-67.21270192375312,98,120,120,120,120,120,120,120,120,120,120,120,120,100,100,100,100,100,100,100,100,100,100,100,100,121,203,168,0.07,0.99,78,0.0,0,-0.9434161443836705,-0.24831666858918075,0.9872662061094386,-0.03894904368524976,-3,155.25145658919712,-29,0.09107454947584999,-1,0.1416269830331814
Autodromo Nazionale Monza,,"('Practice',)",Cadillac V-Series.R,0,0,Not Pacing,False,16,05:17.000533,True,0.0,0,0,00:00.000000,0.0,00:00.000000,0.0,0,0,0,40,1,4449,-83.84625477929598,98,120,120,120,120,120,120,120,120,120,120,120,120,100,100,100,100,100,100,100,100,100,100,100,100,121,203,168,0.07,0.99,78,0.0,0,-1.2065122372999588,-0.3014923721764552,1.111503818834715,-0.1481622510644911,-10,145.90848180467168,-40,0.11224089883721622,-5,0.17019754087782507
Autodromo Nazionale Monza,,"('Practice',)",Cadillac V-Series.R,0,0,Not Pacing,False,16,05:17.000799,True,0.0,0,0,00:00.000000,0.0,00:00.000000,0.0,0,0,0,38,1,4316,-101.61887828272188,98,120,120,120,120,120,120,120,120,120,120,120,120,100,100,100,100,100,100,100,100,100,100,100,100,121,202,167,0.07,0.99,78,0.0,0,-1.1735618661303038,-0.2668906424752798,0.8422018434172619,-2.0949297955735346,-1,135.55764430621917,-41,-0.6886031302562969,0,0.1498917426133287
Autodromo Nazionale Monza,,"('Practice',)",Cadillac V-Series.R,0,0,Not Pacing,False,16,05:18.000066,True,0.0,0,0,00:00.000000,0.0,00:00.000000,0.0,6,0,0,37,1,4161,-88.90003468959344,98,120,120,120,120,120,120,120,120,120,120,120,120,100,100,100,100,100,100,100,100,100,100,100,100,121,202,167,0.07,0.99,78,0.0,0,-1.110612653446489,-0.21303791275568815,0.7449348403044067,-1.1759059647986305,7,124.32188749889983,-44,0.1148694411104001,2,0.13818050470349835
Autodromo Nazionale Monza,,"('Practice',)",Cadillac V-Series.R,0,0,Not Pacing,False,16,05:18.000333,True,0.0,0,0,00:00.000000,0.0,00:00.000000,0.0,35,0,0,37,1,4292,-57.290424644773054,98,120,120,120,120,120,120,120,120,120,120,120,120,100,100,100,100,100,100,100,100,100,100,100,100,121,202,167,0.07,0.99,78,0.0,0,-0.5362759550290978,0.23039619492463742,0.9262007189331676,-0.3519762698364275,-1,115.30662519075162,-25,-0.09077458811145789,-2,0.11171125829758338
Autodromo Nazionale Monza,,"('Practice',)",Cadillac V-Series.R,0,0,Not Pacing,False,16,05:18.000599,True,0.0,0,0,00:00.000000,0.0,00:00.000000,0.0,52,0,0,39,1,4416,-21.938545415966132,98,120,120,120,120,120,120,120,120,120,120,120,120,100,100,100,100,100,100,100,100,100,100,100,100,121,202,167,0.07,0.99,78,0.0,0,-0.16107363559905663,0.3389379178590609,1.0301016400227365,-0.4537730090199261,1,110.40915415960987,-9,-0.054767228194464224,0,0.11187010790903149
Autodromo Nazionale Monza,,"('Practice',)",Cadillac V-Series.R,0,0,Not Pacing,False,16,05:18.000849,True,0.0,0,0,00:00.000000,0.0,00:00.000000,0.0,1,0,0,40,1,4219,62.40036237042637,98,120,120,120,120,120,120,120,120,120,120,120,120,100,100,100,100,100,100,100,100,100,100,100,100,121,202,167,0.07,0.99,78,0.0,0,0.9589346906096198,-0.07561039365638164,0.9543537485976223,-0.2127886472175078,-1,111.5131244653482,22,0.016119313142296206,0,0.13826676518342187
Autodromo Nazionale Monza,,"('Practice',)",Cadillac V-Series.R,0,0,Not Pacing,False,16,05:19.000116,True,0.0,0,0,00:00.000000,0.0,00:00.000000,0.0,0,0,0,39,1,4326,73.57031713528183,98,120,120,120,120,120,120,120,120,120,120,120,120,100,100,100,100,100,100,100,100,100,100,100,100,121,202,167,0.07,0.99,78,0.0,0,0.9417580537475212,-0.2423892570441165,1.0097266458711613,-0.05212868076137056,2,120.30065460618984,33,-0.0025484743134143173,-1,0.1430468377257228
Autodromo Nazionale Monza,,"('Practice',)",Cadillac V-Series.R,0,0,Not Pacing,False,16,05:19.000383,True,0.0,0,0,00:00.000000,0.0,00:00.000000,0.0,0,0,0,37,1,4193,73.28634519034938,98,120,120,120,120,120,120,120,120,120,120,120,120,100,100,100,100,100,100,100,100,100,100,100,100,121,202,167,0.07,0.99,78,0.0,0,0.8326497403610493,-0.21779532340202368,0.9324886504784757,-0.1597283093100259,1,128.1682402281008,30,0.0254138415684615,-2,0.1294863573742279
Autodromo Nazionale Monza,,"('Practice',)",Cadillac V-Series.R,0,0,Not Pacing,False,16,05:19.000649,True,0.0,0,0,00:00.000000,0.0,00:00.000000,0.0,3,0,0,36,1,4118,111.22961014309014,98,120,120,120,120,120,120,120,120,120,120,120,120,100,100,100,100,100,100,100,100,100,100,100,100,121,202,167,0.07,0.99,78,0.0,0,1.094344486154912,-0.37927943510625217,1.118166026233047,1.9296029322792376,18,135.68797797596136,32,-0.11215033212965864,0,0.16427424242156052
Autodromo Nazionale Monza,,"('Practice',)",Cadillac V-Series.R,0,0,Not Pacing,False,16,05:19.000899,True,0.0,0,0,00:00.000000,0.0,00:00.000000,0.0,23,0,0,35,1,4275,88.26076313422612,98,120,120,120,120,120,120,120,120,120,120,120,120,100,100,100,100,100,100,100,100,100,100,100,100,121,202,167,0.07,0.99,78,0.0,0,1.5782874415530828,0.1336206962087711,1.0932290468983936,1.6354125974616254,-4,147.05924573641377,43,-0.38034879560740364,-3,0.19638537790675653
Autodromo Nazionale Monza,,"('Practice',)",Cadillac V-Series.R,0,0,Not Pacing,False,16,05:20.000183,True,0.0,0,0,00:00.000000,0.0,00:00.000000,0.0,41,0,0,36,1,4138,69.70531798964672,98,120,120,120,120,120,120,120,120,120,120,120,120,100,100,100,100,100,100,100,100,100,100,100,100,121,202,167,0.07,0.99,78,0.0,0,0.3111100707214542,0.1555789622813311,0.4492599300652833,-0.07565054825704465,-6,156.74090228112345,25,-0.1956726467246881,4,0.05797757454441484
Autodromo Nazionale Monza,,"('Practice',)",Cadillac V-Series.R,0,0,Not Pacing,False,16,05:20.000449,True,0.0,0,0,00:00.000000,0.0,00:00.000000,0.0,52,0,0,38,1,4422,70.91982124672336,98,120,120,120,120,120,120,120,120,120,120,120,120,100,100,100,100,100,100,100,100,100,100,100,100,121,202,167,0.07,0.99,78,0.0,0,0.7145867070655939,0.3281929198876555,0.8351661378819643,-0.12933128612064593,-2,164.59362541140047,28,-0.08834886376996565,0,0.11705141280981507
Autodromo Nazionale Monza,,"('Practice',)",Cadillac V-Series.R,0,0,Not Pacing,False,17,05:20.000716,True,0.0,0,0,00:00.000000,0.0,00:00.000000,0.0,54,0,0,40,1,4663,69.91837891061608,98,120,120,120,120,120,120,120,120,120,120,120,120,100,100,100,100,100,100,100,100,100,100,100,100,121,202,167,0.07,0.99,78,0.0,0,0.9637160889356264,0.3370108346812708,1.0300276597826974,0.3606785978496899,5,172.27051215168467,28,-0.03666706347632953,-1,0.14798669634011943
