TrackName,TrackType,SessionFlag,CarName,RacePosition,Lap Nbr,PaceMode,OnPitRoad,LpDistance,LapDistPrct %,SessionTime,IsOnTrack,PreviousLap,LapBestLap,LapCompleted,CurrentLapTime,LapBestLapTime,LapDeltaToBestLap,LapDeltaToBestLap_DD,Throttle %,Brake %,Clutch %,Speed (MPH),currentGear,GearDisplay,RPM,SteeringWheelAngle (deg),FuelLevelPct,LFtempCL (F),LFtempCR (F),LFtempCM (F),LRtempCL (F),LRtempCR (F),LRtempCM (F),RFtempCL (F),RFtempCR (F),RFtempCM (F),RRtempCL (F),RRtempCR (F),RRtempCM (F),LFwearL %,LFwearM %,LFwearR %,LRwearL %,LRwearM %,LRwearR %,RFwearL %,RFwearM %,RFwearR %,RRwearL %,RRwearM %,RRwearR %,TrackTemp (F),OilTemp (F),WaterTemp (F),AirDensity (lbs/ft^3),AirPressure (bar),AirTemp (F),WindDir (deg),WindVel (MPH),LatAccel (m/s),LongAccel (m/s),VertAccel (m/s),Roll (deg),RollRate (deg/s),Yaw (deg),YawRate (deg/s),Pitch (deg),PitchRate (deg/s),gForces
Martinsville Speedway,,"('Practice',)",NASCAR Chevrolet Camaro ZL1,1,36,Not Pacing,True,760.6870539227294,29.5,37:19.000616,True,32.983,12,35,14:53.000890,19.871,00:00.000000,0.0,0,100.0,100,0.0,0,N,4124,0.301,99.91,140,126,138,138,138,139,187,177,180,177,174,176,99.63,99.63,99.82,99.68,99.66,99.66,99.55,99.54,99.58,99.61,99.61,99.67,112,178,173,0.07,0.99,78,-0.0,0.0,-0.037455449410534775,0.007505706538969345,0.9986443864703786,2.126,-1,-133.805,0,0.419,0,0.10197701357097785
Martinsville Speedway,,"('Practice',)",NASCAR Chevrolet Camaro ZL1,1,36,Not Pacing,True,760.6870539227294,29.5,37:19.000700,True,32.983,12,35,14:53.000974,19.871,00:00.000000,0.0,0,100.0,100,0.0,0,N,3922,0.34,99.91,140,126,138,138,138,139,187,177,180,177,174,176,99.63,99.63,99.82,99.68,99.66,99.66,99.55,99.54,99.58,99.61,99.61,99.67,112,178,173,0.07,0.99,78,-0.0,0.0,-0.03671660396544819,0.007567153702453006,0.9976991698161055,2.129,0,-133.805,0,0.418,0,0.10187788033625447
Martinsville Speedway,,"('Practice',)",NASCAR Chevrolet Camaro ZL1,1,36,Not Pacing,True,760.6870539227294,29.5,37:19.000766,True,32.983,12,35,14:54.000040,19.871,00:00.000000,0.0,0,100.0,100,0.0,0,N,3669,0.268,99.91,140,126,138,138,138,139,187,177,180,177,174,176,99.63,99.63,99.82,99.68,99.66,99.66,99.55,99.54,99.58,99.61,99.61,99.67,112,178,173,0.07,0.99,78,-0.0,0.0,-0.03759233958859691,0.007060669157483161,0.9999527965238456,2.127,0,-133.804,-1,0.418,-1,0.1021106206302108
Martinsville Speedway,,"('Practice',)",NASCAR Chevrolet Camaro ZL1,1,36,Not Pacing,True,760.6870539227294,29.5,37:19.000850,True,32.983,12,35,14:54.000124,19.871,00:00.000000,0.0,0,100.0,100,0.0,0,N,3418,0.787,99.91,140,126,138,138,138,139,187,177,180,177,174,176,99.63,99.63,99.82,99.68,99.66,99.66,99.55,99.54,99.58,99.61,99.61,99.67,112,178,173,0.07,0.99,78,-0.0,0.0,-0.03703326199518917,0.006915622074669654,0.9988391071284582,2.129,-1,-133.805,0,0.419,0,0.10199482893584777
Martinsville Speedway,,"('Practice',)",NASCAR Chevrolet Camaro ZL1,1,36,Not Pacing,True,760.6870539227294,29.5,37:19.000916,True,32.983,12,35,14:54.000190,19.871,00:00.000000,0.0,0,100.0,100,0.0,0,N,3219,0.787,99.91,140,126,138,138,138,139,187,177,180,177,174,176,99.63,99.63,99.82,99.68,99.66,99.66,99.55,99.54,99.58,99.61,99.61,99.67,112,178,173,0.07,0.99,78,-0.0,0.0,-0.03724414760305733,0.007558939836076275,0.99895372303254,2.129,0,-133.805,-1,0.419,0,0.10200779082211278
Martinsville Speedway,,"('Practice',)",NASCAR Chevrolet Camaro ZL1,1,36,Not Pacing,True,760.6870539227294,29.5,37:20.000000,True,32.983,12,35,14:54.000274,19.871,00:00.000000,0.0,0,100.0,100,0.0,0,N,2973,0.837,99.91,140,126,138,138,138,139,187,177,180,177,174,176,99.63,99.63,99.82,99.68,99.66,99.66,99.55,99.54,99.58,99.61,99.61,99.67,112,178,173,0.07,0.99,78,-0.0,0.0,-0.037023212445499214,0.007299946717895134,0.9987795146354962,2.128,-1,-133.805,0,0.419,-1,0.10198899328621021
Martinsville Speedway,,"('Practice',)",NASCAR Chevrolet Camaro ZL1,1,36,Not Pacing,True,760.6870539227294,29.5,37:20.000066,True,32.983,12,35,14:54.000340,19.871,00:00.000000,0.0,0,100.0,100,0.0,0,N,2782,0.803,99.91,140,126,138,138,138,139,187,177,180,177,174,176,99.63,99.63,99.82,99.68,99.66,99.66,99.55,99.54,99.58,99.61,99.61,99.67,112,178,173,0.07,0.99,78,-0.0,0.0,-0.036975066960769326,0.007351275977738406,0.9985711839463975,2.129,0,-133.805,-1,0.419,-1,0.10196760670932477
Martinsville Speedway,,"('Practice',)",NASCAR Chevrolet Camaro ZL1,1,36,Not Pacing,True,760.6870539227294,29.5,37:20.000150,True,32.983,12,35,14:54.000424,19.871,00:00.000000,0.0,0,100.0,100,0.0,0,N,2621,0.82,99.91,140,126,138,138,138,139,187,177,180,177,174,176,99.63,99.63,99.82,99.68,99.66,99.66,99.55,99.54,99.58,99.61,99.61,99.67,112,178,173,0.07,0.99,78,-0.0,0.0,-0.03741775448533737,0.007282791395313756,0.999446892227966,2.127,0,-133.805,0,0.419,0,0.10205852998217121
Martinsville Speedway,,"('Practice',)",NASCAR Chevrolet Camaro ZL1,1,36,Not Pacing,True,760.6870539227294,29.5,37:20.000216,True,32.983,12,35,14:54.000490,19.871,00:00.000000,0.0,0,100.0,100,0.0,0,N,2456,0.787,99.91,140,126,138,138,138,139,187,177,180,177,174,176,99.63,99.63,99.82,99.68,99.66,99.66,99.55,99.54,99.58,99.61,99.61,99.67,112,178,173,0.07,0.99,78,-0.0,0.0,-0.036918220777637976,0.007392286829020026,0.9986299987233013,2.127,-1,-133.805,-1,0.419,0,0.10197342035946881
Martinsville Speedway,,"('Practice',)",NASCAR Chevrolet Camaro ZL1,1,36,Not Pacing,True,760.6870539227294,29.5,37:20.000300,True,32.983,12,35,14:54.000574,19.871,00:00.000000,0.0,0,100.0,100,0.0,0,N,2332,0.893,99.91,140,126,138,138,138,139,187,177,180,177,174,176,99.63,99.63,99.82,99.68,99.66,99.66,99.55,99.54,99.58,99.61,99.61,99.67,112,178,173,0.07,0.99,78,-0.0,0.0,-0.0373272477790607,0.007157973284385984,0.9989909561888279,2.125,0,-133.805,0,0.419,0,0.10201160247908865
Martinsville Speedway,,"('Practice',)",NASCAR Chevrolet Camaro ZL1,1,36,Not Pacing,True,760.6870539227294,29.5,37:20.000366,True,32.983,12,35,14:54.000640,19.871,00:00.000000,0.0,0,100.0,100,0.0,0,N,2258,0.787,99.91,140,126,138,138,138,139,187,177,180,177,174,176,99.63,99.63,99.82,99.68,99.66,99.66,99.55,99.54,99.58,99.61,99.61,99.67,112,178,173,0.07,0.99,78,-0.0,0.0,-0.03699623541972931,0.007438664224898779,0.9989084210721481,2.125,-1,-133.805,-1,0.419,0,0.10200214006059999
Martinsville Speedway,,"('Practice',)",NASCAR Chevrolet Camaro ZL1,1,36,Not Pacing,True,760.6870539227294,29.5,37:20.000450,True,32.983,12,35,14:54.000724,19.871,00:00.000000,0.0,0,100.0,100,0.0,0,N,2188,0.91,99.91,140,126,138,138,138,139,187,177,180,177,174,176,99.63,99.63,99.82,99.68,99.66,99.66,99.55,99.54,99.58,99.61,99.61,99.67,112,178,173,0.07,0.99,78,-0.0,0.0,-0.037158483394424485,0.007105384792878115,0.9989546951776128,2.125,0,-133.805,0,0.419,-1,0.10200722520564309
Martinsville Speedway,,"('Practice',)",NASCAR Chevrolet Camaro ZL1,1,36,Not Pacing,True,760.6870539227294,29.5,37:20.000516,True,32.983,12,35,14:54.000790,19.871,00:00.000000,0.0,0,100.0,100,0.0,0,N,2146,0.803,99.91,140,126,138,138,138,139,187,177,180,177,174,176,99.63,99.63,99.82,99.68,99.66,99.66,99.55,99.54,99.58,99.61,99.61,99.67,112,178,173,0.07,0.99,78,-0.0,0.0,-0.03707509765080599,0.007423138764290999,0.998986775965015,2.125,0,-133.805,-1,0.419,0,0.10201041610460629
Martinsville Speedway,,"('Practice',)",NASCAR Chevrolet Camaro ZL1,1,36,Not Pacing,True,760.6870539227294,29.5,37:20.000600,True,32.983,12,35,14:54.000874,19.871,00:00.000000,0.0,0,100.0,100,0.0,0,N,2107,0.926,99.91,140,126,138,138,138,139,187,177,180,177,174,176,99.63,99.63,99.82,99.68,99.66,99.66,99.55,99.54,99.58,99.61,99.61,99.67,112,178,173,0.07,0.99,78,-0.0,0.0,-0.03710143670637187,0.007204642323786573,0.9988837285872992,2.124,-1,-133.805,0,0.419,0,0.10199984517842105
Martinsville Speedway,,"('Practice',)",NASCAR Chevrolet Camaro ZL1,1,36,Not Pacing,True,760.6870539227294,29.5,37:20.000683,True,32.983,12,35,14:54.000957,19.871,00:00.000000,0.0,0,100.0,100,0.0,0,N,2083,0.803,99.91,140,126,138,138,138,139,187,177,180,177,174,176,99.63,99.63,99.82,99.68,99.66,99.66,99.55,99.54,99.58,99.61,99.61,99.67,112,178,173,0.07,0.99,78,-0.0,0.0,-0.03712961068576264,0.0072868622528060615,0.9989873592520586,2.124,0,-133.805,0,0.419,-1,0.10201057971896761
Martinsville Speedway,,"('Practice',)",NASCAR Chevrolet Camaro ZL1,1,36,Not Pacing,True,760.6870539227294,29.5,37:20.000783,True,32.983,12,35,14:55.000057,19.871,00:00.000000,0.0,0,100.0,100,0.0,0,N,2057,0.876,99.91,140,126,138,138,138,139,187,177,180,177,174,176,99.63,99.63,99.82,99.68,99.66,99.66,99.55,99.54,99.58,99.61,99.61,99.67,112,178,173,0.07,0.99,78,-0.0,0.0,-0.03679895072902014,0.0072731504503497045,0.9989138650845557,2.124,-1,-133.805,-1,0.419,0,0.10200182782447326
Martinsville Speedway,,"('Practice',)",NASCAR Chevrolet Camaro ZL1,1,36,Not Pacing,True,760.6870539227294,29.5,37:20.000866,True,32.983,12,35,14:55.000140,19.871,00:00.000000,0.0,0,100.0,100,0.0,0,N,2039,0.965,99.91,140,126,138,138,138,139,187,177,180,177,174,176,99.63,99.63,99.82,99.68,99.66,99.66,99.55,99.54,99.58,99.61,99.61,99.67,112,178,173,0.07,0.99,78,-0.0,0.0,-0.03698754079723455,0.007437014616228389,0.9989864843214931,2.124,0,-133.805,0,0.419,-1,0.10201006593895581
Martinsville Speedway,,"('Practice',)",NASCAR Chevrolet Camaro ZL1,1,36,Not Pacing,True,760.6870539227294,29.5,37:20.000950,True,32.983,12,35,14:55.000224,19.871,00:00.000000,0.0,0,100.0,100,0.0,0,N,2028,0.82,99.91,140,126,138,138,138,139,187,177,180,177,174,176,99.63,99.63,99.82,99.68,99.66,99.66,99.55,99.54,99.58,99.61,99.61,99.67,112,178,173,0.07,0.99,78,-0.0,0.0,-0.03704200826289092,0.007425449887303887,0.9989406962885647,2.124,0,-133.805,-1,0.419,-1,0.10200559404262978
Martinsville Speedway,,"('Practice',)",NASCAR Chevrolet Camaro ZL1,1,36,Not Pacing,True,760.6870539227294,29.5,37:21.000033,True,32.983,12,35,14:55.000307,19.871,00:00.000000,0.0,0,100.0,100,0.0,0,N,2020,0.965,99.91,140,126,138,138,138,139,187,177,180,177,174,176,99.63,99.63,99.82,99.68,99.66,99.66,99.55,99.54,99.58,99.61,99.61,99.67,112,178,173,0.07,0.99,78,-0.0,0.0,-0.037113117637012104,0.007098436234072685,0.9989554728936711,2.124,-1,-133.805,0,0.419,0,0.1020071275062558
Martinsville Speedway,,"('Practice',)",NASCAR Chevrolet Camaro ZL1,1,36,Not Pacing,True,760.6870539227294,29.5,37:21.000100,True,32.983,12,35,14:55.000374,19.871,00:00.000000,0.0,0,100.0,100,0.0,0,N,2016,0.854,99.91,140,126,138,138,138,139,187,177,180,177,174,176,99.63,99.63,99.82,99.68,99.66,99.66,99.55,99.54,99.58,99.61,99.61,99.67,112,178,173,0.07,0.99,78,-0.0,0.0,-0.03708644440657745,0.007395213897075128,0.9989532369600037,2.124,0,-133.805,-1,0.419,-1,0.10200701803425122
Martinsville Speedway,,"('Practice',)",NASCAR Chevrolet Camaro ZL1,1,36,Not Pacing,True,760.6870539227294,29.5,37:21.000183,True,32.983,12,35,14:55.000457,19.871,00:00.000000,0.0,0,100.0,100,0.0,0,N,2012,0.999,99.91,140,126,138,138,138,139,187,177,180,177,174,176,99.63,99.63,99.82,99.68,99.66,99.66,99.55,99.54,99.58,99.61,99.61,99.67,112,178,173,0.07,0.99,78,-0.0,0.0,-0.037043846224669164,0.007201122095339402,0.9989117263653956,2.124,-1,-133.805,-1,0.419,-1,0.10200247952152224
Martinsville Speedway,,"('Practice',)",NASCAR Chevrolet Camaro ZL1,1,36,Not Pacing,True,760.6870539227294,29.5,37:21.000250,True,32.983,12,35,14:55.000524,19.871,00:00.000000,0.0,0,100.0,100,0.0,0,N,2009,0.91,99.91,140,126,138,138,138,139,187,177,180,177,174,176,99.63,99.63,99.82,99.68,99.66,99.66,99.55,99.54,99.58,99.61,99.61,99.67,112,178,173,0.07,0.99,78,-0.0,0.0,-0.03714473057959787,0.00724278306863845,0.9989680135651101,2.124,0,-133.805,-1,0.419,0,0.10200863171222735
Martinsville Speedway,,"('Practice',)",NASCAR Chevrolet Camaro ZL1,1,36,Not Pacing,True,760.6870539227294,29.5,37:21.000333,True,32.983,12,35,14:55.000607,19.871,00:00.000000,0.0,0,100.0,100,0.0,0,N,2006,0.91,99.91,140,126,138,138,138,139,187,177,180,177,174,176,99.63,99.63,99.82,99.68,99.66,99.66,99.55,99.54,99.58,99.61,99.61,99.67,112,178,173,0.07,0.99,78,-0.0,0.0,-0.03700369663316297,0.007316842295464876,0.9989148372296285,2.124,-1,-133.805,-1,0.419,0,0.10200273073857233
Martinsville Speedway,,"('Practice',)",NASCAR Chevrolet Camaro ZL1,1,36,Not Pacing,True,760.6870539227294,29.5,37:21.000400,True,32.983,12,35,14:55.000674,19.871,00:00.000000,0.0,0,100.0,100,0.0,0,N,2005,0.999,99.91,140,126,138,138,138,139,187,177,180,177,174,176,99.63,99.63,99.82,99.68,99.66,99.66,99.55,99.54,99.58,99.61,99.61,99.67,112,178,173,0.07,0.99,78,-0.0,0.0,-0.0370605245885742,0.007402343973593366,0.9989831790282456,2.124,0,-133.805,0,0.419,-1,0.10200997846065935
Martinsville Speedway,,"('Practice',)",NASCAR Chevrolet Camaro ZL1,1,36,Not Pacing,True,760.6870539227294,29.5,37:21.000483,True,32.983,12,35,14:55.000757,19.871,00:00.000000,0.0,0,100.0,100,0.0,0,N,2003,0.893,99.91,140,126,138,138,138,139,187,177,180,177,174,176,99.63,99.63,99.82,99.68,99.66,99.66,99.55,99.54,99.58,99.61,99.61,99.67,112,178,173,0.07,0.99,78,-0.0,0.0,-0.037007709769541576,0.007386886866936017,0.9989086155011626,2.124,0,-133.805,-1,0.419,0,0.10200216404687672
Martinsville Speedway,,"('Practice',)",NASCAR Chevrolet Camaro ZL1,1,36,Not Pacing,True,760.6870539227294,29.5,37:21.000550,True,32.983,12,35,14:55.000824,19.871,00:00.000000,0.0,0,100.0,100,0.0,0,N,2002,1.055,99.91,140,126,138,138,138,139,187,177,180,177,174,176,99.63,99.63,99.82,99.68,99.66,99.66,99.55,99.54,99.58,99.61,99.61,99.67,112,178,173,0.07,0.99,78,-0.0,0.0,-0.03712587400313911,0.0073028403684633585,0.9989691801391974,2.124,-1,-133.805,0,0.419,-1,0.10200872377302327
Martinsville Speedway,,"('Practice',)",NASCAR Chevrolet Camaro ZL1,1,36,Not Pacing,True,760.6870539227294,29.5,37:21.000633,True,32.983,12,35,14:55.000907,19.871,00:00.000000,0.0,0,100.0,100,0.0,0,N,2002,0.893,99.91,140,126,138,138,138,139,187,177,180,177,174,176,99.63,99.63,99.82,99.68,99.66,99.66,99.55,99.54,99.58,99.61,99.61,99.67,112,178,173,0.07,0.99,78,-0.0,0.0,-0.037007041419804036,0.007445520126126957,0.9988910196753452,2.124,0,-133.805,-1,0.419,0,0.10200041169816744
Martinsville Speedway,,"('Practice',)",NASCAR Chevrolet Camaro ZL1,1,36,Not Pacing,True,760.6870539227294,29.5,37:21.000700,True,32.983,12,35,14:55.000974,19.871,00:00.000000,0.0,0,100.0,100,0.0,0,N,2001,1.105,99.91,140,126,138,138,138,139,187,177,180,177,174,176,99.63,99.63,99.82,99.68,99.66,99.66,99.55,99.54,99.58,99.61,99.61,99.67,112,178,173,0.07,0.99,78,-0.0,0.0,-0.03713131497759337,0.0072075974929101845,0.9989826929557092,2.124,-1,-133.805,0,0.419,-1,0.10201005173166218
Martinsville Speedway,,"('Practice',)",NASCAR Chevrolet Camaro ZL1,1,36,Not Pacing,True,760.6870539227294,29.5,37:21.000783,True,32.983,12,35,14:56.000057,19.871,00:00.000000,0.0,0,100.0,100,0.0,0,N,2001,0.91,99.91,140,126,138,138,138,139,187,177,180,177,174,176,99.63,99.63,99.82,99.68,99.66,99.66,99.55,99.54,99.58,99.61,99.61,99.67,112,178,173,0.07,0.99,78,-0.0,0.0,-0.03698870129541519,0.00744371634132393,0.9990013581411068,2.124,0,-133.805,-1,0.419,0,0.10201159206533625
Martinsville Speedway,,"('Practice',)",NASCAR Chevrolet Camaro ZL1,1,36,Not Pacing,True,760.6870539227294,29.5,37:21.000850,True,32.983,12,35,14:56.000124,19.871,00:00.000000,0.0,0,100.0,100,0.0,0,N,2000,1.105,99.91,140,126,138,138,138,139,187,177,180,177,174,176,99.63,99.63,99.82,99.68,99.66,99.66,99.55,99.54,99.58,99.61,99.61,99.67,112,178,173,0.07,0.99,78,-0.0,0.0,-0.03707662877929563,0.007263056850336134,0.9990941979955581,2.124,-1,-133.805,0,0.419,-1,0.10202125551619909
Martinsville Speedway,,"('Practice',)",NASCAR Chevrolet Camaro ZL1,1,36,Not Pacing,True,760.6870539227294,29.5,37:21.000933,True,32.983,12,35,14:56.000207,19.871,00:00.000000,0.0,0,100.0,100,0.0,0,N,2000,0.943,99.91,140,126,138,138,138,139,187,177,180,177,174,176,99.63,99.63,99.82,99.68,99.66,99.66,99.55,99.54,99.58,99.61,99.61,99.67,112,178,173,0.07,0.99,78,-0.0,0.0,-0.03704316876107156,0.007563979800688017,0.9989586809724113,2.124,0,-133.805,-1,0.419,-1,0.10200753826912932
Martinsville Speedway,,"('Practice',)",NASCAR Chevrolet Camaro ZL1,1,36,Not Pacing,True,760.6870539227294,29.5,37:22.000000,True,32.983,12,35,14:56.000274,19.871,00:00.000000,0.0,0,100.0,100,0.0,0,N,2000,1.105,99.91,140,126,138,138,138,139,187,177,180,177,174,176,99.63,99.63,99.82,99.68,99.66,99.66,99.55,99.54,99.58,99.61,99.61,99.67,112,178,173,0.07,0.99,78,-0.0,0.0,-0.03705498943756601,0.007038410832757978,0.9989169759487886,2.124,-1,-133.805,0,0.419,0,0.10200293869989546
Martinsville Speedway,,"('Practice',)",NASCAR Chevrolet Camaro ZL1,1,36,Not Pacing,True,760.6870539227294,29.5,37:22.000083,True,32.983,12,35,14:56.000357,19.871,00:00.000000,0.0,0,100.0,100,0.0,0,N,2000,0.943,99.91,140,126,138,138,138,139,187,177,180,177,174,176,99.63,99.63,99.82,99.68,99.66,99.66,99.55,99.54,99.58,99.61,99.61,99.67,112,178,173,0.07,0.99,78,-0.0,0.0,-0.03708284443185478,0.007462329881514492,0.9989725826469522,2.124,0,-133.805,0,0.419,-1,0.10200902793623218
Martinsville Speedway,,"('Practice',)",NASCAR Chevrolet Camaro ZL1,1,36,Not Pacing,True,760.6870539227294,29.5,37:22.000150,True,32.983,12,35,14:56.000424,19.871,00:00.000000,0.0,0,100.0,100,0.0,0,N,2000,1.055,99.91,140,126,138,138,138,139,187,177,180,177,174,176,99.63,99.63,99.82,99.68,99.66,99.66,99.55,99.54,99.58,99.61,99.61,99.67,112,178,173,0.07,0.99,78,-0.0,0.0,-0.03698668713234251,0.007224802941721878,0.9989184341663978,2.124,-1,-133.805,0,0.419,0,0.10200296496536017
Martinsville Speedway,,"('Practice',)",NASCAR Chevrolet Camaro ZL1,1,36,Not Pacing,True,760.6870539227294,29.5,37:22.000233,True,32.983,12,35,14:56.000507,19.871,00:00.000000,0.0,0,100.0,100,0.0,0,N,2000,1.071,99.91,140,126,138,138,138,139,187,177,180,177,174,176,99.63,99.63,99.82,99.68,99.66,99.66,99.55,99.54,99.58,99.61,99.61,99.67,112,178,173,0.07,0.99,78,-0.0,0.0,-0.037125257298608556,0.007316066098383321,0.9989821096686655,2.124,0,-133.805,0,0.419,-1,0.10201004969799166
Martinsville Speedway,,"('Practice',)",NASCAR Chevrolet Camaro ZL1,1,36,Not Pacing,True,760.6870539227294,29.5,37:22.000300,True,32.983,12,35,14:56.000574,19.871,00:00.000000,0.0,0,100.0,100,0.0,0,N,2000,0.999,99.91,140,126,138,138,138,139,187,177,180,177,174,176,99.63,99.63,99.82,99.68,99.66,99.66,99.55,99.54,99.58,99.61,99.61,99.67,112,178,173,0.07,0.99,78,-0.0,0.0,-0.036949350685640696,0.00727172868818075,0.9989241698223272,2.124,-1,-133.805,-1,0.419,0,0.10200344364636267
Martinsville Speedway,,"('Practice',)",NASCAR Chevrolet Camaro ZL1,1,36,Not Pacing,True,760.6870539227294,29.5,37:22.000383,True,32.983,12,35,14:56.000657,19.871,00:00.000000,0.0,0,100.0,100,0.0,0,N,2000,1.122,99.91,140,126,138,138,138,139,187,177,180,177,174,176,99.63,99.63,99.82,99.68,99.66,99.66,99.55,99.54,99.58,99.61,99.61,99.67,112,179,173,0.07,0.99,78,-0.0,0.0,-0.03716543119374157,0.007124875542099201,0.9989608196915715,2.124,-1,-133.805,0,0.419,-1,0.10200789021869666
Martinsville Speedway,,"('Practice',)",NASCAR Chevrolet Camaro ZL1,1,36,Not Pacing,True,760.6870539227294,29.5,37:22.000450,True,32.983,12,35,14:56.000724,19.871,00:00.000000,0.0,0,100.0,100,0.0,0,N,2000,0.965,99.91,140,126,138,138,138,139,187,177,180,177,174,176,99.63,99.63,99.82,99.68,99.66,99.66,99.55,99.54,99.58,99.61,99.61,99.67,112,179,173,0.07,0.99,78,-0.0,0.0,-0.036985092206832465,0.007350426110288054,0.9988826592277191,2.124,-1,-133.805,-1,0.419,0,0.10199940449043553
Martinsville Speedway,,"('Practice',)",NASCAR Chevrolet Camaro ZL1,1,36,Not Pacing,True,760.6870539227294,29.5,37:22.000533,True,32.983,12,35,14:56.000807,19.871,00:00.000000,0.0,0,100.0,100,0.0,0,N,2000,1.144,99.91,140,126,138,138,138,139,187,177,180,177,174,176,99.63,99.63,99.82,99.68,99.66,99.66,99.55,99.54,99.58,99.61,99.61,99.67,112,179,173,0.07,0.99,78,-0.0,0.0,-0.037148357895900715,0.007125229463664763,0.9990531734734864,2.124,-1,-133.805,0,0.419,-1,0.10201724282889528
Martinsville Speedway,,"('Practice',)",NASCAR Chevrolet Camaro ZL1,1,36,Not Pacing,True,760.6870539227294,29.5,37:22.000600,True,32.983,12,35,14:56.000874,19.871,00:00.000000,0.0,0,100.0,100,0.0,0,N,2000,0.943,99.91,140,126,138,138,138,139,187,177,180,177,174,176,99.63,99.63,99.82,99.68,99.66,99.66,99.55,99.54,99.58,99.61,99.61,99.67,112,179,173,0.07,0.99,78,-0.0,0.0,-0.03699527542646993,0.007425187863827237,0.9989048241353787,2.124,0,-133.805,-1,0.419,0,0.10200175943858776
Martinsville Speedway,,"('Practice',)",NASCAR Chevrolet Camaro ZL1,1,36,Not Pacing,True,760.6870539227294,29.5,37:22.000683,True,32.983,12,35,14:56.000957,19.871,00:00.000000,0.0,0,100.0,100,0.0,0,N,2000,1.144,99.91,140,126,138,138,138,139,187,177,180,177,174,176,99.63,99.63,99.82,99.68,99.66,99.66,99.55,99.54,99.58,99.61,99.61,99.67,112,179,173,0.07,0.99,78,-0.0,0.0,-0.03715814010569565,0.006999193133442652,0.9990114684498638,2.124,-1,-133.805,0,0.419,-1,0.10201293650635693
Martinsville Speedway,,"('Practice',)",NASCAR Chevrolet Camaro ZL1,1,36,Not Pacing,True,760.6870539227294,29.5,37:22.000783,True,32.983,12,35,14:57.000057,19.871,00:00.000000,0.0,0,100.0,100,0.0,0,N,2000,1.071,99.91,140,126,138,138,138,139,187,177,180,177,174,176,99.63,99.63,99.82,99.68,99.66,99.66,99.55,99.54,99.58,99.61,99.61,99.67,112,179,173,0.07,0.99,78,-0.0,0.0,-0.03715303330611016,0.00731422357967505,0.9990170096767786,2.124,0,-133.805,0,0.419,-1,0.10201371228674411
Martinsville Speedway,,"('Practice',)",NASCAR Chevrolet Camaro ZL1,1,36,Not Pacing,True,760.6870539227294,29.5,37:22.000883,True,32.983,12,35,14:57.000157,19.871,00:00.000000,0.0,0,100.0,100,0.0,0,N,2000,0.965,99.91,140,126,138,138,138,139,187,177,180,177,174,176,99.63,99.63,99.82,99.68,99.66,99.66,99.55,99.54,99.58,99.61,99.61,99.67,112,179,173,0.07,0.99,78,-0.0,0.0,-0.03701644388542992,0.007377663640557929,0.9988637023987997,2.124,0,-133.805,-1,0.419,0,0.10199761039416506
Martinsville Speedway,,"('Practice',)",NASCAR Chevrolet Camaro ZL1,1,36,Not Pacing,True,760.6870539227294,29.5,37:22.000966,True,32.983,12,35,14:57.000240,19.871,00:00.000000,0.0,0,100.0,100,0.0,0,N,2000,1.161,99.91,140,126,138,138,138,139,187,177,180,177,174,176,99.63,99.63,99.82,99.68,99.66,99.66,99.55,99.54,99.58,99.61,99.61,99.67,112,179,173,0.07,0.99,78,-0.0,0.0,-0.03711449686783412,0.0070132892369980954,0.9989225171757036,2.124,-1,-133.805,0,0.419,0,0.10200371097937724
Martinsville Speedway,,"('Practice',)",NASCAR Chevrolet Camaro ZL1,1,36,Not Pacing,True,760.6870539227294,29.5,37:23.000050,True,32.983,12,35,14:57.000324,19.871,00:00.000000,0.0,0,100.0,100,0.0,0,N,2000,1.016,99.91,140,126,138,138,138,139,187,177,180,177,174,176,99.63,99.63,99.82,99.68,99.66,99.66,99.55,99.54,99.58,99.61,99.61,99.67,112,179,173,0.07,0.99,78,-0.0,0.0,-0.03703587159711894,0.0075420784354817486,0.9990706720847966,2.124,0,-133.805,-1,0.419,-1,0.10201891328967001
Martinsville Speedway,,"('Practice',)",NASCAR Chevrolet Camaro ZL1,1,36,Not Pacing,True,760.6870539227294,29.5,37:23.000150,True,32.983,12,35,14:57.000424,19.871,00:00.000000,0.0,0,100.0,100,0.0,0,N,2000,1.016,99.91,140,126,138,138,138,139,187,177,180,177,174,176,99.63,99.63,99.82,99.68,99.66,99.66,99.55,99.54,99.58,99.61,99.61,99.67,112,179,173,0.07,0.99,78,-0.0,0.0,-0.03698753168337449,0.007467331871709327,0.9989134762265266,2.124,0,-133.805,-1,0.419,0,0.10200264446904506
Martinsville Speedway,,"('Practice',)",NASCAR Chevrolet Camaro ZL1,1,36,Not Pacing,True,760.6870539227294,29.5,37:23.000250,True,32.983,12,35,14:57.000524,19.871,00:00.000000,0.0,0,100.0,100,0.0,0,N,2000,1.122,99.91,140,126,138,138,138,139,187,177,180,177,174,176,99.63,99.63,99.82,99.68,99.66,99.66,99.55,99.54,99.58,99.61,99.61,99.67,112,179,173,0.07,0.99,78,-0.0,0.0,-0.037029786576553946,0.007090419834663865,0.9987730012635085,2.124,-1,-133.805,0,0.419,0,0.10198820006715931
Martinsville Speedway,,"('Practice',)",NASCAR Chevrolet Camaro ZL1,1,36,Not Pacing,True,760.6870539227294,29.5,37:23.000316,True,32.983,12,35,14:57.000590,19.871,00:00.000000,0.0,0,100.0,100,0.0,0,N,2000,0.982,99.91,140,126,138,138,138,139,187,177,180,177,174,176,99.63,99.63,99.82,99.68,99.66,99.66,99.55,99.54,99.58,99.61,99.61,99.67,112,179,173,0.07,0.99,78,-0.0,0.0,-0.03694876436064367,0.007677825583595019,0.9989856093909275,2.124,0,-133.805,-1,0.418,0,0.10201001616608664
Martinsville Speedway,,"('Practice',)",NASCAR Chevrolet Camaro ZL1,1,36,Not Pacing,True,760.6870539227294,29.5,37:23.000400,True,32.983,12,35,14:57.000674,19.871,00:00.000000,0.0,0,100.0,100,0.0,0,N,2000,1.071,99.91,140,126,138,138,138,139,187,177,180,177,174,176,99.63,99.63,99.82,99.68,99.66,99.66,99.55,99.54,99.58,99.61,99.61,99.67,112,179,173,0.07,0.99,78,-0.0,0.0,-0.03687464741270355,0.007426886079751266,0.9989210589580944,2.124,-1,-133.805,-1,0.419,0,0.10200296136037965
Martinsville Speedway,,"('Practice',)",NASCAR Chevrolet Camaro ZL1,1,36,Not Pacing,True,760.6870539227294,29.5,37:23.000483,True,32.983,12,35,14:57.000757,19.871,00:00.000000,0.0,0,100.0,100,0.0,0,N,2000,1.122,99.91,140,126,138,138,138,139,187,177,180,177,174,176,99.63,99.63,99.82,99.68,99.66,99.66,99.55,99.54,99.58,99.61,99.61,99.67,112,179,173,0.07,0.99,78,-0.0,0.0,-0.03718579763301651,0.007149048536924776,0.9990312029948414,2.124,0,-133.805,0,0.419,-1,0.10201516192802844
Martinsville Speedway,,"('Practice',)",NASCAR Chevrolet Camaro ZL1,1,36,Not Pacing,True,760.6870539227294,29.5,37:23.000550,True,32.983,12,35,14:57.000824,19.871,00:00.000000,0.0,0,100.0,100,0.0,0,N,2000,1.016,99.91,140,126,138,138,138,139,187,177,180,177,174,176,99.63,99.63,99.82,99.68,99.66,99.66,99.55,99.54,99.58,99.61,99.61,99.67,112,179,173,0.07,0.99,78,-0.0,0.0,-0.036834713515885374,0.0075593469218255055,0.9989166843052668,2.124,-1,-133.805,-1,0.419,0,0.10200246636638849
Martinsville Speedway,,"('Practice',)",NASCAR Chevrolet Camaro ZL1,1,36,Not Pacing,True,760.6870539227294,29.5,37:23.000633,True,32.983,12,35,14:57.000907,19.871,00:00.000000,0.0,0,100.0,100,0.0,0,N,2000,1.161,99.91,140,126,138,138,138,139,187,177,180,177,174,176,99.63,99.63,99.82,99.68,99.66,99.66,99.55,99.54,99.58,99.61,99.61,99.67,112,179,173,0.07,0.99,78,-0.0,0.0,-0.03720442028706713,0.007084713039291257,0.9990294531337104,2.124,0,-133.805,0,0.419,-1,0.10201500746450999
Martinsville Speedway,,"('Practice',)",NASCAR Chevrolet Camaro ZL1,1,36,Not Pacing,True,760.6870539227294,29.5,37:23.000716,True,32.983,12,35,14:57.000990,19.871,00:00.000000,0.0,0,100.0,100,0.0,0,N,2000,0.965,99.91,140,126,138,138,138,139,187,177,180,177,174,176,99.63,99.63,99.82,99.68,99.66,99.66,99.55,99.54,99.58,99.61,99.61,99.67,112,179,173,0.07,0.99,78,-0.0,0.0,-0.036989032432330614,0.0074623898810932026,0.9988306494663249,2.124,0,-133.805,-1,0.419,0,0.10199420068365682
Martinsville Speedway,,"('Practice',)",NASCAR Chevrolet Camaro ZL1,1,36,Not Pacing,True,760.6870539227294,29.5,37:23.000783,True,32.983,12,35,14:58.000057,19.871,00:00.000000,0.0,0,100.0,100,0.0,0,N,2000,1.161,99.91,140,126,138,138,138,139,187,177,180,177,174,176,99.63,99.63,99.82,99.68,99.66,99.66,99.55,99.54,99.58,99.61,99.61,99.67,112,179,173,0.07,0.99,78,-0.0,0.0,-0.03721883537572458,0.0069616508654012105,0.9989949419836264,2.124,-1,-133.805,0,0.419,-1,0.1020114549797637
Martinsville Speedway,,"('Practice',)",NASCAR Chevrolet Camaro ZL1,1,36,Not Pacing,True,760.6870539227294,29.5,37:23.000866,True,32.983,12,35,14:58.000140,19.871,00:00.000000,0.0,0,100.0,100,0.0,0,N,2000,0.965,99.91,140,126,138,138,138,139,187,177,180,177,174,176,99.63,99.63,99.82,99.68,99.66,99.66,99.55,99.54,99.58,99.61,99.61,99.67,112,179,173,0.07,0.99,78,-0.0,0.0,-0.036903353033931004,0.007702066932371025,0.9989165870907595,2.124,0,-133.805,-1,0.419,0,0.10200282595172011
Martinsville Speedway,,"('Practice',)",NASCAR Chevrolet Camaro ZL1,1,36,Not Pacing,True,760.6870539227294,29.5,37:23.000933,True,32.983,12,35,14:58.000207,19.871,00:00.000000,0.0,0,100.0,100,0.0,0,N,2000,1.161,99.91,140,126,138,138,138,139,187,177,180,177,174,176,99.63,99.63,99.82,99.68,99.66,99.66,99.55,99.54,99.58,99.61,99.61,99.67,112,179,173,0.07,0.99,78,-0.0,0.0,-0.03711990746275486,0.006962578200662051,0.9990134127400093,2.124,-1,-133.805,0,0.419,-1,0.10201296374260592
Martinsville Speedway,,"('Practice',)",NASCAR Chevrolet Camaro ZL1,1,36,Not Pacing,True,760.6870539227294,29.5,37:24.000016,True,32.983,12,35,14:58.000290,19.871,00:00.000000,0.0,0,100.0,100,0.0,0,N,2000,0.999,99.91,140,126,138,138,138,139,187,177,180,177,174,176,99.63,99.63,99.82,99.68,99.66,99.66,99.55,99.54,99.58,99.61,99.61,99.67,112,179,173,0.07,0.99,78,-0.0,0.0,-0.03701223024413004,0.007553353799349427,0.9989852205328984,2.124,0,-133.805,-1,0.419,-1,0.1020101193206807
Martinsville Speedway,,"('Practice',)",NASCAR Chevrolet Camaro ZL1,1,36,Not Pacing,True,760.6870539227294,29.5,37:24.000083,True,32.983,12,35,14:58.000357,19.871,00:00.000000,0.0,0,100.0,100,0.0,0,N,2000,1.144,99.91,140,126,138,138,138,139,187,177,180,177,174,176,99.63,99.63,99.82,99.68,99.66,99.66,99.55,99.54,99.58,99.61,99.61,99.67,112,179,173,0.07,0.99,78,-0.0,0.0,-0.03706729011069015,0.007085913790353819,0.9988192753689733,2.124,-1,-133.805,0,0.419,0,0.1019930571406905
Martinsville Speedway,,"('Practice',)",NASCAR Chevrolet Camaro ZL1,1,36,Not Pacing,True,760.6870539227294,29.5,37:24.000166,True,32.983,12,35,14:58.000440,19.871,00:00.000000,0.0,0,100.0,100,0.0,0,N,2000,0.965,99.91,140,126,138,138,138,139,187,177,180,177,174,176,99.63,99.63,99.82,99.68,99.66,99.66,99.55,99.54,99.58,99.61,99.61,99.67,112,179,173,0.07,0.99,78,-0.0,0.0,-0.03710760678963073,0.007475652825941733,0.9989427377932175,2.124,0,-133.805,0,0.419,-1,0.10200608864445171
Martinsville Speedway,,"('Practice',)",NASCAR Chevrolet Camaro ZL1,1,36,Not Pacing,True,760.6870539227294,29.5,37:24.000233,True,32.983,12,35,14:58.000507,19.871,00:00.000000,0.0,0,100.0,100,0.0,0,N,2000,1.088,99.91,140,126,138,138,138,139,187,177,180,177,174,176,99.63,99.63,99.82,99.68,99.66,99.66,99.55,99.54,99.58,99.61,99.61,99.67,112,179,173,0.07,0.99,78,-0.0,0.0,-0.03695044434884758,0.007245574188281029,0.9988790622909498,2.124,-1,-133.805,-1,0.419,0,0.1019988288496222
Martinsville Speedway,,"('Practice',)",NASCAR Chevrolet Camaro ZL1,1,36,Not Pacing,True,760.6870539227294,29.5,37:24.000316,True,32.983,12,35,14:58.000590,19.871,00:00.000000,0.0,0,100.0,100,0.0,0,N,2000,1.032,99.91,140,126,138,138,138,139,187,177,180,177,174,176,99.63,99.63,99.82,99.68,99.66,99.66,99.55,99.54,99.58,99.61,99.61,99.67,112,179,173,0.07,0.99,78,-0.0,0.0,-0.0371489016895508,0.0072273563415146255,0.9990504514672826,2.124,0,-133.805,0,0.419,-1,0.10201704213624671
Martinsville Speedway,,"('Practice',)",NASCAR Chevrolet Camaro ZL1,1,36,Not Pacing,True,760.6870539227294,29.5,37:24.000383,True,32.983,12,35,14:58.000657,19.871,00:00.000000,0.0,0,100.0,100,0.0,0,N,2000,1.016,99.91,140,126,138,138,138,139,187,177,180,177,174,176,99.63,99.63,99.82,99.68,99.66,99.66,99.55,99.54,99.58,99.61,99.61,99.67,112,179,173,0.07,0.99,78,-0.0,0.0,-0.03683540009334303,0.0075449660101432675,0.9988340519740797,2.124,-1,-133.805,-1,0.419,0,0.10199403195841514
Martinsville Speedway,,"('Practice',)",NASCAR Chevrolet Camaro ZL1,1,36,Not Pacing,True,760.6870539227294,29.5,37:24.000450,True,32.983,12,35,14:58.000724,19.871,00:00.000000,0.0,0,100.0,100,0.0,0,N,2000,1.071,99.91,140,126,138,138,138,139,187,177,180,177,174,176,99.63,99.63,99.82,99.68,99.66,99.66,99.55,99.54,99.58,99.61,99.61,99.67,112,179,173,0.07,0.99,78,-0.0,0.0,-0.037148263719346784,0.007344550708504384,0.998993775409539,2.124,0,-133.805,0,0.419,-1,0.10201134774635753
Martinsville Speedway,,"('Practice',)",NASCAR Chevrolet Camaro ZL1,1,36,Not Pacing,True,760.6870539227294,29.5,37:24.000533,True,32.983,12,35,14:58.000807,19.871,00:00.000000,0.0,0,100.0,100,0.0,0,N,2000,0.999,99.91,140,126,138,138,138,139,187,177,180,177,174,176,99.63,99.63,99.82,99.68,99.66,99.66,99.55,99.54,99.58,99.61,99.61,99.67,112,179,173,0.07,0.99,78,-0.0,0.0,-0.03684506686091058,0.007551689000912276,0.9988510645128535,2.124,0,-133.805,-1,0.419,0,0.10199580823909701
Martinsville Speedway,,"('Practice',)",NASCAR Chevrolet Camaro ZL1,1,36,Not Pacing,True,760.6870539227294,29.5,37:24.000616,True,32.983,12,35,14:58.000890,19.871,00:00.000000,0.0,0,100.0,100,0.0,0,N,2000,1.144,99.91,140,126,138,138,138,139,187,177,180,177,174,176,99.63,99.63,99.82,99.68,99.66,99.66,99.55,99.54,99.58,99.61,99.61,99.67,112,179,173,0.07,0.99,78,-0.0,0.0,-0.03718537839545387,0.007048663925322552,0.9989978584188447,2.124,-1,-133.805,0,0.419,-1,0.10201168753399666
Martinsville Speedway,,"('Practice',)",NASCAR Chevrolet Camaro ZL1,1,36,Not Pacing,True,760.6870539227294,29.5,37:24.000683,True,32.983,12,35,14:58.000957,19.871,00:00.000000,0.0,0,100.0,100,0.0,0,N,2000,0.965,99.91,140,126,138,138,138,139,187,177,180,177,174,176,99.63,99.63,99.82,99.68,99.66,99.66,99.55,99.54,99.58,99.61,99.61,99.67,112,179,173,0.07,0.99,78,-0.0,0.0,-0.037010100638829965,0.007396896163744056,0.9988832425147629,2.124,0,-133.805,-1,0.419,0,0.10199959339772043
Martinsville Speedway,,"('Practice',)",NASCAR Chevrolet Camaro ZL1,1,36,Not Pacing,True,760.6870539227294,29.5,37:24.000766,True,32.983,12,35,14:59.000040,19.871,00:00.000000,0.0,0,100.0,100,0.0,0,N,2000,1.161,99.91,140,126,138,138,138,139,187,177,180,177,174,176,99.63,99.63,99.82,99.68,99.66,99.66,99.55,99.54,99.58,99.61,99.61,99.67,112,179,173,0.07,0.99,78,-0.0,0.0,-0.03712768462333718,0.0069879246049700154,0.9989647082718626,2.124,-1,-133.805,0,0.419,0,0.102008044963527
Martinsville Speedway,,"('Practice',)",NASCAR Chevrolet Camaro ZL1,1,36,Not Pacing,True,760.6870539227294,29.5,37:24.000850,True,32.983,12,35,14:59.000124,19.871,00:00.000000,0.0,0,100.0,100,0.0,0,N,2000,0.999,99.9,140,126,138,138,138,139,187,177,180,177,174,176,99.63,99.63,99.82,99.68,99.66,99.66,99.55,99.54,99.58,99.61,99.61,99.67,112,179,173,0.07,0.99,78,-0.0,0.0,-0.03700903431720325,0.007535565063494061,0.9989382659258828,2.124,0,-133.805,-1,0.419,-1,0.10200530568295561
Martinsville Speedway,,"('Practice',)",NASCAR Chevrolet Camaro ZL1,1,36,Not Pacing,True,760.6870539227294,29.5,37:24.000933,True,32.983,12,35,14:59.000207,19.871,00:00.000000,0.0,0,100.0,100,0.0,0,N,2000,1.055,99.9,140,126,138,138,138,139,187,177,180,177,174,176,99.63,99.63,99.82,99.68,99.66,99.66,99.55,99.54,99.58,99.61,99.61,99.67,112,179,173,0.07,0.99,78,-0.0,0.0,-0.03684954784210547,0.007517341140820952,0.9988812982246172,2.124,-1,-133.805,-1,0.419,0,0.10199888156368442
Martinsville Speedway,,"('Practice',)",NASCAR Chevrolet Camaro ZL1,1,36,Not Pacing,True,760.6870539227294,29.5,37:25.000016,True,32.983,12,35,14:59.000290,19.871,00:00.000000,0.0,0,100.0,100,0.0,0,N,2000,1.144,99.9,140,126,138,138,138,139,187,177,180,177,174,176,99.63,99.63,99.82,99.68,99.66,99.66,99.55,99.54,99.58,99.61,99.61,99.67,112,179,173,0.07,0.99,78,-0.0,0.0,-0.03719655502583759,0.0071675777739098065,0.9990314946383632,2.124,0,-133.805,0,0.419,-1,0.10201524603885412
Martinsville Speedway,,"('Practice',)",NASCAR Chevrolet Camaro ZL1,1,36,Not Pacing,True,760.6870539227294,29.5,37:25.000100,True,32.983,12,35,14:59.000374,19.871,00:00.000000,0.0,0,100.0,100,0.0,0,N,2000,0.965,99.9,140,126,138,138,138,139,187,177,180,177,174,176,99.63,99.63,99.82,99.68,99.66,99.66,99.55,99.54,99.58,99.61,99.61,99.67,112,179,173,0.07,0.99,78,-0.0,0.0,-0.037026763812968246,0.007373871515285713,0.9989063795674953,2.124,0,-133.805,-1,0.419,0,0.10200199824709166
Martinsville Speedway,,"('Practice',)",NASCAR Chevrolet Camaro ZL1,1,36,Not Pacing,True,760.6870539227294,29.5,37:25.000166,True,32.983,12,35,14:59.000440,19.871,00:00.000000,0.0,0,100.0,100,0.0,0,N,2000,1.161,99.9,140,126,138,138,138,139,187,177,180,177,174,176,99.63,99.63,99.82,99.68,99.66,99.66,99.55,99.54,99.58,99.61,99.61,99.67,112,179,173,0.07,0.99,78,-0.0,0.0,-0.037209250632897546,0.0069737274894656025,0.998993094907988,2.124,-1,-133.805,0,0.419,-1,0.10201123881954234
Martinsville Speedway,,"('Practice',)",NASCAR Chevrolet Camaro ZL1,1,36,Not Pacing,True,760.6870539227294,29.5,37:25.000250,True,32.983,12,35,14:59.000524,19.871,00:00.000000,0.0,0,100.0,100,0.0,0,N,2000,0.943,99.9,140,126,138,138,138,139,187,177,180,177,174,176,99.63,99.63,99.82,99.68,99.66,99.66,99.55,99.54,99.58,99.61,99.61,99.67,112,179,173,0.07,0.99,78,-0.0,0.0,-0.03699917312062115,0.007427947084959615,0.9989118235799028,2.124,0,-133.805,-1,0.419,0,0.10200248997056935
Martinsville Speedway,,"('Practice',)",NASCAR Chevrolet Camaro ZL1,1,36,Not Pacing,True,760.6870539227294,29.5,37:25.000316,True,32.983,12,35,14:59.000590,19.871,00:00.000000,0.0,0,100.0,100,0.0,0,N,2000,1.161,99.9,140,126,138,138,138,139,187,177,180,177,174,176,99.63,99.63,99.82,99.68,99.66,99.66,99.55,99.54,99.58,99.61,99.61,99.67,112,179,173,0.07,0.99,78,-0.0,0.0,-0.03710592072552011,0.006930261212386851,0.99893836314039,2.124,-1,-133.805,0,0.419,-1,0.10200523518564454
Martinsville Speedway,,"('Practice',)",NASCAR Chevrolet Camaro ZL1,1,36,Not Pacing,True,760.6870539227294,29.5,37:25.000400,True,32.983,12,35,14:59.000674,19.871,00:00.000000,0.0,0,100.0,100,0.0,0,N,2000,0.999,99.9,140,126,138,138,138,139,187,177,180,177,174,176,99.63,99.63,99.82,99.68,99.66,99.66,99.55,99.54,99.58,99.61,99.61,99.67,112,179,173,0.07,0.99,78,-0.0,0.0,-0.037006661675634975,0.007566211936913742,0.9989783183028816,2.124,0,-133.805,-1,0.419,-1,0.10200940440036531
Martinsville Speedway,,"('Practice',)",NASCAR Chevrolet Camaro ZL1,1,36,Not Pacing,True,760.6870539227294,29.5,37:25.000466,True,32.983,12,35,14:59.000740,19.871,00:00.000000,0.0,0,100.0,100,0.0,0,N,2000,1.144,99.9,140,126,138,138,138,139,187,177,180,177,174,176,99.63,99.63,99.82,99.68,99.66,99.66,99.55,99.54,99.58,99.61,99.61,99.67,112,179,173,0.07,0.99,78,-0.0,0.0,-0.03705902383961809,0.007113417901030374,0.9989147400151213,2.124,-1,-133.805,0,0.419,0,0.10200278014467748
Martinsville Speedway,,"('Practice',)",NASCAR Chevrolet Camaro ZL1,1,36,Not Pacing,True,760.6870539227294,29.5,37:25.000550,True,32.983,12,35,14:59.000824,19.871,00:00.000000,0.0,0,100.0,100,0.0,0,N,2000,1.071,99.9,140,126,138,138,138,139,187,177,180,177,174,176,99.63,99.63,99.82,99.68,99.66,99.66,99.55,99.54,99.58,99.61,99.61,99.67,112,179,173,0.07,0.99,78,-0.0,0.0,-0.03714862523579573,0.0073484962504209,0.9989628611962242,2.124,0,-133.805,0,0.419,-1,0.10200819982819351
Martinsville Speedway,,"('Practice',)",NASCAR Chevrolet Camaro ZL1,1,36,Not Pacing,True,760.6870539227294,29.5,37:25.000633,True,32.983,12,35,14:59.000907,19.871,00:00.000000,0.0,0,100.0,100,0.0,0,N,2000,0.982,99.9,140,126,138,138,138,139,187,177,180,177,174,176,99.63,99.63,99.82,99.68,99.66,99.66,99.55,99.54,99.58,99.61,99.61,99.67,112,179,173,0.07,0.99,78,-0.0,0.0,-0.036956186080683746,0.00726205888265985,0.9989112402928592,2.124,-1,-133.805,-1,0.419,0,0.1020021438540137
Martinsville Speedway,,"('Practice',)",NASCAR Chevrolet Camaro ZL1,1,36,Not Pacing,True,760.6870539227294,29.5,37:25.000716,True,32.983,12,35,14:59.000990,19.871,00:00.000000,0.0,0,100.0,100,0.0,0,N,2000,1.122,99.9,140,126,138,138,138,139,187,177,180,177,174,176,99.63,99.63,99.82,99.68,99.66,99.66,99.55,99.54,99.58,99.61,99.61,99.67,112,179,173,0.07,0.99,78,-0.0,0.0,-0.037169271166779094,0.007118612801263091,0.9990287726321594,2.124,-1,-133.805,0,0.419,-1,0.10201482923753188
Martinsville Speedway,,"('Practice',)",NASCAR Chevrolet Camaro ZL1,1,36,Not Pacing,True,760.6870539227294,29.5,37:25.000783,True,32.983,12,35,15:00.000057,19.871,00:00.000000,0.0,0,100.0,100,0.0,0,N,2000,0.982,99.9,140,126,138,138,138,139,187,177,180,177,174,176,99.63,99.63,99.82,99.68,99.66,99.66,99.55,99.54,99.58,99.61,99.61,99.67,112,179,173,0.07,0.99,78,-0.0,0.0,-0.0370256033147876,0.007366381441295207,0.9989179480938615,2.124,-1,-133.805,-1,0.419,0,0.1020031678455376
Martinsville Speedway,,"('Practice',)",NASCAR Chevrolet Camaro ZL1,1,36,Not Pacing,True,760.6870539227294,29.5,37:25.000866,True,32.983,12,35,15:00.000140,19.871,00:00.000000,0.0,0,100.0,100,0.0,0,N,2000,1.177,99.9,140,126,138,138,138,139,187,177,180,177,174,176,99.63,99.63,99.82,99.68,99.66,99.66,99.55,99.54,99.58,99.61,99.61,99.67,112,179,173,0.07,0.99,78,-0.0,0.0,-0.03716732687663351,0.006933292330344274,0.9989789015899253,2.124,-1,-133.805,0,0.419,-1,0.10200960372381564
Martinsville Speedway,,"('Practice',)",NASCAR Chevrolet Camaro ZL1,1,36,Not Pacing,True,760.6870539227294,29.5,37:25.000933,True,32.983,12,35,15:00.000207,19.871,00:00.000000,0.0,0,100.0,100,0.0,0,N,2000,0.965,99.9,140,126,138,138,138,139,187,177,180,177,174,176,99.63,99.63,99.82,99.68,99.66,99.66,99.55,99.54,99.58,99.61,99.61,99.67,112,179,173,0.07,0.99,78,-0.0,0.0,-0.03703997283414477,0.007372827218820803,0.9989119207944102,2.124,0,-133.805,-1,0.419,0,0.10200261242346331
Martinsville Speedway,,"('Practice',)",NASCAR Chevrolet Camaro ZL1,1,36,Not Pacing,True,760.6870539227294,29.5,37:26.000016,True,32.983,12,35,15:00.000290,19.871,00:00.000000,0.0,0,100.0,100,0.0,0,N,2000,1.144,99.9,140,126,138,138,138,139,187,177,180,177,174,176,99.63,99.63,99.82,99.68,99.66,99.66,99.55,99.54,99.58,99.61,99.61,99.67,112,179,173,0.07,0.99,78,-0.0,0.0,-0.0370964878803607,0.007074716653784966,0.9989510010263363,2.124,-1,-133.805,0,0.419,0,0.10200659137674103
Martinsville Speedway,,"('Practice',)",NASCAR Chevrolet Camaro ZL1,1,36,Not Pacing,True,760.6870539227294,29.5,37:26.000083,True,32.983,12,35,15:00.000357,19.871,00:00.000000,0.0,0,100.0,100,0.0,0,N,2000,0.965,99.9,140,126,138,138,138,139,187,177,180,177,174,176,99.63,99.63,99.82,99.68,99.66,99.66,99.55,99.54,99.58,99.61,99.61,99.67,112,179,173,0.07,0.99,78,-0.0,0.0,-0.036902654304659936,0.007687560705112997,0.9989065739965098,2.124,0,-133.805,-1,0.419,0,0.10200179090767607
Martinsville Speedway,,"('Practice',)",NASCAR Chevrolet Camaro ZL1,1,36,Not Pacing,True,760.6870539227294,29.5,37:26.000166,True,32.983,12,35,15:00.000440,19.871,00:00.000000,0.0,0,100.0,100,0.0,0,N,2000,1.088,99.9,140,126,138,138,138,139,187,177,180,177,174,176,99.63,99.63,99.82,99.68,99.66,99.66,99.55,99.54,99.58,99.61,99.61,99.67,112,179,173,0.07,0.99,78,-0.0,0.0,-0.03696084630112643,0.00725116250347289,0.9989072544980607,2.124,-1,-133.805,0,0.419,0,0.10200174693921987
Martinsville Speedway,,"('Practice',)",NASCAR Chevrolet Camaro ZL1,1,36,Not Pacing,True,760.6870539227294,29.5,37:26.000250,True,32.983,12,35,15:00.000524,19.871,00:00.000000,0.0,0,100.0,100,0.0,0,N,2000,1.055,99.9,140,126,138,138,138,139,187,177,180,177,174,176,99.63,99.63,99.82,99.68,99.66,99.66,99.55,99.54,99.58,99.61,99.61,99.67,112,179,173,0.07,0.99,78,-0.0,0.0,-0.037160874263712874,0.007217895395286707,0.9989888174696677,2.124,0,-133.805,0,0.419,-1,0.1020107958911035
Martinsville Speedway,,"('Practice',)",NASCAR Chevrolet Camaro ZL1,1,36,Not Pacing,True,760.6870539227294,29.5,37:26.000316,True,32.983,12,35,15:00.000590,19.871,00:00.000000,0.0,0,100.0,100,0.0,0,N,2000,1.032,99.9,140,126,138,138,138,139,187,177,180,177,174,176,99.63,99.63,99.82,99.68,99.66,99.66,99.55,99.54,99.58,99.61,99.61,99.67,112,179,173,0.07,0.99,78,-0.0,0.0,-0.03686140193608679,0.0075660091535274645,0.9989206701000652,2.124,-1,-133.805,-1,0.419,0,0.10200297832135177
Martinsville Speedway,,"('Practice',)",NASCAR Chevrolet Camaro ZL1,1,36,Not Pacing,True,760.6870539227294,29.5,37:26.000400,True,32.983,12,35,15:00.000674,19.871,00:00.000000,0.0,0,100.0,100,0.0,0,N,2000,1.161,99.9,140,126,138,138,138,139,187,177,180,177,174,176,99.63,99.63,99.82,99.68,99.66,99.66,99.55,99.54,99.58,99.61,99.61,99.67,112,179,173,0.07,0.99,78,-0.0,0.0,-0.037207594948320453,0.00716669752692593,0.9990213843296062,2.124,0,-133.805,0,0.419,-1,0.10201425639151082
Martinsville Speedway,,"('Practice',)",NASCAR Chevrolet Camaro ZL1,1,36,Not Pacing,True,760.6870539227294,29.5,37:26.000466,True,32.983,12,35,15:00.000740,19.871,00:00.000000,0.0,0,100.0,100,0.0,0,N,2000,0.982,99.9,140,126,138,138,138,139,187,177,180,177,174,176,99.63,99.63,99.82,99.68,99.66,99.66,99.55,99.54,99.58,99.61,99.61,99.67,112,179,173,0.07,0.99,78,-0.0,0.0,-0.03690376011968023,0.007369949517507679,0.9988946166121145,2.124,-1,-133.805,-1,0.419,0,0.10200033170170913
Martinsville Speedway,,"('Practice',)",NASCAR Chevrolet Camaro ZL1,1,36,Not Pacing,True,760.6870539227294,29.5,37:26.000550,True,32.983,12,35,15:00.000824,19.871,00:00.000000,0.0,0,100.0,100,0.0,0,N,2000,1.161,99.9,140,126,138,138,138,139,187,177,180,177,174,176,99.63,99.63,99.82,99.68,99.66,99.66,99.55,99.54,99.58,99.61,99.61,99.67,112,179,173,0.07,0.99,78,-0.0,0.0,-0.037152398373859495,0.007219931583521198,0.9990034968602669,2.124,-1,-133.805,0,0.419,-1,0.10201226206889019
Martinsville Speedway,,"('Practice',)",NASCAR Chevrolet Camaro ZL1,1,36,Not Pacing,True,760.6870539227294,29.5,37:26.000616,True,32.983,12,35,15:00.000890,19.871,00:00.000000,0.0,0,100.0,100,0.0,0,N,2000,0.965,99.9,140,126,138,138,138,139,187,177,180,177,174,176,99.63,99.63,99.82,99.68,99.66,99.66,99.55,99.54,99.58,99.61,99.61,99.67,112,179,173,0.07,0.99,78,-0.0,0.0,-0.03702251067827479,0.007349989404493637,0.9988839230163138,2.124,0,-133.805,-1,0.419,0,0.10199967437441541
Martinsville Speedway,,"('Practice',)",NASCAR Chevrolet Camaro ZL1,1,36,Not Pacing,True,760.6870539227294,29.5,37:26.000716,True,32.983,12,35,15:00.000990,19.871,00:00.000000,0.0,0,100.0,100,0.0,0,N,2000,1.177,99.9,140,126,138,138,138,139,187,177,180,177,174,176,99.63,99.63,99.82,99.68,99.66,99.66,99.55,99.54,99.58,99.61,99.61,99.67,112,179,173,0.07,0.99,78,-0.0,0.0,-0.0369762061932765,0.007199065400919783,0.9989322386264314,2.124,-1,-133.805,0,0.419,0,0.10200431406985695
Martinsville Speedway,,"('Practice',)",NASCAR Chevrolet Camaro ZL1,1,36,Not Pacing,True,760.6870539227294,29.5,37:26.000800,True,32.983,12,35,15:01.000074,19.871,00:00.000000,0.0,0,100.0,100,0.0,0,N,2000,1.105,99.9,140,126,138,138,138,139,187,177,180,177,174,176,99.63,99.63,99.82,99.68,99.66,99.66,99.55,99.54,99.58,99.61,99.61,99.67,112,179,173,0.07,0.99,78,-0.0,0.0,-0.0371380561960825,0.007237060324010742,0.9989811375235927,2.124,0,-133.805,0,0.419,-1,0.10200994039953876
Martinsville Speedway,,"('Practice',)",NASCAR Chevrolet Camaro ZL1,1,36,Not Pacing,True,760.6870539227294,29.5,37:26.000883,True,32.983,12,35,15:01.000157,19.871,00:00.000000,0.0,0,100.0,100,0.0,0,N,2000,0.965,99.9,140,126,138,138,138,139,187,177,180,177,174,176,99.63,99.63,99.82,99.68,99.66,99.66,99.55,99.54,99.58,99.61,99.61,99.67,112,179,173,0.07,0.99,78,-0.0,0.0,-0.037007782680422034,0.0073476030921352745,0.9989135734410339,2.124,0,-133.805,-1,0.419,0,0.10200264033089403
Martinsville Speedway,,"('Practice',)",NASCAR Chevrolet Camaro ZL1,1,36,Not Pacing,True,760.6870539227294,29.5,37:26.000950,True,32.983,12,35,15:01.000224,19.871,00:00.000000,0.0,0,100.0,100,0.0,0,N,2000,1.161,99.9,140,126,138,138,138,139,187,177,180,177,174,176,99.63,99.63,99.82,99.68,99.66,99.66,99.55,99.54,99.58,99.61,99.61,99.67,112,179,173,0.07,0.99,78,-0.0,0.0,-0.03719534895835666,0.0071491267642236015,0.9990228425472154,2.124,0,-133.805,0,0.419,-1,0.10201434574664907
Martinsville Speedway,,"('Practice',)",NASCAR Chevrolet Camaro ZL1,1,36,Not Pacing,True,760.6870539227294,29.5,37:27.000033,True,32.983,12,35,15:01.000307,19.871,00:00.000000,0.0,0,100.0,100,0.0,0,N,2000,0.999,99.9,140,126,138,138,138,139,187,177,180,177,174,176,99.63,99.63,99.82,99.68,99.66,99.66,99.55,99.54,99.58,99.61,99.61,99.67,112,179,173,0.07,0.99,78,-0.0,0.0,-0.03690120823886416,0.007643004562269049,0.9988782845748916,2.124,0,-133.805,-1,0.419,0,0.10199886597291956
Martinsville Speedway,,"('Practice',)",NASCAR Chevrolet Camaro ZL1,1,36,Not Pacing,True,760.6870539227294,29.5,37:27.000100,True,32.983,12,35,15:01.000374,19.871,00:00.000000,0.0,0,100.0,100,0.0,0,N,2000,1.177,99.9,140,126,138,138,138,139,187,177,180,177,174,176,99.63,99.63,99.82,99.68,99.66,99.66,99.55,99.54,99.58,99.61,99.61,99.67,112,179,173,0.07,0.99,78,-0.0,0.0,-0.03724228837560562,0.006993925322329475,0.9989940670530608,2.124,-1,-133.805,0,0.419,-1,0.10201147787633491
Martinsville Speedway,,"('Practice',)",NASCAR Chevrolet Camaro ZL1,1,36,Not Pacing,True,760.6870539227294,29.5,37:27.000183,True,32.983,12,35,15:01.000457,19.871,00:00.000000,0.0,0,100.0,100,0.0,0,N,2000,0.965,99.9,140,126,138,138,138,139,187,177,180,177,174,176,99.63,99.63,99.82,99.68,99.66,99.66,99.55,99.54,99.58,99.61,99.61,99.67,112,179,173,0.07,0.99,78,-0.0,0.0,-0.03705123756517571,0.0074052057256513894,0.9989370993517954,2.124,0,-133.805,-1,0.419,0,0.10200524684845384
Martinsville Speedway,,"('Practice',)",NASCAR Chevrolet Camaro ZL1,1,36,Not Pacing,True,760.6870539227294,29.5,37:27.000250,True,32.983,12,35,15:01.000524,19.871,00:00.000000,0.0,0,100.0,100,0.0,0,N,2000,1.177,99.9,140,126,138,138,138,139,187,177,180,177,174,176,99.63,99.63,99.82,99.68,99.66,99.66,99.55,99.54,99.58,99.61,99.61,99.67,112,179,173,0.07,0.99,78,-0.0,0.0,-0.037172318233991614,0.006898269285120366,0.998975304653156,2.124,-1,-133.805,0,0.419,-1,0.1020092311661854
Martinsville Speedway,,"('Practice',)",NASCAR Chevrolet Camaro ZL1,1,36,Not Pacing,True,760.6870539227294,29.5,37:27.000333,True,32.983,12,35,15:01.000607,19.871,00:00.000000,0.0,0,100.0,100,0.0,0,N,2000,1.032,99.9,140,126,138,138,138,139,187,177,180,177,174,176,99.63,99.63,99.82,99.68,99.66,99.66,99.55,99.54,99.58,99.61,99.61,99.67,112,179,173,0.07,0.99,78,-0.0,0.0,-0.0370546765283707,0.007543253363940815,0.9989571255402948,2.124,0,-133.805,-1,0.419,-1,0.10200740720381357
Martinsville Speedway,,"('Practice',)",NASCAR Chevrolet Camaro ZL1,1,36,Not Pacing,True,760.6870539227294,29.5,37:27.000400,True,32.983,12,35,15:01.000674,19.871,00:00.000000,0.0,0,100.0,100,0.0,0,N,2000,1.122,99.9,140,126,138,138,138,139,187,177,180,177,174,176,99.63,99.63,99.82,99.68,99.66,99.66,99.55,99.54,99.58,99.61,99.61,99.67,112,179,173,0.07,0.99,78,-0.0,0.0,-0.037053221348714874,0.007148670311732394,0.9989271834720529,2.124,-1,-133.805,0,0.419,0,0.10200405269258517
Martinsville Speedway,,"('Practice',)",NASCAR Chevrolet Camaro ZL1,1,36,Not Pacing,True,760.6870539227294,29.5,37:27.000483,True,32.983,12,35,15:01.000757,19.871,00:00.000000,0.0,0,100.0,100,0.0,0,N,2000,0.999,99.9,140,126,138,138,138,139,187,177,180,177,174,176,99.63,99.63,99.82,99.68,99.66,99.66,99.55,99.54,99.58,99.61,99.61,99.67,112,179,173,0.07,0.99,78,-0.0,0.0,-0.037130455236794625,0.007272577036654427,0.9989663609184863,2.124,0,-133.805,0,0.419,-1,0.10200843115320764
Martinsville Speedway,,"('Practice',)",NASCAR Chevrolet Camaro ZL1,1,36,Not Pacing,True,760.6870539227294,29.5,37:27.000550,True,32.983,12,35,15:01.000824,19.871,00:00.000000,0.0,0,100.0,100,0.0,0,N,2000,1.071,99.9,140,126,138,138,138,139,187,177,180,177,174,176,99.63,99.63,99.82,99.68,99.66,99.66,99.55,99.54,99.58,99.61,99.61,99.67,112,179,173,0.07,0.99,78,-0.0,0.0,-0.036911285130134294,0.007401197905691148,0.998931752553895,2.124,-1,-133.805,-1,0.419,0,0.10200417030539352
Martinsville Speedway,,"('Practice',)",NASCAR Chevrolet Camaro ZL1,1,36,Not Pacing,True,760.6870539227294,29.5,37:27.000633,True,32.983,12,35,15:01.000907,19.871,00:00.000000,0.0,0,100.0,100,0.0,0,N,2000,1.055,99.9,140,126,138,138,138,139,187,177,180,177,174,176,99.63,99.63,99.82,99.68,99.66,99.66,99.55,99.54,99.58,99.61,99.61,99.67,112,179,173,0.07,0.99,78,-0.0,0.0,-0.03719338644049097,0.0071618990796057085,0.999013996027053,2.124,0,-133.805,0,0.419,-1,0.10201344556643344
Martinsville Speedway,,"('Practice',)",NASCAR Chevrolet Camaro ZL1,1,36,Not Pacing,True,760.6870539227294,29.5,37:27.000700,True,32.983,12,35,15:01.000974,19.871,00:00.000000,0.0,4.24,100.0,100,0.0,0,N,2020,1.016,99.9,140,126,138,138,138,139,187,177,180,177,174,176,99.63,99.63,99.82,99.68,99.66,99.66,99.55,99.54,99.58,99.61,99.61,99.67,112,179,173,0.07,0.99,78,-0.0,0.0,-0.036512401854955454,0.007527730941286388,0.9982291833097903,2.124,0,-133.805,-1,0.419,0,0.10193113108115029
Martinsville Speedway,,"('Practice',)",NASCAR Chevrolet Camaro ZL1,1,36,Not Pacing,True,760.687103984375,29.5,37:27.000783,True,32.983,12,35,15:02.000057,19.871,00:00.000000,0.0,28.43,100.0,100,0.01,0,N,2828,1.122,99.9,140,126,138,138,138,139,187,177,180,177,174,176,99.63,99.63,99.82,99.68,99.66,99.66,99.55,99.54,99.58,99.61,99.61,99.67,112,179,173,0.07,0.99,78,-0.0,0.0,-0.03602179061625225,0.004519161053389219,1.0051074985578032,2.09,0,-133.805,0,0.418,0,0.10262887063698575
Martinsville Speedway,,"('Practice',)",NASCAR Chevrolet Camaro ZL1,1,36,Not Pacing,True,760.6870539227294,29.5,37:27.000850,True,32.983,12,35,15:02.000124,19.871,00:00.000000,0.0,21.33,100.0,100,0.0,0,N,4032,0.876,99.9,140,126,138,138,138,139,187,177,180,177,174,176,99.63,99.63,99.82,99.68,99.66,99.66,99.55,99.54,99.58,99.61,99.61,99.67,112,179,173,0.07,0.99,78,-0.0,0.0,-0.03134237942224127,0.0073015059474532875,0.9960461343343348,2.094,-1,-133.805,-1,0.418,0,0.10169039618863965
Martinsville Speedway,,"('Practice',)",NASCAR Chevrolet Camaro ZL1,1,36,Not Pacing,True,760.687003861084,29.5,37:27.000933,True,32.983,12,35,15:02.000207,19.871,00:00.000000,0.0,0,100.0,100,0.0,0,N,4008,1.122,99.9,140,126,138,138,138,139,187,177,180,177,174,176,99.63,99.63,99.82,99.68,99.66,99.66,99.55,99.54,99.58,99.61,99.61,99.67,112,179,173,0.07,0.99,78,-0.0,0.0,-0.040614711278318505,0.007432902746365826,0.9906659918579972,2.148,-1,-133.804,0,0.417,0,0.10117612767507393
Martinsville Speedway,,"('Practice',)",NASCAR Chevrolet Camaro ZL1,1,36,Not Pacing,True,760.687103984375,29.5,37:28.000000,True,32.983,12,35,15:02.000274,19.871,00:00.000000,0.0,0,100.0,100,0.0,0,N,3806,0.999,99.9,140,126,138,138,138,139,187,177,180,177,174,176,99.63,99.63,99.82,99.68,99.66,99.66,99.55,99.54,99.58,99.61,99.61,99.67,112,179,173,0.07,0.99,78,-0.0,0.0,-0.04008206084112387,0.003977713083030008,1.0120839032436608,2.127,0,-133.805,0,0.415,-1,0.10335562220747688
Martinsville Speedway,,"('Practice',)",NASCAR Chevrolet Camaro ZL1,1,36,Not Pacing,True,760.687103984375,29.5,37:28.000083,True,32.983,12,35,15:02.000357,19.871,00:00.000000,0.0,0,100.0,100,0.0,0,N,3604,1.105,99.9,140,126,138,138,138,139,187,177,180,177,174,176,99.63,99.63,99.82,99.68,99.66,99.66,99.55,99.54,99.58,99.61,99.61,99.67,112,180,173,0.07,0.99,78,-0.0,0.0,-0.034229012318221314,0.005643123288037944,0.9959659323658296,2.131,-1,-133.805,-1,0.418,-1,0.10169080832244677
Martinsville Speedway,,"('Practice',)",NASCAR Chevrolet Camaro ZL1,1,36,Not Pacing,True,760.6870539227294,29.5,37:28.000150,True,32.983,12,35,15:02.000424,19.871,00:00.000000,0.0,0,100.0,100,0.0,0,N,3353,0.999,99.9,140,126,138,138,138,139,187,177,180,177,174,176,99.63,99.63,99.82,99.68,99.66,99.66,99.55,99.54,99.58,99.61,99.61,99.67,112,180,173,0.07,0.99,78,-0.0,0.0,-0.03893936506712716,0.008549476678461352,0.9932357601434083,2.131,0,-133.805,0,0.419,0,0.10143219735085475
Martinsville Speedway,,"('Practice',)",NASCAR Chevrolet Camaro ZL1,1,36,Not Pacing,True,760.687103984375,29.5,37:28.000233,True,32.983,12,35,15:02.000507,19.871,00:00.000000,0.0,0,100.0,100,0.0,0,N,3106,1.122,99.9,140,126,138,138,138,139,187,177,180,177,174,176,99.63,99.63,99.82,99.68,99.66,99.66,99.55,99.54,99.58,99.61,99.61,99.67,112,180,173,0.07,0.99,78,-0.0,0.0,-0.03614563278466554,0.007203968657630663,1.0004274949628886,2.124,-1,-133.805,-1,0.416,0,0.10215369147883223
Martinsville Speedway,,"('Practice',)",NASCAR Chevrolet Camaro ZL1,1,36,Not Pacing,True,760.6870539227294,29.5,37:28.000300,True,32.983,12,35,15:02.000574,19.871,00:00.000000,0.0,0,100.0,100,0.0,0,N,2909,0.965,99.9,140,126,138,138,138,139,187,177,180,177,174,176,99.63,99.63,99.82,99.68,99.66,99.66,99.55,99.54,99.58,99.61,99.61,99.67,112,180,173,0.07,0.99,78,-0.0,0.0,-0.03720206587321897,0.008930421598582214,0.9988383294124,2.135,-1,-133.805,-1,0.417,-1,0.10199701888842312
Martinsville Speedway,,"('Practice',)",NASCAR Chevrolet Camaro ZL1,1,36,Not Pacing,True,760.6870539227294,29.5,37:28.000400,True,32.983,12,35,15:02.000674,19.871,00:00.000000,0.0,0,100.0,100,0.0,0,N,2647,0.943,99.9,140,126,138,138,138,139,187,177,180,177,174,176,99.63,99.63,99.82,99.68,99.66,99.66,99.55,99.54,99.58,99.61,99.61,99.67,112,180,173,0.07,0.99,78,-0.0,0.0,-0.03808758978206934,0.007467015924560671,1.0003392241902793,2.125,0,-133.805,-1,0.42,0,0.10215223428769987
Martinsville Speedway,,"('Practice',)",NASCAR Chevrolet Camaro ZL1,1,36,Not Pacing,True,760.6870539227294,29.5,37:28.000483,True,32.983,12,35,15:02.000757,19.871,00:00.000000,0.0,0,100.0,100,0.0,0,N,2477,1.3,99.9,140,126,138,138,138,139,187,177,180,177,174,176,99.63,99.63,99.82,99.68,99.66,99.66,99.55,99.54,99.58,99.61,99.61,99.67,112,180,173,0.07,0.99,78,-0.0,0.0,-0.03656117315807595,0.007326726276697126,0.9965882996414293,2.128,-1,-133.805,0,0.418,0,0.10176384038314122
Martinsville Speedway,,"('Practice',)",NASCAR Chevrolet Camaro ZL1,1,36,Not Pacing,True,760.6870539227294,29.5,37:28.000566,True,32.983,12,35,15:02.000840,19.871,00:00.000000,0.0,0,100.0,100,0.0,0,N,2347,1.177,99.9,140,126,138,138,138,139,187,177,180,177,174,176,99.63,99.63,99.82,99.68,99.66,99.66,99.55,99.54,99.58,99.61,99.61,99.67,112,180,173,0.07,0.99,78,-0.0,0.0,-0.03760625645290456,0.0074611055863134474,0.9999254792473002,2.125,0,-133.805,-1,0.417,-1,0.10210818504016274
Martinsville Speedway,,"('Practice',)",NASCAR Chevrolet Camaro ZL1,1,36,Not Pacing,True,760.6870539227294,29.5,37:28.000666,True,32.983,12,35,15:02.000940,19.871,00:00.000000,0.0,0,100.0,100,0.0,0,N,2253,1.59,99.9,140,126,138,138,138,139,187,177,180,177,174,176,99.63,99.63,99.82,99.68,99.66,99.66,99.55,99.54,99.58,99.61,99.61,99.67,112,180,173,0.07,0.99,78,-0.0,0.0,-0.0369465831101366,0.00692382986513968,0.9986576076433684,2.127,-1,-133.805,0,0.419,-1,0.10197600016584267
Martinsville Speedway,,"('Practice',)",NASCAR Chevrolet Camaro ZL1,1,36,Not Pacing,True,760.6870539227294,29.5,37:28.000750,True,32.983,12,35,15:03.000024,19.871,00:00.000000,0.0,0,100.0,100,0.0,0,N,2173,1.657,99.9,140,126,138,138,138,139,187,177,180,177,174,176,99.63,99.63,99.82,99.68,99.66,99.66,99.55,99.54,99.58,99.61,99.61,99.67,112,180,173,0.07,0.99,78,-0.0,0.0,-0.03737763223541135,0.0075947307240100195,0.9992797804899536,2.125,0,-133.805,0,0.418,0,0.10204157382485907
Martinsville Speedway,,"('Practice',)",NASCAR Chevrolet Camaro ZL1,1,36,Not Pacing,True,760.6870539227294,29.5,37:28.000833,True,32.983,12,35,15:03.000107,19.871,00:00.000000,0.0,0,100.0,100,0.0,0,N,2127,1.747,99.9,140,126,138,138,138,139,187,177,180,177,174,176,99.63,99.63,99.82,99.68,99.66,99.66,99.55,99.54,99.58,99.61,99.61,99.67,112,180,173,0.07,0.99,78,-0.0,0.0,-0.036802957789492045,0.0072994279873602,0.998404752709936,2.126,-1,-133.805,-1,0.418,-1,0.10194994880568882
Martinsville Speedway,,"('Practice',)",NASCAR Chevrolet Camaro ZL1,1,36,Not Pacing,True,760.6870539227294,29.5,37:28.000933,True,32.983,12,35,15:03.000207,19.871,00:00.000000,0.0,0,100.0,100,0.0,0,N,2087,1.836,99.9,140,126,138,138,138,139,187,177,180,177,174,176,99.63,99.63,99.82,99.68,99.66,99.66,99.55,99.54,99.58,99.61,99.61,99.67,112,180,173,0.07,0.99,78,-0.0,0.0,-0.037291402967454944,0.0072058567456392214,0.9992904740857542,2.125,0,-133.805,0,0.418,0,0.10204204206943654
Martinsville Speedway,,"('Practice',)",NASCAR Chevrolet Camaro ZL1,1,36,Not Pacing,True,760.6870539227294,29.5,37:29.000000,True,32.983,12,35,15:03.000274,19.871,00:00.000000,0.0,0,100.0,100,0.0,1,1,2067,1.786,99.9,140,126,138,138,138,139,187,177,180,177,174,176,99.63,99.63,99.82,99.68,99.66,99.66,99.55,99.54,99.58,99.61,99.61,99.67,112,180,173,0.07,0.99,78,-0.0,0.0,-0.0369581637883162,0.007365154867629149,0.998902782630726,2.125,-1,-133.805,-1,0.418,0,0.10200136587007573
Martinsville Speedway,,"('Practice',)",NASCAR Chevrolet Camaro ZL1,1,36,Not Pacing,True,760.6870539227294,29.5,37:29.000083,True,32.983,12,35,15:03.000357,19.871,00:00.000000,0.0,0,100.0,100,0.0,1,1,2049,1.713,99.9,140,126,138,138,138,139,187,177,180,177,174,176,99.63,99.63,99.82,99.68,99.66,99.66,99.55,99.54,99.58,99.61,99.61,99.67,112,180,173,0.07,0.99,78,-0.0,0.0,-0.03725114704758141,0.0073255072979144485,0.9990875874090631,2.125,0,-133.805,0,0.418,-1,0.10202128988316694
Martinsville Speedway,,"('Practice',)",NASCAR Chevrolet Camaro ZL1,1,36,Not Pacing,True,760.6870539227294,29.5,37:29.000166,True,32.983,12,35,15:03.000440,19.871,00:00.000000,0.0,0,100.0,100,0.0,1,1,2036,2.551,99.9,140,126,138,138,138,139,187,177,180,177,174,176,99.63,99.63,99.82,99.68,99.66,99.66,99.55,99.54,99.58,99.61,99.61,99.67,112,180,173,0.07,0.99,78,-0.0,0.0,-0.03708596137199441,0.0068459496524841896,0.9986636349428197,2.125,-1,-133.805,0,0.418,0,0.10197708679861299
