TrackName,TrackType,SessionFlag,CarName,RacePosition,Lap Nbr,PaceMode,OnPitRoad,LapDistPrct %,SessionTime,IsOnTrack,PreviousLap,LapBestLap,LapCompleted,CurrentLapTime,LapBestLapTime,LapDeltaToBestLap,LapDeltaToBestLap_DD,Throttle %,Brake %,Clutch %,Speed (MPH),currentGear,RPM,SteeringWheelAngle (deg),FuelLevelPct,LFtempCL (F),LFtempCR (F),LFtempCM (F),LRtempCL (F),LRtempCR (F),LRtempCM (F),RFtempCL (F),RFtempCR (F),RFtempCM (F),RRtempCL (F),RRtempCR (F),RRtempCM (F),LFwearL %,LFwearM %,LFwearR %,LRwearL %,LRwearM %,LRwearR %,RFwearL %,RFwearM %,RFwearR %,RRwearL %,RRwearM %,RRwearR %,TrackTemp (F),OilTemp (F),WaterTemp (F),AirDensity (lbs/ft^3),AirPressure (bar),AirTemp (F),WindDir (deg),WindVel (MPH),LatAccel (m/s),LongAccel (m/s),VertAccel (m/s),Roll (deg),RollRate (deg/s),Yaw (deg),YawRate (deg/s),Pitch (deg),PitchRate (deg/s),gForces
Autodromo Nazionale Monza,,"('Practice',)",Cadillac V-Series.R,1,6,Not Pacing,True,4,19:46.000733,True,101.098,3,5,04:39.000192,98.011,00:00.000000,0.0,0,100,100,0,N,1549,-4,99,209,228,218,202,216,210,209,184,200,206,185,200,94,92,92,96,95,95,95,94,98,96,95,98,121,214,169,0.07,0.99,78,0,0,0.021171793113790156,-0.004203923266840516,0.9990346055025962,-2,-1,-179,0,-1,-1,0.10196609819460078
Autodromo Nazionale Monza,,"('Practice',)",Cadillac V-Series.R,1,6,Not Pacing,True,4,19:46.000999,True,101.098,3,5,04:39.000459,98.011,00:00.000000,0.0,0,100,100,0,N,1549,-5,99,209,228,218,202,216,210,209,184,200,206,185,200,94,92,92,96,95,95,95,94,98,96,95,98,121,214,169,0.07,0.99,78,0,0,0.021350576668582803,-0.0048878603632904576,0.9996655276548364,-2,0,-179,0,-1,-1,0.10203116819104108
Autodromo Nazionale Monza,,"('Practice',)",Cadillac V-Series.R,1,6,Not Pacing,True,4,19:47.000249,True,101.098,3,5,04:39.000709,98.011,00:00.000000,0.0,0,100,100,0,N,1549,-5,99,209,228,218,202,216,210,209,184,200,206,185,200,94,92,92,96,95,95,95,94,98,96,95,98,121,214,169,0.07,0.99,78,0,0,0.021370203366216412,-0.004842677262823394,0.9995914502002898,-2,0,-179,-1,-1,0,0.10202363143193434
Autodromo Nazionale Monza,,"('Practice',)",Cadillac V-Series.R,1,6,Not Pacing,True,4,19:47.000516,True,101.098,3,5,04:39.000976,98.011,00:00.000000,0.0,0,100,100,0,N,1549,-6,99,209,228,218,202,216,210,209,184,200,206,185,200,94,92,92,96,95,95,95,94,98,96,95,98,121,214,169,0.07,0.99,78,0,0,0.021758554057122247,-0.004833671629854177,0.9994390178528765,-2,0,-179,0,-1,-1,0.10200893121544632
Autodromo Nazionale Monza,,"('Practice',)",Cadillac V-Series.R,1,6,Not Pacing,True,4,19:47.000766,True,101.098,3,5,04:40.000226,98.011,00:00.000000,0.0,0,100,100,0,1,1549,-7,99,209,228,218,202,216,210,209,184,200,206,185,200,94,92,92,96,95,95,95,94,98,96,95,98,121,214,169,0.07,0.99,78,0,0,0.020823730241268053,-0.005439427376522566,1.0000387341482802,-2,-1,-179,-1,-1,0,0.10206839856341575
Autodromo Nazionale Monza,,"('Practice',)",Cadillac V-Series.R,1,6,Not Pacing,True,4,19:48.000033,True,101.098,3,5,04:40.000492,98.011,00:00.000000,0.0,0,100,100,0,1,1549,-8,99,209,228,218,202,216,210,209,184,200,206,185,200,94,92,92,96,95,95,95,94,98,96,95,98,121,214,169,0.07,0.99,78,0,0,0.021693877549224916,-0.004777819237213251,0.9994139365099985,-2,-1,-179,0,-1,0,0.10200620169886294
Autodromo Nazionale Monza,,"('Practice',)",Cadillac V-Series.R,1,6,Not Pacing,True,4,19:48.000299,True,101.098,3,5,04:40.000759,98.011,00:00.000000,0.0,0,100,100,0,1,1549,-11,99,209,228,218,202,216,210,209,184,200,206,185,200,94,92,92,96,95,95,95,94,98,96,95,98,121,214,169,0.07,0.99,78,0,0,0.021947649944569842,-0.004417575690724434,0.9996472513274679,-2,0,-179,0,-1,-1,0.10203039953971363
Autodromo Nazionale Monza,,"('Practice',)",Cadillac V-Series.R,1,6,Not Pacing,True,4,19:48.000549,True,101.098,3,5,04:41.000009,98.011,00:00.000000,0.0,0,100,100,0,1,1549,-11,99,209,228,218,202,216,210,209,184,200,206,185,200,94,92,92,96,95,95,95,94,98,96,95,98,121,214,169,0.07,0.99,78,0,0,0.02224546962557218,-0.005401603338307683,0.9994098535006928,-2,0,-179,0,-1,0,0.10200734622056865
Autodromo Nazionale Monza,,"('Practice',)",Cadillac V-Series.R,1,6,Not Pacing,True,4,19:48.000816,True,101.098,3,5,04:41.000276,98.011,00:00.000000,0.0,0,100,100,0,1,1549,-14,99,209,228,218,202,216,210,209,184,200,206,185,200,94,92,92,96,95,95,95,94,98,96,95,98,121,214,169,0.07,0.99,78,0,0,0.022380327412841516,-0.004267262695518594,0.9991198626254798,-2,0,-179,0,-1,-1,0.10197751038698163
Autodromo Nazionale Monza,,"('Practice',)",Cadillac V-Series.R,1,6,Not Pacing,True,4,19:49.000066,True,101.098,3,5,04:41.000526,98.011,00:00.000000,0.0,9,100,100,0,1,1719,-21,99,209,228,218,202,216,210,209,184,200,206,185,200,94,92,92,96,95,95,95,94,98,96,95,98,121,214,169,0.07,0.99,78,0,0,0.0208857470210053,-0.005716506570243446,0.999635780015609,-2,0,-179,0,-1,-1,0.10202758003761546
Autodromo Nazionale Monza,,"('Practice',)",Cadillac V-Series.R,1,6,Not Pacing,True,4,19:49.000333,True,101.098,3,5,04:41.000792,98.011,00:00.000000,0.0,15,100,100,0,1,2356,-38,99,209,228,218,202,216,210,209,184,200,206,185,200,94,92,92,96,95,95,95,94,98,96,95,98,121,214,169,0.07,0.99,78,0,0,0.02321609268373184,-0.00469265249344187,0.9988528143739845,-2,0,-179,0,-1,-1,0.10195240826952029
Autodromo Nazionale Monza,,"('Practice',)",Cadillac V-Series.R,1,6,Not Pacing,True,4,19:49.000599,True,101.098,3,5,04:42.000059,98.011,00:00.000000,0.0,18,100,98,0,1,3139,-58,99,209,228,218,202,216,210,209,184,200,206,185,200,94,92,92,96,95,95,95,94,98,96,95,98,121,214,169,0.07,0.99,78,0,0,0.021794699626109894,-0.0028574989233298887,0.9997129683343885,-2,0,-179,0,-1,-1,0.10203618322583086
Autodromo Nazionale Monza,,"('Practice',)",Cadillac V-Series.R,1,6,Not Pacing,True,4,19:49.000866,True,101.098,3,5,04:42.000326,98.011,00:00.000000,0.0,22,72,89,0,1,4297,-76,99,209,228,218,202,216,210,209,184,200,206,185,200,94,92,92,96,95,95,95,94,98,96,95,98,121,214,169,0.07,0.99,78,0,0,0.07781743638741495,0.036409217769338934,0.9996031159411632,-2,-1,-179,0,-1,0,0.1023763653315868
Autodromo Nazionale Monza,,"('Practice',)",Cadillac V-Series.R,1,6,Not Pacing,True,4,19:50.000133,True,101.098,3,5,04:42.000592,98.011,00:00.000000,0.0,21,0,66,0,1,3218,-87,99,209,228,218,202,216,210,209,184,200,206,185,200,94,92,92,96,95,95,95,94,98,96,95,98,121,214,169,0.07,0.99,78,0,0,0.04569146854311197,0.2979062019138161,1.0047719140786764,-2,-1,-179,0,-1,-1,0.10704088513634043
Autodromo Nazionale Monza,,"('Practice',)",Cadillac V-Series.R,1,6,Not Pacing,True,4,19:50.000416,True,101.098,3,5,04:42.000876,98.011,00:00.000000,0.0,23,0,76,2,1,1678,-98,99,209,228,218,202,216,210,209,184,200,206,185,200,94,92,92,96,95,95,95,94,98,96,95,98,121,214,169,0.07,0.99,78,0,0,0.029650603959319788,0.12597906480141735,0.9946469259310692,-2,0,-180,2,-1,0,0.10235016325253657
Autodromo Nazionale Monza,,"('Practice',)",Cadillac V-Series.R,1,6,Not Pacing,True,4,19:50.000666,True,101.098,3,5,04:43.000126,98.011,00:00.000000,0.0,26,0,74,2,1,1672,-105,99,209,228,218,202,216,210,209,184,200,206,185,200,94,92,92,96,95,95,95,94,98,96,95,98,121,214,169,0.07,0.99,78,0,0,0.0362345749449657,0.14883940859064534,0.9979594130520912,-2,0,179,3,-1,0,0.10302530714151144
Autodromo Nazionale Monza,,"('Practice',)",Cadillac V-Series.R,1,6,Not Pacing,True,4,19:50.000933,True,101.098,3,5,04:43.000392,98.011,00:00.000000,0.0,32,0,72,3,1,1660,-105,99,209,228,218,202,216,210,209,184,200,206,185,200,94,92,92,96,95,95,95,94,98,96,95,98,121,214,169,0.07,0.99,78,0,0,0.051999638933654224,0.18660129027993672,1.0032861847639327,-2,-1,178,4,-1,0,0.10426690056150308
Autodromo Nazionale Monza,,"('Practice',)",Cadillac V-Series.R,1,6,Not Pacing,True,4,19:51.000199,True,101.098,3,5,04:43.000659,98.011,00:00.000000,0.0,36,0,70,5,1,1653,-101,99,209,228,218,202,216,210,209,184,200,206,185,200,94,92,92,96,95,95,95,94,98,96,95,98,121,214,169,0.07,0.99,78,0,0,0.058507044380957926,0.20509748040839923,1.0187315284659009,-2,-1,177,5,-1,-1,0.10620591193003061
Autodromo Nazionale Monza,,"('Practice',)",Cadillac V-Series.R,1,6,Not Pacing,True,4,19:51.000466,True,101.098,3,5,04:43.000926,98.011,00:00.000000,0.0,39,0,69,6,1,1647,-92,99,209,228,218,202,216,210,209,184,200,206,185,200,94,92,92,96,95,95,95,94,98,96,95,98,121,214,169,0.07,0.99,78,0,0,0.055472596826660274,0.22158775854548182,1.0107318438764255,-2,-2,175,6,-1,-1,0.105736996416093
Autodromo Nazionale Monza,,"('Practice',)",Cadillac V-Series.R,1,6,Not Pacing,True,4,19:51.000733,True,101.098,3,5,04:44.000192,98.011,00:00.000000,0.0,40,0,69,7,1,1592,-81,99,209,228,218,202,216,210,209,184,200,206,185,200,94,92,92,96,95,95,95,94,98,96,95,98,121,214,169,0.07,0.99,78,0,0,0.05892363284827493,0.2367042498729523,0.998165313378508,-1,-1,174,6,0,-1,0.10485084352667166
Autodromo Nazionale Monza,,"('Practice',)",Cadillac V-Series.R,1,6,Not Pacing,True,4,19:51.000983,True,101.098,3,5,04:44.000442,98.011,00:00.000000,0.0,39,0,69,8,1,1495,-68,99,209,228,218,202,216,210,209,184,200,206,185,200,94,92,92,96,95,95,95,94,98,96,95,98,121,214,169,0.07,0.99,78,0,0,0.05747639440250688,0.2437017744105161,1.004137783847696,-1,-1,172,6,0,-2,0.1056005011569313
Autodromo Nazionale Monza,,"('Practice',)",Cadillac V-Series.R,1,6,Not Pacing,True,4,19:52.000249,True,101.098,3,5,04:44.000709,98.011,00:00.000000,0.0,39,0,69,10,1,1398,-53,99,209,228,218,202,216,210,209,184,200,206,185,200,94,92,92,96,95,95,95,94,98,96,95,98,121,214,169,0.07,0.99,78,0,0,0.03479502859708609,0.2424340729319721,0.9816055025650942,-1,0,170,5,0,0,0.1032345650984469
Autodromo Nazionale Monza,,"('Practice',)",Cadillac V-Series.R,1,6,Not Pacing,True,4,19:52.000516,True,101.098,3,5,04:44.000976,98.011,00:00.000000,0.0,39,0,69,11,1,1305,-35,99,209,228,218,202,216,210,209,184,200,206,185,200,94,92,92,96,95,95,95,94,98,96,95,98,121,214,169,0.07,0.99,78,0,0,0.038637930221635385,0.23318095309289585,1.0224289850357475,-1,0,169,4,0,0,0.10708099652374187
Autodromo Nazionale Monza,,"('Practice',)",Cadillac V-Series.R,1,6,Not Pacing,True,4,19:52.000799,True,101.098,3,5,04:45.000259,98.011,00:00.000000,0.0,40,0,0,13,1,1475,-12,99,209,228,218,202,216,210,209,184,200,206,185,200,94,92,92,96,95,95,95,94,98,96,95,98,121,214,169,0.07,0.99,78,0,0,0.00037534521260392775,0.23383265484606697,1.007276645858718,-1,0,168,1,0,0,0.10551652433645838
Autodromo Nazionale Monza,,"('Practice',)",Cadillac V-Series.R,1,6,Not Pacing,True,4,19:53.000066,True,101.098,3,5,04:45.000526,98.011,00:00.000000,0.0,40,0,0,14,1,1606,3,99,209,228,218,202,216,210,209,184,200,206,185,200,94,92,92,96,95,95,95,94,98,96,95,98,121,214,169,0.07,0.99,78,0,0,-0.0027904300271674883,0.22475413226206367,1.0540078539367115,-2,0,168,-1,0,-2,0.10997021494012986
Autodromo Nazionale Monza,,"('Practice',)",Cadillac V-Series.R,1,6,Not Pacing,True,4,19:53.000333,True,101.098,3,5,04:45.000792,98.011,00:00.000000,0.0,40,0,0,15,1,1755,5,99,209,228,218,202,216,210,209,184,200,206,185,200,94,92,92,96,95,95,95,94,98,96,95,98,121,214,169,0.07,0.99,78,0,0,-0.007624009758932753,0.22748770699223975,1.0317373713222118,-2,-1,168,-1,0,-1,0.10781088082355626
Autodromo Nazionale Monza,,"('Practice',)",Cadillac V-Series.R,1,6,Not Pacing,True,4,19:53.000583,True,101.098,3,5,04:46.000042,98.011,00:00.000000,0.0,41,0,0,16,1,1883,5,99,209,228,218,202,216,210,209,184,200,206,185,200,94,92,92,96,95,95,95,94,98,96,95,98,121,214,169,0.07,0.99,78,0,0,0.035409740230237546,0.2399498777165933,0.898222675381815,-2,-3,168,-1,0,0,0.09493820564658705
Autodromo Nazionale Monza,,"('Practice',)",Cadillac V-Series.R,1,6,Not Pacing,True,4,19:53.000849,True,101.098,3,5,04:46.000309,98.011,00:00.000000,0.0,44,0,0,18,1,2040,5,99,209,228,218,202,216,210,209,184,200,206,185,200,94,92,92,96,95,95,95,94,98,96,95,98,121,214,169,0.07,0.99,78,0,0,-0.0032136108532593516,0.23916470044492824,0.9843448129511997,-1,2,168,-1,-1,2,0.10336612768070133
Autodromo Nazionale Monza,,"('Practice',)",Cadillac V-Series.R,1,6,Not Pacing,True,4,19:54.000116,True,101.098,3,5,04:46.000576,98.011,00:00.000000,0.0,45,0,0,19,1,2187,8,99,209,228,218,202,216,210,209,184,200,206,185,200,94,92,92,96,95,95,95,94,98,96,95,98,121,214,169,0.07,0.99,78,0,0,-0.036372163852298904,0.23742011320092746,1.0452049830880976,-2,0,169,-2,-1,-2,0.1094334688370329
Autodromo Nazionale Monza,,"('Practice',)",Cadillac V-Series.R,1,6,Not Pacing,True,4,19:54.000366,True,101.098,3,5,04:46.000826,98.011,00:00.000000,0.0,45,0,0,20,1,2346,10,99,209,228,218,202,216,210,209,184,200,206,185,200,94,92,92,96,95,95,95,94,98,96,95,98,121,214,169,0.07,0.99,78,0,0,0.005009419509759372,0.24398797391994526,1.0387865896740212,-2,-2,169,-2,0,-2,0.10888442706267813
Autodromo Nazionale Monza,,"('Practice',)",Cadillac V-Series.R,1,6,Not Pacing,True,4,19:54.000633,True,101.098,3,5,04:47.000092,98.011,00:00.000000,0.0,45,0,0,22,1,2492,10,99,209,228,218,202,216,210,209,184,200,206,185,200,94,92,92,96,95,95,95,94,98,96,95,98,121,214,169,0.07,0.99,78,0,0,-0.015183608830886514,0.24559264518434482,1.0528032689770184,-2,-1,170,-3,0,1,0.11032405660031151
Autodromo Nazionale Monza,,"('Practice',)",Cadillac V-Series.R,1,6,Not Pacing,True,4,19:54.000883,True,101.098,3,5,04:47.000342,98.011,00:00.000000,0.0,45,0,0,23,1,2638,9,99,209,228,218,202,216,210,209,184,200,206,185,200,94,92,92,96,95,95,95,94,98,96,95,98,121,214,169,0.07,0.99,78,0,0,-0.022114696366585234,0.246825811209178,0.9733923349176342,-2,-2,170,-3,0,0,0.10249412974478775
Autodromo Nazionale Monza,,"('Practice',)",Cadillac V-Series.R,1,6,Not Pacing,True,4,19:55.000149,True,101.098,3,5,04:47.000609,98.011,00:00.000000,0.0,43,0,0,24,1,2797,8,99,209,228,218,202,216,210,209,184,200,206,185,200,94,92,92,96,95,95,95,94,98,96,95,98,121,214,169,0.07,0.99,78,0,0,-0.02287315331953867,0.23689513055799447,0.9812014790728429,-1,-2,171,-3,0,0,0.10302579844559308
Autodromo Nazionale Monza,,"('Practice',)",Cadillac V-Series.R,1,6,Not Pacing,True,4,19:55.000399,True,101.098,3,5,04:47.000859,98.011,00:00.000000,0.0,42,0,0,26,1,2930,8,99,209,228,218,202,216,210,209,184,200,206,185,200,94,92,92,96,95,95,95,94,98,96,95,98,121,214,169,0.07,0.99,78,0,0,-0.03051696749637615,0.2192545860671608,0.9939832424898759,-1,-1,172,-3,0,0,0.10391175337895556
Autodromo Nazionale Monza,,"('Practice',)",Cadillac V-Series.R,1,6,Not Pacing,True,4,19:55.000666,True,101.098,3,5,04:48.000126,98.011,00:00.000000,0.0,40,0,0,27,1,3070,8,99,209,228,218,202,216,210,209,184,200,206,185,200,94,92,92,96,95,95,95,94,98,96,95,98,121,214,169,0.07,0.99,78,0,0,-0.025833233294744615,0.20653324146640165,1.0026759693017429,-1,0,172,-3,0,-1,0.10449509887632998
Autodromo Nazionale Monza,,"('Practice',)",Cadillac V-Series.R,1,6,Not Pacing,True,4,19:55.000916,True,101.098,3,5,04:48.000376,98.011,00:00.000000,0.0,38,0,0,28,1,3187,8,99,209,228,218,202,216,210,209,184,200,206,185,200,94,92,92,96,95,95,95,94,98,96,95,98,121,213,169,0.07,0.99,78,0,0,-0.01822239154461813,0.19277787475897024,1.0114710629897743,-1,-1,173,-3,0,-1,0.10508564741458871
Autodromo Nazionale Monza,,"('Practice',)",Cadillac V-Series.R,1,6,Not Pacing,True,4,19:56.000183,True,101.098,3,5,04:48.000642,98.011,00:00.000000,0.0,36,0,0,29,1,3300,7,99,209,228,218,202,216,210,209,184,200,206,185,200,94,92,92,96,95,95,95,94,98,96,95,98,121,213,169,0.07,0.99,78,0,0,-0.03298056538802525,0.17001707862519586,1.0146173133033496,-2,-1,173,-3,0,-1,0.10502978580186609
Autodromo Nazionale Monza,,"('Practice',)",Cadillac V-Series.R,1,6,Not Pacing,True,5,19:56.000449,True,101.098,3,5,04:48.000909,98.011,00:00.000000,0.0,34,0,0,30,1,3402,7,99,209,228,218,202,216,210,209,184,200,206,185,200,94,92,92,96,95,95,95,94,98,96,95,98,121,213,169,0.07,0.99,78,0,0,0.011079266257242324,0.16224588458326614,0.9958487888845585,-2,-1,174,-3,0,0,0.10296324335799277
Autodromo Nazionale Monza,,"('Practice',)",Cadillac V-Series.R,1,6,Not Pacing,True,5,19:56.000699,True,101.098,3,5,04:49.000159,98.011,00:00.000000,0.0,34,0,0,31,1,3500,7,99,209,228,218,202,216,210,209,184,200,206,185,200,94,92,92,96,95,95,95,94,98,96,95,98,121,213,169,0.07,0.99,78,0,0,0.013071508218024483,0.15120279047710328,0.9793510981412958,-2,0,174,-3,0,1,0.10112660474613716
Autodromo Nazionale Monza,,"('Practice',)",Cadillac V-Series.R,1,6,Not Pacing,True,5,19:56.000966,True,101.098,3,5,04:49.000426,98.011,00:00.000000,0.0,34,0,0,32,1,3598,7,99,209,228,218,202,216,210,209,184,200,206,185,200,94,92,92,96,95,95,95,94,98,96,95,98,121,213,169,0.07,0.99,78,0,0,-0.017750074861003474,0.1562948256093063,1.0248365995230173,-2,-1,175,-3,-1,-1,0.10579980355282856
Autodromo Nazionale Monza,,"('Practice',)",Cadillac V-Series.R,1,6,Not Pacing,True,5,19:57.000233,True,101.098,3,5,04:49.000692,98.011,00:00.000000,0.0,34,0,0,33,1,3699,7,99,209,228,218,202,216,210,209,184,200,206,185,200,94,92,92,96,95,95,95,94,98,96,95,98,121,213,169,0.07,0.99,78,0,0,-0.034430109640387827,0.15554273772555632,0.9802181543317167,-2,0,176,-3,-1,0,0.1013346280850255
Autodromo Nazionale Monza,,"('Practice',)",Cadillac V-Series.R,1,6,Not Pacing,True,5,19:57.000516,True,101.098,3,5,04:49.000976,98.011,00:00.000000,0.0,34,0,0,34,1,3818,7,99,209,228,218,202,216,210,209,184,200,206,185,200,94,92,92,96,95,95,95,94,98,96,95,98,121,213,169,0.07,0.99,78,0,0,-0.012276442408197152,0.16212836439577932,1.0391930435289543,-3,0,176,-3,-1,-4,0.10733018120631463
Autodromo Nazionale Monza,,"('Practice',)",Cadillac V-Series.R,1,6,Not Pacing,True,5,19:57.000783,True,101.098,3,5,04:50.000242,98.011,00:00.000000,0.0,34,0,0,34,1,3918,6,99,209,228,218,202,216,210,209,184,200,206,185,200,94,92,92,96,95,95,95,94,98,96,95,98,121,213,169,0.07,0.99,78,0,0,-0.013691047159053012,0.15658507167260094,1.0149073041785626,-3,0,177,-3,-1,1,0.10479662209479065
Autodromo Nazionale Monza,,"('Practice',)",Cadillac V-Series.R,1,6,Not Pacing,True,5,19:58.000049,True,101.098,3,5,04:50.000509,98.011,00:00.000000,0.0,34,0,0,35,1,4018,5,99,209,228,218,202,216,210,209,184,200,206,185,200,94,92,92,96,95,95,95,94,98,96,95,98,121,213,169,0.07,0.99,78,0,0,-0.0008170454023324263,0.14983183504001565,1.0744925060524975,-3,-2,177,-3,-1,-1,0.11070297092176
Autodromo Nazionale Monza,,"('Practice',)",Cadillac V-Series.R,1,6,Not Pacing,True,5,19:58.000333,True,101.098,3,5,04:50.000792,98.011,00:00.000000,0.0,34,0,0,36,1,4118,2,99,209,228,218,202,216,210,209,184,200,206,185,200,94,92,92,96,95,95,95,94,98,96,95,98,121,213,169,0.07,0.99,78,0,0,0.03139369045436443,0.15493357947113315,1.0599496046215995,-3,-2,178,-1,0,-1,0.10935439362312353
Autodromo Nazionale Monza,,"('Practice',)",Cadillac V-Series.R,1,6,Not Pacing,True,5,19:58.000599,True,101.098,3,5,04:51.000059,98.011,00:00.000000,0.0,34,0,0,37,1,4216,-1,99,209,228,218,202,216,210,209,184,200,206,185,200,94,92,92,96,95,95,95,94,98,96,95,98,121,213,169,0.07,0.99,78,0,0,0.04254541569650477,0.1443725842583799,1.0332551814243576,-3,0,178,0,0,0,0.10654692508529925
Autodromo Nazionale Monza,,"('Practice',)",Cadillac V-Series.R,1,6,Not Pacing,True,5,19:58.000899,True,101.098,3,5,04:51.000359,98.011,00:00.000000,0.0,34,0,0,38,1,4329,-5,99,209,228,218,202,216,210,209,184,200,206,185,200,94,92,92,96,95,95,95,94,98,96,95,98,121,213,169,0.07,0.99,78,0,0,0.07695624344696449,0.16050164974185424,0.8998287562565701,-2,-1,178,1,0,-1,0.0935984556677617
Autodromo Nazionale Monza,,"('Practice',)",Cadillac V-Series.R,1,6,Not Pacing,True,5,19:59.000149,True,101.098,3,5,04:51.000609,98.011,00:00.000000,0.0,36,0,0,39,1,4435,-7,99,209,228,218,202,216,210,209,184,200,206,185,200,94,92,92,96,95,95,95,94,98,96,95,98,121,213,169,0.07,0.99,78,0,0,0.11884965663291627,0.17587268510482118,0.9049355315384393,-3,2,177,2,0,-1,0.09484663734506005
Autodromo Nazionale Monza,,"('Practice',)",Cadillac V-Series.R,1,6,Not Pacing,False,5,19:59.000416,True,101.098,3,5,04:51.000876,98.011,00:00.000000,0.0,40,0,0,40,1,4556,-7,99,209,228,218,202,216,210,209,184,200,206,185,200,94,92,92,96,95,95,95,94,98,96,95,98,121,213,169,0.07,0.99,78,0,0,0.12174039076592214,0.21009430608253593,0.9602074229389155,-3,2,177,2,0,0,0.10106464890154218
Autodromo Nazionale Monza,,"('Practice',)",Cadillac V-Series.R,1,6,Not Pacing,False,5,19:59.000666,True,101.098,3,5,04:52.000126,98.011,00:00.000000,0.0,44,0,0,41,1,4703,-6,99,209,228,218,202,216,210,209,184,200,206,185,200,94,92,92,96,95,95,95,94,98,96,95,98,121,213,169,0.07,0.99,78,0,0,0.1272248930158236,0.24453558323944743,0.9265181242994334,-3,-2,176,2,0,-1,0.09863814763240218
Autodromo Nazionale Monza,,"('Practice',)",Cadillac V-Series.R,1,6,Not Pacing,False,5,19:59.000933,True,101.098,3,5,04:52.000392,98.011,00:00.000000,0.0,46,0,0,43,1,4874,-6,99,209,228,218,202,216,210,209,184,200,206,185,200,94,92,92,96,95,95,95,94,98,96,95,98,121,213,169,0.07,0.99,78,0,0,0.0705754841990184,0.271451266655256,0.9690856350306706,-3,1,175,1,0,-2,0.10294465306545775
Autodromo Nazionale Monza,,"('Practice',)",Cadillac V-Series.R,1,6,Not Pacing,False,6,20:00.000199,True,101.098,3,5,04:52.000659,98.011,00:00.000000,0.0,48,0,0,44,1,5054,-5,99,209,228,218,202,216,210,209,184,200,206,185,200,94,92,92,96,95,95,95,94,98,96,95,98,121,213,169,0.07,0.99,78,0,0,0.1328661415068989,0.30349734847820253,1.030937587570828,-3,-4,175,1,0,-4,0.11049641694946127
Autodromo Nazionale Monza,,"('Practice',)",Cadillac V-Series.R,1,6,Not Pacing,False,6,20:00.000449,True,101.098,3,5,04:52.000909,98.011,00:00.000000,0.0,48,0,0,46,1,5246,-4,99,209,228,218,202,216,210,209,184,200,206,185,200,94,92,92,96,95,95,95,94,98,96,95,98,121,213,169,0.07,0.99,78,0,0,0.08940196061596106,0.2959605507651357,1.0276530982279024,-3,-2,174,1,0,-3,0.1095053552512501
Autodromo Nazionale Monza,,"('Practice',)",Cadillac V-Series.R,1,6,Not Pacing,False,6,20:00.000716,True,101.098,3,5,04:53.000176,98.011,00:00.000000,0.0,48,0,0,48,1,5439,-4,99,209,228,218,202,216,210,209,184,200,206,185,200,94,92,92,96,95,95,95,94,98,96,95,98,121,212,169,0.07,0.99,78,0,0,0.10721654337845081,0.31234505951829883,0.9267603828515724,-2,-3,174,1,0,-1,0.10039175816926599
Autodromo Nazionale Monza,,"('Practice',)",Cadillac V-Series.R,1,6,Not Pacing,False,6,20:00.000983,True,101.098,3,5,04:53.000442,98.011,00:00.000000,0.0,48,0,0,49,1,5466,-3,99,209,228,218,202,216,210,209,184,200,206,185,200,94,92,92,96,95,95,95,94,98,96,95,98,121,212,169,0.07,0.99,78,0,0,0.10778126245123408,-0.04311021679402856,1.1100886672522556,-2,-3,174,0,0,-1,0.11389200316500961
Autodromo Nazionale Monza,,"('Practice',)",Cadillac V-Series.R,1,6,Not Pacing,False,6,20:01.000249,True,101.098,3,5,04:53.000709,98.011,00:00.000000,0.0,48,0,0,49,1,5622,-1,99,209,228,218,202,216,210,209,184,200,206,185,200,94,92,92,96,95,95,95,94,98,96,95,98,121,212,169,0.07,0.99,78,0,0,0.004920835827954805,-0.029547313545335928,0.9787545899246324,-2,0,174,0,0,0,0.09991967857436745
Autodromo Nazionale Monza,,"('Practice',)",Cadillac V-Series.R,1,6,Not Pacing,False,6,20:01.000516,True,101.098,3,5,04:53.000976,98.011,00:00.000000,0.0,48,0,0,49,1,5476,0,99,209,228,218,202,216,210,209,184,200,206,185,200,94,92,92,96,95,95,95,94,98,96,95,98,121,212,169,0.07,0.99,78,0,0,-0.006010416025536991,-0.035250420842574154,0.9855507589139948,-2,0,174,-1,0,0,0.10063257937423217
Autodromo Nazionale Monza,,"('Practice',)",Cadillac V-Series.R,1,6,Not Pacing,False,6,20:01.000783,True,101.098,3,5,04:54.000242,98.011,00:00.000000,0.0,48,0,0,51,1,5782,1,99,209,228,218,202,216,210,209,184,200,206,185,200,94,92,92,96,95,95,95,94,98,96,95,98,121,212,169,0.07,0.99,78,0,0,-0.018385468880578525,0.34562063751842875,0.9777722373285789,-2,-1,174,-1,0,-1,0.10583901507471634
Autodromo Nazionale Monza,,"('Practice',)",Cadillac V-Series.R,1,6,Not Pacing,False,6,20:02.000049,True,101.098,3,5,04:54.000509,98.011,00:00.000000,0.0,52,0,0,53,1,5992,1,99,209,228,218,202,216,210,209,184,200,206,185,200,94,92,92,96,95,95,95,94,98,96,95,98,121,212,169,0.07,0.99,78,0,0,-0.02633626976265941,0.3538862280889388,0.9885821016799662,-1,-1,174,-1,0,1,0.10717801334288445
Autodromo Nazionale Monza,,"('Practice',)",Cadillac V-Series.R,1,6,Not Pacing,False,6,20:02.000299,True,101.098,3,5,04:54.000759,98.011,00:00.000000,0.0,55,0,0,55,1,6243,1,99,209,228,218,202,216,210,209,184,200,206,185,200,94,92,92,96,95,95,95,94,98,96,95,98,121,212,169,0.07,0.99,78,0,0,-0.022263783927357523,0.3946137598409079,1.065369216187892,-2,0,174,-1,0,-2,0.11595120539162844
Autodromo Nazionale Monza,,"('Practice',)",Cadillac V-Series.R,1,6,Not Pacing,False,7,20:02.000566,True,101.098,3,5,04:55.000026,98.011,00:00.000000,0.0,56,0,0,57,1,6503,2,99,209,228,218,202,216,210,209,184,200,206,185,200,94,92,92,96,95,95,95,94,98,96,95,98,121,212,170,0.07,0.99,78,0,0,-0.03515514758748745,0.4165914323594835,0.9442981716082122,-2,-1,174,-2,0,-1,0.10537824529584343
Autodromo Nazionale Monza,,"('Practice',)",Cadillac V-Series.R,1,6,Not Pacing,False,7,20:02.000833,True,101.098,3,5,04:55.000292,98.011,00:00.000000,0.0,58,0,0,60,1,6753,2,99,209,228,218,202,216,210,209,184,200,206,185,200,94,92,92,96,95,95,95,94,98,96,95,98,121,212,170,0.07,0.99,78,0,0,-0.05912732762055781,0.43237712405143525,0.9994399899979493,-2,2,175,-2,0,1,0.11128187584753121
Autodromo Nazionale Monza,,"('Practice',)",Cadillac V-Series.R,1,6,Not Pacing,False,7,20:03.000083,True,101.098,3,5,04:55.000542,98.011,00:00.000000,0.0,61,0,0,62,1,7084,0,99,209,228,218,202,216,210,209,184,200,206,185,200,94,92,92,96,95,95,95,94,98,96,95,98,121,212,170,0.07,0.99,78,0,0,-0.019770218144863023,0.5011125442084916,0.9533077204993011,-1,-1,175,-2,0,-1,0.1099155450585791
Autodromo Nazionale Monza,,"('Practice',)",Cadillac V-Series.R,1,6,Not Pacing,False,7,20:03.000349,True,101.098,3,5,04:55.000809,98.011,00:00.000000,0.0,66,0,0,65,1,7446,-2,99,209,228,218,202,216,210,209,184,200,206,185,200,94,92,92,96,95,95,95,94,98,96,95,98,121,213,170,0.07,0.99,78,0,0,0.04204046531797792,0.5477485306766054,1.0255397520541658,-1,-1,175,0,0,-2,0.11871551699628859
Autodromo Nazionale Monza,,"('Practice',)",Cadillac V-Series.R,1,6,Not Pacing,False,7,20:03.000616,True,101.098,3,5,04:56.000076,98.011,00:00.000000,0.0,66,0,0,68,1,7735,-2,99,209,228,218,202,216,210,209,184,200,206,185,200,94,92,92,96,95,95,95,94,98,96,95,98,121,213,171,0.07,0.99,78,0,0,0.034335532076618845,0.49842621572885304,1.1323636217340902,-1,0,175,0,0,1,0.12629400990504588
Autodromo Nazionale Monza,,"('Practice',)",Cadillac V-Series.R,1,6,Not Pacing,False,7,20:03.000883,True,101.098,3,5,04:56.000342,98.011,00:00.000000,0.0,69,0,0,71,1,8085,-1,99,209,228,218,202,216,210,209,184,200,206,185,200,94,92,92,96,95,95,95,94,98,96,95,98,121,213,171,0.07,0.99,78,0,0,0.05490699674740479,0.5215987517563939,1.008908488577902,-1,-3,175,0,0,0,0.1160297132686524
Autodromo Nazionale Monza,,"('Practice',)",Cadillac V-Series.R,1,6,Not Pacing,False,7,20:04.000133,True,101.098,3,5,04:56.000592,98.011,00:00.000000,0.0,73,0,0,74,1,8421,-1,99,209,228,218,202,216,210,209,184,200,206,185,200,94,92,92,96,95,95,95,94,98,96,95,98,121,213,171,0.07,0.99,78,0,0,0.04852675698948198,0.5326200090538592,1.0246239913955983,-1,-4,175,0,0,0,0.11793964088218668
Autodromo Nazionale Monza,,"('Practice',)",Cadillac V-Series.R,1,6,Not Pacing,False,7,20:04.000399,True,101.098,3,5,04:56.000859,98.011,00:00.000000,0.0,80,0,0,77,2,7072,-1,99,209,228,218,202,216,210,209,184,200,206,185,200,94,92,92,96,95,95,95,94,98,96,95,98,121,213,172,0.07,0.99,78,0,0,0.011609983796616456,0.538560155699377,1.0586611235421246,-1,-5,175,-1,0,2,0.12120736185645863
Autodromo Nazionale Monza,,"('Practice',)",Cadillac V-Series.R,1,6,Not Pacing,False,8,20:04.000666,True,101.098,3,5,04:57.000126,98.011,00:00.000000,0.0,85,0,0,81,2,7380,0,99,209,228,218,202,216,210,209,184,200,206,185,200,94,92,92,96,95,95,95,94,98,96,95,98,121,213,172,0.07,0.99,78,0,0,-0.026415818571193742,0.6000204795969614,0.9693823337068859,0,0,175,-1,0,-2,0.11636342416694485
Autodromo Nazionale Monza,,"('Practice',)",Cadillac V-Series.R,1,6,Not Pacing,False,8,20:04.000916,True,101.098,3,5,04:57.000376,98.011,00:00.000000,0.0,89,0,0,84,2,7717,0,99,209,228,218,202,216,210,209,184,200,206,185,200,94,92,92,96,95,95,95,94,98,96,95,98,121,213,172,0.07,0.99,78,0,0,-0.04637954067381879,0.6149562734590271,1.0451229340439543,0,-1,175,-1,0,-2,0.12382745462367974
Autodromo Nazionale Monza,,"('Practice',)",Cadillac V-Series.R,1,6,Not Pacing,False,8,20:05.000183,True,101.098,3,5,04:57.000642,98.011,00:00.000000,0.0,94,0,0,88,2,8054,2,99,209,228,218,202,216,210,209,184,200,206,185,200,94,92,92,96,95,95,95,94,98,96,95,98,121,213,173,0.07,0.99,78,0,0,-0.12354768136711781,0.6904907790406641,0.9205401126033304,0,3,176,-2,0,2,0.11809590817609893
Autodromo Nazionale Monza,,"('Practice',)",Cadillac V-Series.R,1,6,Not Pacing,False,8,20:05.000449,True,101.098,3,5,04:57.000909,98.011,00:00.000000,0.0,97,0,0,92,2,8376,1,99,209,228,218,202,216,210,209,184,200,206,185,200,94,92,92,96,95,95,95,94,98,96,95,98,121,214,174,0.07,0.99,78,0,0,-0.13230960060454047,0.6775260579209322,0.9303713185099408,0,-1,176,-2,0,-1,0.11821498726505371
Autodromo Nazionale Monza,,"('Practice',)",Cadillac V-Series.R,1,6,Not Pacing,False,8,20:05.000699,True,101.098,3,5,04:58.000159,98.011,00:00.000000,0.0,100,0,0,95,3,7352,2,99,209,228,218,202,216,210,209,184,200,206,185,200,94,92,92,96,95,95,95,94,98,96,95,98,121,214,174,0.07,0.99,78,0,0,-0.1398440894730594,0.5583732013916264,1.070906651737007,0,1,177,-2,0,0,0.1240615777515881
Autodromo Nazionale Monza,,"('Practice',)",Cadillac V-Series.R,1,6,Not Pacing,False,9,20:05.000966,True,101.098,3,5,04:58.000426,98.011,00:00.000000,0.0,100,0,0,99,3,7612,2,99,209,228,218,202,216,210,209,184,200,206,185,200,94,92,92,96,95,95,95,94,98,96,95,98,121,214,175,0.07,0.99,78,0,0,-0.15600618358538176,0.6018473832250005,0.974479679181549,0,-1,177,-3,0,-2,0.11795180610135722
Autodromo Nazionale Monza,,"('Practice',)",Cadillac V-Series.R,1,6,Not Pacing,False,9,20:06.000233,True,101.098,3,5,04:58.000692,98.011,00:00.000000,0.0,100,0,0,102,3,7862,2,99,209,228,218,202,216,210,209,184,200,206,185,200,94,92,92,96,95,95,95,94,98,96,95,98,121,214,175,0.07,0.99,78,0,0,-0.1662580002095478,0.5888147577719343,1.0540941804191752,0,1,177,-2,0,-1,0.12436674592785231
Autodromo Nazionale Monza,,"('Practice',)",Cadillac V-Series.R,1,6,Not Pacing,False,9,20:06.000483,True,101.098,3,5,04:58.000942,98.011,00:00.000000,0.0,100,0,0,105,3,8152,0,99,209,228,218,202,216,210,209,184,200,206,185,200,94,92,92,96,95,95,95,94,98,96,95,98,121,214,176,0.07,0.99,78,0,0,-0.17252750960572658,0.5650512547546449,0.9337974493899719,0,-2,178,-3,0,0,0.11275516384511047
Autodromo Nazionale Monza,,"('Practice',)",Cadillac V-Series.R,1,6,Not Pacing,False,9,20:06.000749,True,101.098,3,5,04:59.000209,98.011,00:00.000000,0.0,100,0,0,108,3,8332,1,99,209,228,218,202,216,210,209,184,200,206,185,200,94,92,92,96,95,95,95,94,98,96,95,98,121,214,176,0.07,0.99,78,0,0,-0.1024806171382239,0.5353618470171541,1.1370883440023531,0,-1,178,-2,0,-2,0.1286719920207094
Autodromo Nazionale Monza,,"('Practice',)",Cadillac V-Series.R,1,6,Not Pacing,False,9,20:07.000016,True,101.098,3,5,04:59.000476,98.011,00:00.000000,0.0,100,0,0,111,4,7071,0,99,209,228,218,202,216,210,209,184,200,206,185,200,94,92,92,96,95,95,95,94,98,96,95,98,121,214,177,0.07,0.99,78,0,0,-0.09711733530299257,-0.23709143095181742,1.2181644653569181,0,0,178,-1,0,0,0.1270221192743136
Autodromo Nazionale Monza,,"('Practice',)",Cadillac V-Series.R,1,6,Not Pacing,False,10,20:07.000283,True,101.098,3,5,04:59.000742,98.011,00:00.000000,0.0,100,0,0,114,4,7346,1,99,209,228,218,202,216,210,209,184,200,206,185,200,94,92,92,96,95,95,95,94,98,96,95,98,121,214,177,0.07,0.99,78,0,0,-0.06664503483475773,0.4180888760223544,1.1215728114261296,0,-6,179,-3,-1,0,0.12232840322955997
Autodromo Nazionale Monza,,"('Practice',)",Cadillac V-Series.R,1,6,Not Pacing,False,10,20:07.000533,True,101.098,3,5,04:59.000992,98.011,00:00.000000,0.0,100,0,0,116,4,7526,-3,99,209,228,218,202,216,210,209,184,200,206,185,200,94,92,92,96,95,95,95,94,98,96,95,98,121,214,178,0.07,0.99,78,0,0,0.08137359774683836,0.4516734746374972,0.8746571011013454,0,1,179,1,0,-3,0.10079110414312198
Autodromo Nazionale Monza,,"('Practice',)",Cadillac V-Series.R,1,6,Not Pacing,False,10,20:07.000799,True,101.098,3,5,05:00.000259,98.011,00:00.000000,0.0,100,0,0,119,4,7675,-1,99,209,228,218,202,216,210,209,184,200,206,185,200,94,92,92,96,95,95,95,94,98,96,95,98,121,214,178,0.07,0.99,78,0,0,0.15599751934242054,0.4732591782627241,0.8882157056460444,0,1,178,0,0,1,0.10392327967889087
Autodromo Nazionale Monza,,"('Practice',)",Cadillac V-Series.R,1,6,Not Pacing,False,10,20:08.000066,True,101.098,3,5,05:00.000526,98.011,00:00.000000,0.0,100,0,0,122,4,7858,0,99,209,228,218,202,216,210,209,184,200,206,185,200,94,92,92,96,95,95,95,94,98,96,95,98,121,215,179,0.07,0.99,78,0,0,-0.02372123293434322,0.4123329508681302,0.8710003774100487,0,2,178,0,0,-2,0.09836347358323712
Autodromo Nazionale Monza,,"('Practice',)",Cadillac V-Series.R,1,6,Not Pacing,False,11,20:08.000333,True,101.098,3,5,05:00.000792,98.011,00:00.000000,0.0,100,0,0,124,4,7979,-1,99,209,228,218,202,216,210,209,184,200,206,185,200,94,92,92,96,95,95,95,94,98,96,95,98,121,215,179,0.07,0.99,78,0,0,0.0388162428936584,0.42362791561083935,0.8591327220049594,-1,2,178,0,0,-2,0.09782496894085903
Autodromo Nazionale Monza,,"('Practice',)",Cadillac V-Series.R,1,6,Not Pacing,False,11,20:08.000599,True,101.098,3,5,05:01.000059,98.011,00:00.000000,0.0,100,0,0,127,4,8144,0,99,209,228,218,202,216,210,209,184,200,206,185,200,94,92,92,96,95,95,95,94,98,96,95,98,121,215,180,0.07,0.99,78,0,0,-0.08765420782456704,0.41206711779797595,1.0098533163741459,-1,0,178,-2,0,-4,0.11165365108224296
Autodromo Nazionale Monza,,"('Practice',)",Cadillac V-Series.R,1,6,Not Pacing,False,11,20:08.000866,True,101.098,3,5,05:01.000326,98.011,00:00.000000,0.0,100,0,0,129,4,8289,-1,99,209,228,218,202,216,210,209,184,200,206,185,200,94,92,92,96,95,95,95,94,98,96,95,98,121,215,180,0.07,0.99,78,0,0,0.026749519519242062,0.40150050844742735,1.0203182636537076,-1,-3,178,0,0,0,0.11191824241121995
Autodromo Nazionale Monza,,"('Practice',)",Cadillac V-Series.R,1,6,Not Pacing,False,11,20:09.000133,True,101.098,3,5,05:01.000592,98.011,00:00.000000,0.0,100,0,0,131,5,6758,0,99,209,228,218,202,216,210,209,184,200,206,185,200,94,92,92,96,95,95,95,94,98,96,95,98,121,215,181,0.07,0.99,78,0,0,0.03102707935764884,0.6866316547452127,1.006946602606506,-1,-5,178,-1,0,0,0.12440475388411444
Autodromo Nazionale Monza,,"('Practice',)",Cadillac V-Series.R,1,6,Not Pacing,False,12,20:09.000399,True,101.098,3,5,05:01.000859,98.011,00:00.000000,0.0,100,0,0,133,5,7308,0,99,209,228,218,202,216,210,209,184,200,206,185,200,94,92,92,96,95,95,95,94,98,96,95,98,121,215,181,0.07,0.99,78,0,0,-0.031710658355347365,0.33417554927285414,1.099030128191249,-1,-2,178,-1,0,-2,0.11726022023186573
Autodromo Nazionale Monza,,"('Practice',)",Cadillac V-Series.R,1,6,Not Pacing,False,12,20:09.000649,True,101.098,3,5,05:02.000109,98.011,00:00.000000,0.0,100,0,0,135,5,7420,1,99,209,228,218,202,216,210,209,184,200,206,185,200,94,92,92,96,95,95,95,94,98,96,95,98,121,215,182,0.07,0.99,78,0,0,-0.1024083138484352,0.288531320904373,0.8064008026434133,-1,1,178,-2,0,3,0.08801693499206956
Autodromo Nazionale Monza,,"('Practice',)",Cadillac V-Series.R,1,6,Not Pacing,False,12,20:09.000916,True,101.098,3,5,05:02.000376,98.011,00:00.000000,0.0,100,0,0,137,5,7510,1,99,209,228,218,202,216,210,209,184,200,206,185,200,94,92,92,96,95,95,95,94,98,96,95,98,121,215,182,0.07,0.99,78,0,0,-0.22839756186949003,0.32216027363846184,1.1221344196346799,-1,2,179,-2,0,-1,0.12138733410178064
Autodromo Nazionale Monza,,"('Practice',)",Cadillac V-Series.R,1,6,Not Pacing,False,12,20:10.000166,True,101.098,3,5,05:02.000626,98.011,00:00.000000,0.0,100,0,0,138,5,7594,0,99,209,228,218,202,216,210,209,184,200,206,185,200,94,92,92,96,95,95,95,94,98,96,95,98,121,215,182,0.07,0.99,78,0,0,-0.0007099970400515682,0.31723152242304714,1.0099679322782276,-1,1,179,-1,0,0,0.10802222066637358
Autodromo Nazionale Monza,,"('Practice',)",Cadillac V-Series.R,1,6,Not Pacing,False,13,20:10.000433,True,101.098,3,5,05:02.000892,98.011,00:00.000000,0.0,100,0,0,140,5,7702,-1,99,209,228,218,202,216,210,209,184,200,206,185,200,94,92,92,96,95,95,95,94,98,96,95,98,121,215,183,0.07,0.99,78,0,0,0.07193414807684195,0.36717975297591493,0.755464824089338,-1,6,179,1,0,-5,0.086024862080649
Autodromo Nazionale Monza,,"('Practice',)",Cadillac V-Series.R,1,6,Not Pacing,False,13,20:10.000699,True,101.098,3,5,05:03.000159,98.011,00:00.000000,0.0,100,0,0,142,5,7786,-1,99,209,228,218,202,216,210,209,184,200,206,185,200,94,92,92,96,95,95,95,94,98,96,95,98,121,215,183,0.07,0.99,78,0,0,0.17854241420734182,0.2525655987551939,1.2072062516674231,-1,1,179,0,0,-4,0.12716323539520874
Autodromo Nazionale Monza,,"('Practice',)",Cadillac V-Series.R,1,6,Not Pacing,False,13,20:10.000949,True,101.098,3,5,05:03.000409,98.011,00:00.000000,0.0,56,48,0,143,5,7780,-5,99,209,228,218,202,216,210,209,184,200,206,185,200,94,92,92,96,95,95,95,94,98,96,95,98,121,215,184,0.07,0.99,78,0,0,0.44837333375889954,-0.4126285801847654,1.0310406349485437,-1,1,178,4,0,-2,0.12220834273916284
Autodromo Nazionale Monza,,"('Practice',)",Cadillac V-Series.R,1,6,Not Pacing,False,14,20:11.000233,True,101.098,3,5,05:03.000692,98.011,00:00.000000,0.0,0,73,0,133,5,7156,-5,99,209,228,218,202,216,210,209,184,200,206,185,200,94,92,92,96,95,95,95,94,98,96,95,98,121,215,183,0.07,0.99,78,0,0,0.8576502007689558,-1.943017218820181,1.1740394810045651,-1,1,177,8,-1,-5,0.24763034553684596
Autodromo Nazionale Monza,,"('Practice',)",Cadillac V-Series.R,1,6,Not Pacing,False,14,20:11.000516,True,101.098,3,5,05:03.000976,98.011,00:00.000000,0.0,0,72,0,121,5,6542,-3,99,209,228,218,202,216,210,209,184,200,206,185,200,94,92,92,96,95,95,95,94,98,96,95,98,121,215,182,0.07,0.99,78,0,0,0.5066668464746193,-1.8247827963483927,1.1114315884558068,-1,-5,176,4,-1,-1,0.22406787165896203
Autodromo Nazionale Monza,,"('Practice',)",Cadillac V-Series.R,1,6,Not Pacing,False,14,20:11.000783,True,101.098,3,5,05:04.000242,98.011,00:00.000000,0.0,0,65,0,111,4,7013,-2,99,209,228,218,202,216,210,209,184,200,206,185,200,94,92,92,96,95,95,95,94,98,96,95,98,121,215,182,0.07,0.99,78,0,0,0.22940378062708053,-1.668644826346581,1.0181462971320818,0,-1,175,1,0,0,0.2008318688356366
Autodromo Nazionale Monza,,"('Practice',)",Cadillac V-Series.R,1,6,Not Pacing,False,14,20:12.000033,True,101.098,3,5,05:04.000492,98.011,00:00.000000,0.0,0,62,0,102,3,7707,-1,99,209,228,218,202,216,210,209,184,200,206,185,200,94,92,92,96,95,95,95,94,98,96,95,98,121,215,182,0.07,0.99,78,0,0,0.07635317325105968,-1.8828517435522982,1.0586615124001537,0,1,174,0,-1,0,0.22055278449535584
Autodromo Nazionale Monza,,"('Practice',)",Cadillac V-Series.R,1,6,Not Pacing,False,15,20:12.000299,True,101.098,3,5,05:04.000759,98.011,00:00.000000,0.0,0,64,0,93,3,6923,3,99,209,228,218,202,216,210,209,184,200,206,185,200,94,92,92,96,95,95,95,94,98,96,95,98,121,215,181,0.07,0.99,78,0,0,-0.17600066800365388,-1.570137754978876,0.9247433762545493,0,-1,175,-4,-1,1,0.18680602843658695
Autodromo Nazionale Monza,,"('Practice',)",Cadillac V-Series.R,1,6,Not Pacing,False,15,20:12.000566,True,101.098,3,5,05:05.000026,98.011,00:00.000000,0.0,0,56,0,84,2,7203,6,99,209,228,218,202,216,210,209,184,200,206,185,200,94,92,92,96,95,95,95,94,98,96,95,98,121,215,181,0.07,0.99,78,0,0,-0.3236379584527283,-1.481466361385116,0.9113751177151025,0,0,176,-8,-1,1,0.18053119111904434
Autodromo Nazionale Monza,,"('Practice',)",Cadillac V-Series.R,1,6,Not Pacing,False,15,20:12.000833,True,101.098,3,5,05:05.000292,98.011,00:00.000000,0.0,0,50,0,76,2,6748,7,99,209,228,218,202,216,210,209,184,200,206,185,200,94,92,92,96,95,95,95,94,98,96,95,98,121,215,180,0.07,0.99,78,0,0,-0.4006537214817743,-1.2877221258165397,1.0093869783827287,0,0,177,-7,-1,-2,0.17188998126699384
Autodromo Nazionale Monza,,"('Practice',)",Cadillac V-Series.R,1,6,Not Pacing,False,15,20:13.000083,True,101.098,3,5,05:05.000542,98.011,00:00.000000,0.0,75,52,0,69,N,7021,9,99,209,228,218,202,216,210,209,184,200,206,185,200,94,92,92,96,95,95,95,94,98,96,95,98,121,215,180,0.07,0.99,78,0,0,-0.4257869039957433,-1.1902188914509966,0.9716343077680021,0,2,179,-7,0,-2,0.1626899532206432
Autodromo Nazionale Monza,,"('Practice',)",Cadillac V-Series.R,1,6,Not Pacing,False,15,20:13.000349,True,101.098,3,5,05:05.000809,98.011,00:00.000000,0.0,0,50,0,61,1,6618,26,99,209,228,218,202,216,210,209,184,200,206,185,200,94,92,92,96,95,95,95,94,98,96,95,98,121,215,180,0.07,0.99,78,0,0,-0.8517280874145383,-1.3117938960364104,0.9706630376257784,0,1,-178,-19,0,0,0.1878335764680888
Autodromo Nazionale Monza,,"('Practice',)",Cadillac V-Series.R,1,6,Not Pacing,False,15,20:13.000616,True,101.098,3,5,05:06.000076,98.011,00:00.000000,0.0,0,38,0,54,1,5872,47,99,209,228,218,202,216,210,209,184,200,206,185,200,94,92,92,96,95,95,95,94,98,96,95,98,121,215,180,0.07,0.99,78,0,0,-1.282187898346165,-1.156533578606313,1.0163337326438662,0,-3,-172,-30,-1,-1,0.20445145016095753
Autodromo Nazionale Monza,,"('Practice',)",Cadillac V-Series.R,1,6,Not Pacing,False,15,20:13.000866,True,101.098,3,5,05:06.000326,98.011,00:00.000000,0.0,0,25,0,48,1,5267,62,99,209,228,218,202,216,210,209,184,200,206,185,200,94,92,92,96,95,95,95,94,98,96,95,98,121,215,179,0.07,0.99,78,0,0,-1.3407112261570922,-0.8294768532724798,0.8879274646319623,0,5,-164,-36,-1,0,0.18463336545369283
Autodromo Nazionale Monza,,"('Practice',)",Cadillac V-Series.R,1,6,Not Pacing,False,16,20:14.000133,True,101.098,3,5,05:06.000592,98.011,00:00.000000,0.0,0,10,0,44,1,4911,86,99,209,228,218,202,216,210,209,184,200,206,185,200,94,92,92,96,95,95,95,94,98,96,95,98,121,215,179,0.07,0.99,78,0,0,-1.4075226740005913,-0.4833502385472911,0.9075059803254013,0,1,-154,-38,-1,0,0.1778649182575664
Autodromo Nazionale Monza,,"('Practice',)",Cadillac V-Series.R,1,6,Not Pacing,False,16,20:14.000449,True,101.098,3,5,05:06.000909,98.011,00:00.000000,0.0,0,0,0,41,1,4637,132,99,209,228,218,202,216,210,209,184,200,206,185,200,94,92,92,96,95,95,95,94,98,96,95,98,121,215,179,0.07,0.99,78,0,0,-1.7351492707760934,-0.37490308102482317,1.1368696113609758,-1,-4,-141,-51,-1,-2,0.2151045537085716
Autodromo Nazionale Monza,,"('Practice',)",Cadillac V-Series.R,1,6,Not Pacing,False,16,20:14.000716,True,101.098,3,5,05:07.000176,98.011,00:00.000000,0.0,5,0,0,39,1,4420,152,99,209,228,218,202,216,210,209,184,200,206,185,200,94,92,92,96,95,95,95,94,98,96,95,98,121,215,179,0.07,0.99,78,0,0,-1.5592466192994034,-0.31998089451065603,0.938967997388616,0,1,-127,-45,0,4,0.18857680365960164
Autodromo Nazionale Monza,,"('Practice',)",Cadillac V-Series.R,1,6,Not Pacing,False,16,20:14.000983,True,101.098,3,5,05:07.000442,98.011,00:00.000000,0.0,30,0,0,39,1,4466,121,99,209,228,218,202,216,210,209,184,200,206,185,200,94,92,92,96,95,95,95,94,98,96,95,98,121,215,179,0.07,0.99,78,0,0,-1.5136439744364107,-0.07684527916281231,1.0424889069692318,0,-1,-114,-49,-1,0,0.1877053616298189
Autodromo Nazionale Monza,,"('Practice',)",Cadillac V-Series.R,1,6,Not Pacing,False,16,20:15.000249,True,101.098,3,5,05:07.000709,98.011,00:00.000000,0.0,53,0,0,40,1,4585,35,99,209,228,218,202,216,210,209,184,200,206,185,200,94,92,92,96,95,95,95,94,98,96,95,98,121,215,179,0.07,0.99,78,0,0,-0.6890392206252289,0.34137309265914434,1.0158414383790058,0,0,-103,-20,0,-1,0.13000674636803192
Autodromo Nazionale Monza,,"('Practice',)",Cadillac V-Series.R,1,6,Not Pacing,False,16,20:15.000516,True,101.098,3,5,05:07.000976,98.011,00:00.000000,0.0,27,0,0,42,1,4648,-67,99,209,228,218,202,216,210,209,184,200,206,185,200,94,92,92,96,95,95,95,94,98,96,95,98,121,215,179,0.07,0.99,78,0,0,1.0055773362714824,0.12745176737218578,1.0447811278363615,0,-3,-103,20,0,0,0.14853853279127088
Autodromo Nazionale Monza,,"('Practice',)",Cadillac V-Series.R,1,6,Not Pacing,False,16,20:15.000783,True,101.098,3,5,05:08.000242,98.011,00:00.000000,0.0,0,0,0,41,1,4561,-118,99,209,228,218,202,216,210,209,184,200,206,185,200,94,92,92,96,95,95,95,94,98,96,95,98,121,215,178,0.07,0.99,78,0,0,1.555095462624086,-0.3143115388751637,1.011360044022462,0,-2,-113,45,-1,0,0.19198764092759255
Autodromo Nazionale Monza,,"('Practice',)",Cadillac V-Series.R,1,6,Not Pacing,False,16,20:16.000033,True,101.098,3,5,05:08.000492,98.011,00:00.000000,0.0,0,0,0,39,1,4352,-119,99,209,228,218,202,216,210,209,184,200,206,185,200,94,92,92,96,95,95,95,94,98,96,95,98,121,215,178,0.07,0.99,78,0,0,1.6173608684637009,-0.31901954024817475,1.0255146707112879,0,1,-126,50,-1,0,0.1981092946991857
Autodromo Nazionale Monza,,"('Practice',)",Cadillac V-Series.R,1,6,Not Pacing,False,16,20:16.000299,True,101.098,3,5,05:08.000759,98.011,00:00.000000,0.0,30,0,0,38,1,4366,-109,99,209,228,218,202,216,210,209,184,200,206,185,200,94,92,92,96,95,95,95,94,98,96,95,98,121,215,178,0.07,0.99,78,0,0,1.2066890704886992,0.22401768376217218,0.9197864085283969,0,-2,-138,43,-1,-2,0.15650178914008106
Autodromo Nazionale Monza,,"('Practice',)",Cadillac V-Series.R,1,6,Not Pacing,False,16,20:16.000583,True,101.098,3,5,05:09.000042,98.011,00:00.000000,0.0,42,0,0,39,1,4591,-114,99,209,228,218,202,216,210,209,184,200,206,185,200,94,92,92,96,95,95,95,94,98,96,95,98,121,214,178,0.07,0.99,78,0,0,1.362798459425371,0.317008147788947,1.0483964381475575,0,5,-151,47,0,-5,0.17840659734561184
Autodromo Nazionale Monza,,"('Practice',)",Cadillac V-Series.R,1,6,Not Pacing,False,16,20:16.000849,True,101.098,3,5,05:09.000309,98.011,00:00.000000,0.0,51,0,0,40,1,4755,-92,99,209,228,218,202,216,210,209,184,200,206,185,200,94,92,92,96,95,95,95,94,98,96,95,98,121,214,178,0.07,0.99,78,0,0,1.2415158760778522,0.2916517121590119,1.0710433353342412,-1,0,-162,39,0,0,0.1699387466491612
Autodromo Nazionale Monza,,"('Practice',)",Cadillac V-Series.R,1,6,Not Pacing,False,16,20:17.000116,True,101.098,3,5,05:09.000576,98.011,00:00.000000,0.0,54,0,0,42,1,4944,-81,99,209,228,218,202,216,210,209,184,200,206,185,200,94,92,92,96,95,95,95,94,98,96,95,98,121,214,178,0.07,0.99,78,0,0,1.2289995082656906,0.3159543182264166,0.9507559368977366,-1,-5,-172,33,0,1,0.16179837715102058
Autodromo Nazionale Monza,,"('Practice',)",Cadillac V-Series.R,1,6,Not Pacing,False,17,20:17.000383,True,101.098,3,5,05:09.000842,98.011,00:00.000000,0.0,62,0,0,45,1,5183,-56,99,209,228,218,202,216,210,209,184,200,206,185,200,94,92,92,96,95,95,95,94,98,96,95,98,121,214,178,0.07,0.99,78,0,0,1.0107627580897403,0.4448850342014635,1.0345380240624102,0,-4,-180,26,0,-1,0.1544101434469184
Autodromo Nazionale Monza,,"('Practice',)",Cadillac V-Series.R,1,6,Not Pacing,False,17,20:17.000649,True,101.098,3,5,05:10.000109,98.011,00:00.000000,0.0,71,0,0,48,1,5577,-41,99,209,228,218,202,216,210,209,184,200,206,185,200,94,92,92,96,95,95,95,94,98,96,95,98,121,214,178,0.07,0.99,78,0,0,0.9204959772170258,0.6350105083438355,1.0684804692788468,-1,1,173,23,0,-1,0.15782391847933203
Autodromo Nazionale Monza,,"('Practice',)",Cadillac V-Series.R,1,6,Not Pacing,False,17,20:17.000916,True,101.098,3,5,05:10.000376,98.011,00:00.000000,0.0,75,0,0,52,1,6051,-24,99,209,228,218,202,216,210,209,184,200,206,185,200,94,92,92,96,95,95,95,94,98,96,95,98,121,214,179,0.07,0.99,78,0,0,0.6247219081804779,0.7165700288358449,0.9797555104915762,-1,-3,168,15,0,0,0.13930238104384388
Autodromo Nazionale Monza,,"('Practice',)",Cadillac V-Series.R,1,6,Not Pacing,False,17,20:18.000183,True,101.098,3,5,05:10.000642,98.011,00:00.000000,0.0,82,0,0,56,1,6600,-17,99,209,228,218,202,216,210,209,184,200,206,185,200,94,92,92,96,95,95,95,94,98,96,95,98,121,214,179,0.07,0.99,78,0,0,0.5380200805041889,0.8480524068943222,0.9538129442936297,0,-3,164,11,0,2,0.14133362630706411
Autodromo Nazionale Monza,,"('Practice',)",Cadillac V-Series.R,1,6,Not Pacing,False,17,20:18.000449,True,101.098,3,5,05:10.000909,98.011,00:00.000000,0.0,88,0,0,61,1,7175,-8,99,209,228,218,202,216,210,209,184,200,206,185,200,94,92,92,96,95,95,95,94,98,96,95,98,121,214,179,0.07,0.99,78,0,0,0.48510009967831175,0.9130220286829148,1.181686957434169,0,-2,161,8,0,-1,0.16021758024952856
Autodromo Nazionale Monza,,"('Practice',)",Cadillac V-Series.R,1,6,Not Pacing,False,17,20:18.000716,True,101.098,3,5,05:11.000176,98.011,00:00.000000,0.0,97,0,0,67,1,7893,-1,99,209,228,218,202,216,210,209,184,200,206,185,200,94,92,92,96,95,95,95,94,98,96,95,98,121,214,180,0.07,0.99,78,0,0,0.26209332527370627,1.043485452883348,0.8940102735669119,-1,-2,159,2,0,-1,0.1427408116279297
Autodromo Nazionale Monza,,"('Practice',)",Cadillac V-Series.R,1,6,Not Pacing,False,17,20:18.000983,True,101.098,3,5,05:11.000442,98.011,00:00.000000,0.0,100,0,0,72,1,8502,1,99,209,228,218,202,216,210,209,184,200,206,185,200,94,92,92,96,95,95,95,94,98,96,95,98,121,215,181,0.07,0.99,78,0,0,0.061963828210315444,1.052704207394101,0.971576756779693,-1,1,159,0,0,0,0.1463134034254249
Autodromo Nazionale Monza,,"('Practice',)",Cadillac V-Series.R,1,6,Not Pacing,False,17,20:19.000249,True,101.098,3,5,05:11.000709,98.011,00:00.000000,0.0,100,0,0,77,2,7261,1,99,209,228,218,202,216,210,209,184,200,206,185,200,94,92,92,96,95,95,95,94,98,96,95,98,121,215,181,0.07,0.99,78,0,0,-0.009114824607588586,0.8177353822978386,1.0940211507037023,-1,-3,159,-1,0,-4,0.13937656877142424
Autodromo Nazionale Monza,,"('Practice',)",Cadillac V-Series.R,1,6,Not Pacing,False,18,20:19.000516,True,101.098,3,5,05:11.000976,98.011,00:00.000000,0.0,100,0,0,82,2,7700,1,99,209,228,218,202,216,210,209,184,200,206,185,200,94,92,92,96,95,95,95,94,98,96,95,98,121,215,182,0.07,0.99,78,0,0,-0.05846327354905559,0.8242676138999386,0.8186469627325931,-1,6,159,-2,0,-3,0.11869316098536918
Autodromo Nazionale Monza,,"('Practice',)",Cadillac V-Series.R,1,6,Not Pacing,False,18,20:19.000816,True,101.098,3,5,05:12.000276,98.011,00:00.000000,0.0,100,0,0,88,2,8077,4,99,209,228,218,202,216,210,209,184,200,206,185,200,94,92,92,96,95,95,95,94,98,96,95,98,121,215,182,0.07,0.99,78,0,0,-0.2129006701750371,0.7566205101518698,0.9966677238938761,-1,3,160,-3,0,3,0.12952142726488772
Autodromo Nazionale Monza,,"('Practice',)",Cadillac V-Series.R,1,6,Not Pacing,False,18,20:20.000083,True,101.098,3,5,05:12.000542,98.011,00:00.000000,0.0,100,0,0,92,3,6929,5,99,209,228,218,202,216,210,209,184,200,206,185,200,94,92,92,96,95,95,95,94,98,96,95,98,121,215,183,0.07,0.99,78,0,0,-0.38631970972339186,0.7034554029458888,1.0947162344307466,-1,-3,161,-6,0,2,0.13850874931131496
Autodromo Nazionale Monza,,"('Practice',)",Cadillac V-Series.R,1,6,Not Pacing,False,18,20:20.000366,True,101.098,3,5,05:12.000826,98.011,00:00.000000,0.0,100,0,0,96,3,7467,6,99,209,228,218,202,216,210,209,184,200,206,185,200,94,92,92,96,95,95,95,94,98,96,95,98,121,215,183,0.07,0.99,78,0,0,-0.49593067071974944,0.656544785494712,1.1111723173648937,-1,-1,163,-5,0,0,0.141086040295757
Autodromo Nazionale Monza,,"('Practice',)",Cadillac V-Series.R,1,6,Not Pacing,False,18,20:20.000633,True,101.098,3,5,05:13.000092,98.011,00:00.000000,0.0,100,0,0,100,3,7794,5,99,209,228,218,202,216,210,209,184,200,206,185,200,94,92,92,96,95,95,95,94,98,96,95,98,121,215,184,0.07,0.99,78,0,0,-0.40664597510319356,0.6591009923563577,1.0871248507718427,-1,-2,165,-6,0,-3,0.13620119453644125
Autodromo Nazionale Monza,,"('Practice',)",Cadillac V-Series.R,1,6,Not Pacing,False,19,20:20.000899,True,101.098,3,5,05:13.000359,98.011,00:00.000000,0.0,100,0,0,104,3,8054,3,99,209,228,218,202,216,210,209,184,200,206,185,200,94,92,92,96,95,95,95,94,98,96,95,98,121,215,184,0.07,0.99,78,0,0,-0.2716707770126918,0.6567728507287883,0.7751254860414277,-1,6,166,-3,0,0,0.10731158277690596
Autodromo Nazionale Monza,,"('Practice',)",Cadillac V-Series.R,1,6,Not Pacing,False,19,20:21.000166,True,101.098,3,5,05:13.000626,98.011,00:00.000000,0.0,100,0,0,108,3,8282,5,99,209,228,218,202,216,210,209,184,200,206,185,200,94,92,92,96,95,95,95,94,98,96,95,98,121,216,185,0.07,0.99,78,0,0,-0.45278113673343323,0.660154700400754,0.9763789590102573,-1,-1,167,-5,0,2,0.12883560719048687
Autodromo Nazionale Monza,,"('Practice',)",Cadillac V-Series.R,1,6,Not Pacing,False,19,20:21.000433,True,101.098,3,5,05:13.000892,98.011,00:00.000000,0.0,100,0,0,111,3,8605,7,99,209,228,218,202,216,210,209,184,200,206,185,200,94,92,92,96,95,95,95,94,98,96,95,98,121,216,186,0.07,0.99,78,0,0,-0.5545529142918328,0.5660220874315859,0.9392615852005984,-1,0,168,-7,0,0,0.1253949306233142
Autodromo Nazionale Monza,,"('Practice',)",Cadillac V-Series.R,1,6,Not Pacing,False,19,20:21.000699,True,101.098,3,5,05:14.000159,98.011,00:00.000000,0.0,100,0,0,114,4,7391,6,99,209,228,218,202,216,210,209,184,200,206,185,200,94,92,92,96,95,95,95,94,98,96,95,98,121,216,186,0.07,0.99,78,0,0,-0.5450251634696937,0.5595187285381477,0.9107309743898724,-1,3,170,-6,0,-1,0.12242961343935549
Autodromo Nazionale Monza,,"('Practice',)",Cadillac V-Series.R,1,6,Not Pacing,False,20,20:21.000949,True,101.098,3,5,05:14.000409,98.011,00:00.000000,0.0,100,0,0,117,4,7558,6,99,209,228,218,202,216,210,209,184,200,206,185,200,94,92,92,96,95,95,95,94,98,96,95,98,121,216,186,0.07,0.99,78,0,0,-0.5496864046647035,0.5381748946070306,0.9501675946996846,-1,4,172,-6,0,2,0.1247490533374042
Autodromo Nazionale Monza,,"('Practice',)",Cadillac V-Series.R,1,6,Not Pacing,False,20,20:22.000216,True,101.098,3,5,05:14.000676,98.011,00:00.000000,0.0,100,0,0,120,4,7742,6,99,209,228,218,202,216,210,209,184,200,206,185,200,94,92,92,96,95,95,95,94,98,96,95,98,121,216,187,0.07,0.99,78,0,0,-0.577480178117509,0.5221680399110193,1.149328039326799,-1,-3,173,-7,0,0,0.14165300683037077
Autodromo Nazionale Monza,,"('Practice',)",Cadillac V-Series.R,1,6,Not Pacing,False,20,20:22.000466,True,101.098,3,5,05:14.000926,98.011,00:00.000000,0.0,100,0,0,123,4,7926,5,98,209,228,218,202,216,210,209,184,200,206,185,200,94,92,92,96,95,95,95,94,98,96,95,98,121,216,187,0.07,0.99,78,0,0,-0.44789683685147186,0.4919282036333152,0.8953412373860676,-1,0,175,-5,0,2,0.11382198489608134
Autodromo Nazionale Monza,,"('Practice',)",Cadillac V-Series.R,1,6,Not Pacing,False,20,20:22.000733,True,101.098,3,5,05:15.000192,98.011,00:00.000000,0.0,100,0,0,126,4,8113,5,98,209,228,218,202,216,210,209,184,200,206,185,200,94,92,92,96,95,95,95,94,98,96,95,98,121,216,188,0.07,0.99,78,0,0,-0.5271418257469309,0.4706646688852106,1.060201390195452,-1,-1,176,-6,0,-2,0.13001420495394472
Autodromo Nazionale Monza,,"('Practice',)",Cadillac V-Series.R,1,6,Not Pacing,False,21,20:22.000999,True,101.098,3,5,05:15.000459,98.011,00:00.000000,0.0,100,0,0,128,4,8297,4,98,209,228,218,202,216,210,209,184,200,206,185,200,94,92,92,96,95,95,95,94,98,96,95,98,121,216,188,0.07,0.99,78,0,0,-0.34538528119630646,0.4380283005740664,0.7475237112404981,-1,2,177,-4,-1,3,0.09517468340193366
Autodromo Nazionale Monza,,"('Practice',)",Cadillac V-Series.R,1,6,Not Pacing,False,21,20:23.000266,True,101.098,3,5,05:15.000726,98.011,00:00.000000,0.0,100,0,0,131,4,8432,4,98,209,228,218,202,216,210,209,184,200,206,185,200,94,92,92,96,95,95,95,94,98,96,95,98,121,216,189,0.07,0.99,78,0,0,-0.3381678574432777,0.43260018273838674,0.7622340160529304,-2,1,179,-5,0,2,0.09585870447631754
Autodromo Nazionale Monza,,"('Practice',)",Cadillac V-Series.R,1,6,Not Pacing,False,21,20:23.000533,True,101.098,3,5,05:15.000992,98.011,00:00.000000,0.0,100,0,0,133,5,7470,3,98,209,228,218,202,216,210,209,184,200,206,185,200,94,92,92,96,95,95,95,94,98,96,95,98,121,216,189,0.07,0.99,78,0,0,-0.32507350077808933,0.5214323205199324,1.025926374149614,-2,4,179,-4,0,-1,0.12202688179640052
Autodromo Nazionale Monza,,"('Practice',)",Cadillac V-Series.R,1,6,Not Pacing,False,21,20:23.000783,True,101.098,3,5,05:16.000242,98.011,00:00.000000,0.0,100,0,0,135,5,7465,7,98,209,228,218,202,216,210,209,184,200,206,185,200,94,92,92,96,95,95,95,94,98,96,95,98,121,216,189,0.07,0.99,78,0,0,-0.668885146441445,0.34957670898126414,1.1059163178143516,-3,0,-180,-7,0,-2,0.1366227883759725
Autodromo Nazionale Monza,,"('Practice',)",Cadillac V-Series.R,1,6,Not Pacing,False,22,20:24.000049,True,101.098,3,5,05:16.000509,98.011,00:00.000000,0.0,100,0,0,138,5,7572,8,98,209,228,218,202,216,210,209,184,200,206,185,200,94,92,92,96,95,95,95,94,98,96,95,98,121,216,190,0.07,0.99,78,0,0,-0.9728903192020458,0.3841675263539974,0.9635973900222389,-3,-2,-178,-9,0,1,0.1451212777354117
Autodromo Nazionale Monza,,"('Practice',)",Cadillac V-Series.R,1,6,Not Pacing,False,22,20:24.000316,True,101.098,3,5,05:16.000776,98.011,00:00.000000,0.0,100,0,0,140,5,7689,9,98,209,228,218,202,216,210,209,184,200,206,185,200,94,92,92,96,95,95,95,94,98,96,95,98,121,216,190,0.07,0.99,78,0,0,-1.5164287812119228,0.38104742674288034,1.2737040855104405,-3,4,-175,-11,-1,-3,0.2057856282024818
Autodromo Nazionale Monza,,"('Practice',)",Cadillac V-Series.R,1,6,Not Pacing,False,22,20:24.000566,True,101.098,3,5,05:17.000026,98.011,00:00.000000,0.0,100,0,0,142,5,7788,9,98,209,228,218,202,216,210,209,184,200,206,185,200,94,92,92,96,95,95,95,94,98,96,95,98,121,216,190,0.07,0.99,78,0,0,-1.257445153597055,0.3481140681119991,1.255504168744724,-3,-4,-172,-11,0,-3,0.18476553003102789
Autodromo Nazionale Monza,,"('Practice',)",Cadillac V-Series.R,1,6,Not Pacing,False,22,20:24.000833,True,101.098,3,5,05:17.000292,98.011,00:00.000000,0.0,100,0,0,144,5,7898,10,98,209,228,218,202,216,210,209,184,200,206,185,200,94,92,92,96,95,95,95,94,98,96,95,98,121,217,191,0.07,0.99,78,0,0,-1.287409289532116,0.3579368892673566,1.0244393810462757,-3,-2,-169,-12,-1,-2,0.17181132989135006
Autodromo Nazionale Monza,,"('Practice',)",Cadillac V-Series.R,1,6,Not Pacing,False,23,20:25.000083,True,101.098,3,5,05:17.000542,98.011,00:00.000000,0.0,100,0,0,146,5,8001,10,98,209,228,218,202,216,210,209,184,200,206,185,200,94,92,92,96,95,95,95,94,98,96,95,98,121,217,191,0.07,0.99,78,0,0,-1.486514127461067,0.3549206147500134,1.1370281682223475,-3,0,-166,-11,-1,-2,0.19437438888234038
Autodromo Nazionale Monza,,"('Practice',)",Cadillac V-Series.R,1,6,Not Pacing,False,23,20:25.000349,True,101.098,3,5,05:17.000809,98.011,00:00.000000,0.0,100,0,0,147,5,8112,10,98,209,228,218,202,216,210,209,184,200,206,185,200,94,92,92,96,95,95,95,94,98,96,95,98,121,217,191,0.07,0.99,78,0,0,-1.3958074509429153,0.35815362901133496,0.9703397021745687,-3,-4,-163,-12,0,-1,0.17727258251059239
Autodromo Nazionale Monza,,"('Practice',)",Cadillac V-Series.R,1,6,Not Pacing,False,23,20:25.000616,True,101.098,3,5,05:18.000076,98.011,00:00.000000,0.0,100,0,0,149,5,8194,10,98,209,228,218,202,216,210,209,184,200,206,185,200,94,92,92,96,95,95,95,94,98,96,95,98,121,217,192,0.07,0.99,78,0,0,-1.08712815606509,0.3065712468947353,1.1805861003537426,-3,-2,-160,-11,0,1,0.16672411156812714
Autodromo Nazionale Monza,,"('Practice',)",Cadillac V-Series.R,1,6,Not Pacing,False,24,20:25.000883,True,101.098,3,5,05:18.000342,98.011,00:00.000000,0.0,100,0,0,151,5,8298,11,98,209,228,218,202,216,210,209,184,200,206,185,200,94,92,92,96,95,95,95,94,98,96,95,98,121,217,192,0.07,0.99,78,0,0,-1.2858152632562634,0.29469746697568744,0.9604979971011722,-3,2,-157,-11,-1,3,0.16650872363589758
Autodromo Nazionale Monza,,"('Practice',)",Cadillac V-Series.R,1,6,Not Pacing,False,24,20:26.000149,True,101.098,3,5,05:18.000609,98.011,00:00.000000,0.0,100,0,0,153,5,8398,12,98,209,228,218,202,216,210,209,184,200,206,185,200,94,92,92,96,95,95,95,94,98,96,95,98,121,217,192,0.07,0.99,78,0,0,-1.4325206068313083,0.2852671007862149,0.9897952415162998,-3,-4,-154,-14,-1,0,0.18004312581843654
Autodromo Nazionale Monza,,"('Practice',)",Cadillac V-Series.R,1,6,Not Pacing,False,24,20:26.000416,True,101.098,3,5,05:18.000876,98.011,00:00.000000,0.0,100,0,0,154,5,8477,12,98,209,228,218,202,216,210,209,184,200,206,185,200,94,92,92,96,95,95,95,94,98,96,95,98,121,217,193,0.07,0.99,78,0,0,-1.6026922686748912,0.2777068014660134,1.0018885317927835,-3,2,-150,-14,-1,-1,0.1949359992203897
Autodromo Nazionale Monza,,"('Practice',)",Cadillac V-Series.R,1,6,Not Pacing,False,25,20:26.000666,True,101.098,3,5,05:19.000126,98.011,00:00.000000,0.0,100,0,0,156,6,7836,13,98,209,228,218,202,216,210,209,184,200,206,185,200,94,92,92,96,95,95,95,94,98,96,95,98,121,217,193,0.07,0.99,78,0,0,-1.612661713610852,-0.10611460478663079,1.0959047789967387,-3,1,-147,-16,-1,-1,0.1992527010212323
Autodromo Nazionale Monza,,"('Practice',)",Cadillac V-Series.R,1,6,Not Pacing,False,25,20:26.000933,True,101.098,3,5,05:19.000392,98.011,00:00.000000,0.0,100,0,0,157,6,7674,13,98,209,228,218,202,216,210,209,184,200,206,185,200,94,92,92,96,95,95,95,94,98,96,95,98,121,217,193,0.07,0.99,78,0,0,-1.7029162454556495,0.2767180570161063,0.8280634515511515,-3,1,-143,-12,0,3,0.19527385755684393
