TrackName,TrackType,SessionFlag,CarName,RacePosition,Lap Nbr,PaceMode,OnPitRoad,LapDistPrct %,SessionTime,IsOnTrack,PreviousLap,LapBestLap,LapCompleted,CurrentLapTime,LapBestLapTime,LapDeltaToBestLap,LapDeltaToBestLap_DD,Throttle %,Brake %,Clutch %,Speed (MPH),currentGear,RPM,SteeringWheelAngle (deg),FuelLevelPct,LFtempCL (F),LFtempCR (F),LFtempCM (F),LRtempCL (F),LRtempCR (F),LRtempCM (F),RFtempCL (F),RFtempCR (F),RFtempCM (F),RRtempCL (F),RRtempCR (F),RRtempCM (F),LFwearL %,LFwearM %,LFwearR %,LRwearL %,LRwearM %,LRwearR %,RFwearL %,RFwearM %,RFwearR %,RRwearL %,RRwearM %,RRwearR %,TrackTemp (F),OilTemp (F),WaterTemp (F),AirDensity (lbs/ft^3),AirPressure (bar),AirTemp (F),WindDir (deg),WindVel (MPH),LatAccel (m/s),LongAccel (m/s),VertAccel (m/s),Roll (deg),RollRate (deg/s),Yaw (deg),YawRate (deg/s),Pitch (deg),PitchRate (deg/s),gForces
Dover International Speedway,,"('Practice',)",Chevrolet National Impala,2,3,Not Pacing,True,9,09:36.000216,True,24.472,2,2,00:47.000229,24.472,00:00.000000,0.0,0,100,100,0.0,1,1742,3,99,157,152,155,157,147,154,177,153,169,171,164,169,99,99,99,99,99,99,99,99,99,99,99,99,124,171,170,0.07,1.01,78,0,0.0,-0.02607477185193916,0.003966815564610543,0.9997488404875744,1,0,-1,-1,0,0,0.10205068183988207
Dover International Speedway,,"('Practice',)",Chevrolet National Impala,2,3,Not Pacing,True,9,09:36.000366,True,24.472,2,2,00:47.000379,24.472,00:00.000000,0.0,0,100,100,0.0,1,1742,3,99,157,152,155,157,147,154,177,153,169,171,164,169,99,99,99,99,99,99,99,99,99,99,99,99,124,171,170,0.07,1.01,78,0,0.0,-0.02608373685228229,0.0029426875023909906,0.999833417108907,1,-1,-1,0,0,-1,0.10205897199224988
Dover International Speedway,,"('Practice',)",Chevrolet National Impala,2,3,Not Pacing,True,9,09:36.000499,True,24.472,2,2,00:47.000512,24.472,00:00.000000,0.0,0,100,100,0.01,1,1742,3,99,157,152,155,157,147,154,177,153,169,171,164,169,99,99,99,99,99,99,99,99,99,99,99,99,124,171,170,0.07,1.01,78,0,0.0,-0.025956525593601114,0.003911333802278617,0.9992651983138617,1,0,-1,-1,0,0,0.10200101143600278
Dover International Speedway,,"('Practice',)",Chevrolet National Impala,2,3,Not Pacing,True,9,09:36.000649,True,24.472,2,2,00:47.000662,24.472,00:00.000000,0.0,0,100,100,0.0,1,1742,3,99,157,152,155,157,147,154,177,153,169,171,164,169,99,99,99,99,99,99,99,99,99,99,99,99,124,171,170,0.07,1.01,78,0,0.0,-0.026005725248144304,0.0032030668766612792,0.9991261815684529,1,-1,-1,0,0,0,0.10198670422765731
Dover International Speedway,,"('Practice',)",Chevrolet National Impala,2,3,Not Pacing,True,9,09:36.000833,True,24.472,2,2,00:47.000846,24.472,00:00.000000,0.0,0,100,100,0.01,1,1742,3,99,157,152,155,157,147,154,177,153,169,171,164,169,99,99,99,99,99,99,99,99,99,99,99,99,124,171,170,0.07,1.01,78,0,0.0,-0.026319822283209157,0.0036116408432903153,0.9991134464679994,1,-1,-1,0,0,0,0.10198638629474166
Dover International Speedway,,"('Practice',)",Chevrolet National Impala,2,3,Not Pacing,True,9,09:36.000999,True,24.472,2,2,00:48.000012,24.472,00:00.000000,0.0,51,100,100,0.0,1,3603,3,99,157,152,155,157,147,154,177,153,169,171,164,169,99,99,99,99,99,99,99,99,99,99,99,99,124,171,171,0.07,1.01,78,0,0.0,-0.02233689835069133,0.004554217895844174,0.9976797269146498,1,-1,-1,0,0,-1,0.10183062614215097
Dover International Speedway,,"('Practice',)",Chevrolet National Impala,2,3,Not Pacing,True,9,09:37.000149,True,24.472,2,2,00:48.000162,24.472,00:00.000000,0.0,0,100,100,0.0,1,3918,2,99,157,152,155,157,147,154,177,153,169,171,164,169,99,99,99,99,99,99,99,99,99,99,99,99,124,171,171,0.07,1.01,78,0,0.0,-0.02680683050923634,0.008552061217275963,1.0061037528283976,1,0,-1,-1,0,0,0.10270379043159546
Dover International Speedway,,"('Practice',)",Chevrolet National Impala,2,3,Not Pacing,True,9,09:37.000283,True,24.472,2,2,00:48.000296,24.472,00:00.000000,0.0,16,100,100,0.0,1,4486,3,99,157,152,155,157,147,154,177,153,169,171,164,169,99,99,99,99,99,99,99,99,99,99,99,99,124,172,171,0.07,1.01,78,0,0.0,-0.022110370321011322,0.002211983582416927,0.9995942694210009,1,-1,-1,-1,0,-1,0.10202461426506393
Dover International Speedway,,"('Practice',)",Chevrolet National Impala,2,3,Not Pacing,True,9,09:37.000433,True,24.472,2,2,00:48.000446,24.472,00:00.000000,0.0,0,100,100,0.0,1,4082,3,99,157,152,155,157,147,154,177,153,169,171,164,169,99,99,99,99,99,99,99,99,99,99,99,99,124,172,171,0.07,1.01,78,0,0.0,-0.028336433946296466,0.004204956550724523,1.0114690214851216,1,0,-1,-1,0,0,0.10325251073085173
Dover International Speedway,,"('Practice',)",Chevrolet National Impala,2,3,Not Pacing,True,9,09:37.000583,True,24.472,2,2,00:48.000596,24.472,00:00.000000,0.0,0,100,100,0.0,1,3703,3,99,157,152,155,157,147,154,177,153,169,171,164,169,99,99,99,99,99,99,99,99,99,99,99,99,124,172,171,0.07,1.01,78,0,0.0,-0.025603761488266066,0.0023947214132419782,0.9977267787361728,1,-1,-1,-1,0,-1,0.10184266537780862
Dover International Speedway,,"('Practice',)",Chevrolet National Impala,2,3,Not Pacing,True,9,09:37.000716,True,24.472,2,2,00:48.000729,24.472,00:00.000000,0.0,40,100,100,0.0,1,4588,3,99,157,152,155,157,147,154,177,153,169,171,164,169,99,99,99,99,99,99,99,99,99,99,99,99,124,172,171,0.07,1.01,78,0,0.0,-0.02569799576330622,0.002296264003297726,1.0026086968627057,1,0,-1,-1,0,-1,0.10234087814676837
Dover International Speedway,,"('Practice',)",Chevrolet National Impala,2,3,Not Pacing,True,9,09:37.000866,True,24.472,2,2,00:48.000879,24.472,00:00.000000,0.0,34,100,100,0.0,1,5912,3,99,157,152,155,157,147,154,177,153,169,171,164,169,99,99,99,99,99,99,99,99,99,99,99,99,124,172,171,0.07,1.01,78,0,0.0,-0.02551665728974415,0.0035786012018613977,1.0030060125539548,1,-1,-1,0,0,0,0.10238131797936109
Dover International Speedway,,"('Practice',)",Chevrolet National Impala,2,3,Not Pacing,True,9,09:37.000999,True,24.472,2,2,00:49.000012,24.472,00:00.000000,0.0,34,21,85,0.01,1,6871,3,99,157,152,155,157,147,154,177,153,169,171,164,169,99,99,99,99,99,99,99,99,99,99,99,99,124,172,171,0.07,1.01,78,0,0.0,-0.03280556408515642,-0.001489102961941718,0.997025959353199,1,0,-1,0,0,-1,0.10179251351065756
Dover International Speedway,,"('Practice',)",Chevrolet National Impala,2,3,Not Pacing,True,9,09:38.000133,True,24.472,2,2,00:49.000146,24.472,00:00.000000,0.0,34,0,69,0.25,1,7346,3,99,157,152,155,157,147,154,177,153,169,171,164,169,99,99,99,99,99,99,99,99,99,99,99,99,124,172,171,0.07,1.01,78,0,0.0,-0.010130286338253974,0.09580623362285524,1.00882352309854,1,-1,-1,-1,0,-1,0.1034095124154911
Dover International Speedway,,"('Practice',)",Chevrolet National Impala,2,3,Not Pacing,True,9,09:38.000266,True,24.472,2,2,00:49.000279,24.472,00:00.000000,0.0,36,0,57,0.9,1,7265,3,99,157,152,155,157,147,154,177,153,169,171,164,169,99,99,99,99,99,99,99,99,99,99,99,99,124,173,171,0.07,1.01,78,0,0.0,-0.03482346991637188,0.2956448223491206,1.0019732056286235,1,0,-1,0,0,-1,0.10665920184278568
Dover International Speedway,,"('Practice',)",Chevrolet National Impala,2,3,Not Pacing,True,9,09:38.000416,True,24.472,2,2,00:49.000429,24.472,00:00.000000,0.0,37,0,54,1.81,1,6958,3,99,157,152,155,157,147,154,177,153,169,171,164,169,99,99,99,99,99,99,99,99,99,99,99,99,124,173,172,0.07,1.01,78,0,0.0,-0.033744413189202634,0.3225314629308796,0.9934543955702786,1,-1,-1,0,0,-1,0.10663713817731463
Dover International Speedway,,"('Practice',)",Chevrolet National Impala,2,3,Not Pacing,True,9,09:38.000549,True,24.472,2,2,00:49.000562,24.472,00:00.000000,0.0,37,0,48,3.07,1,6472,4,99,157,152,155,157,147,154,177,153,169,171,164,169,99,99,99,99,99,99,99,99,99,99,99,99,124,173,172,0.07,1.01,78,0,0.0,-0.031525394846053906,0.42631798684900807,0.9932832008229604,1,-1,-1,0,0,-1,0.11034346785493834
Dover International Speedway,,"('Practice',)",Chevrolet National Impala,2,3,Not Pacing,True,10,09:38.000683,True,24.472,2,2,00:49.000696,24.472,00:00.000000,0.0,38,0,45,4.38,1,5898,6,99,157,152,155,157,147,154,177,153,169,171,164,169,99,99,99,99,99,99,99,99,99,99,99,99,124,173,172,0.07,1.01,78,0,0.0,-0.03447857411021972,0.48153932670569927,0.9885073437238687,1,-1,-1,0,0,-1,0.11225490047421333
Dover International Speedway,,"('Practice',)",Chevrolet National Impala,2,3,Not Pacing,True,10,09:38.000816,True,24.472,2,2,00:49.000829,24.472,00:00.000000,0.0,39,0,44,5.8,1,5334,7,99,157,152,155,157,147,154,177,153,169,171,164,169,99,99,99,99,99,99,99,99,99,99,99,99,124,174,172,0.07,1.01,78,0,0.0,-0.03550524436977903,0.5124148972537539,0.9852032170504725,1,-1,-1,0,0,-1,0.11337350174295005
Dover International Speedway,,"('Practice',)",Chevrolet National Impala,2,3,Not Pacing,True,10,09:38.000949,True,24.472,2,2,00:49.000962,24.472,00:00.000000,0.0,40,0,44,7.26,1,4787,7,99,157,152,155,157,147,154,177,153,169,171,164,169,99,99,99,99,99,99,99,99,99,99,99,99,124,174,172,0.07,1.01,78,0,0.0,-0.03329455609472277,0.5156021234821471,0.9838342423589708,1,-1,-1,0,0,-1,0.11339319373439605
Dover International Speedway,,"('Practice',)",Chevrolet National Impala,2,3,Not Pacing,True,10,09:39.000083,True,24.472,2,2,00:50.000096,24.472,00:00.000000,0.0,40,0,44,8.73,1,4247,8,99,157,152,155,157,147,154,177,153,169,171,164,169,99,99,99,99,99,99,99,99,99,99,99,99,124,174,172,0.07,1.01,78,0,0.0,-0.03353171999908976,0.5197052561908687,0.9859761695978473,1,-1,-1,0,0,-1,0.11378200478275978
Dover International Speedway,,"('Practice',)",Chevrolet National Impala,2,3,Not Pacing,True,10,09:39.000233,True,24.472,2,2,00:50.000246,24.472,00:00.000000,0.0,39,0,44,10.21,1,3776,9,99,157,152,155,157,147,154,177,153,169,171,164,169,99,99,99,99,99,99,99,99,99,99,99,99,124,174,172,0.07,1.01,78,0,0.0,-0.044833514060935234,0.5193793931624697,0.9966277687313845,1,-1,-1,0,0,-1,0.11476901759328169
Dover International Speedway,,"('Practice',)",Chevrolet National Impala,2,3,Not Pacing,True,10,09:39.000366,True,24.472,2,2,00:50.000379,24.472,00:00.000000,0.0,36,0,41,11.9,1,3203,9,99,157,152,155,157,147,154,177,153,169,171,164,169,99,99,99,99,99,99,99,99,99,99,99,99,124,174,172,0.07,1.01,78,0,0.0,-0.03008278927914836,0.5668762626997921,1.0122393492407997,1,0,-1,0,0,-1,0.1184237274053005
Dover International Speedway,,"('Practice',)",Chevrolet National Impala,2,3,Not Pacing,True,10,09:39.000499,True,24.472,2,2,00:50.000512,24.472,00:00.000000,0.0,36,0,41,13.54,1,2657,9,99,157,152,155,157,147,154,177,153,169,171,164,169,99,99,99,99,99,99,99,99,99,99,99,99,124,174,173,0.07,1.01,78,0,0.0,-0.0285109552525356,0.590738924514506,0.9683089883320193,1,-1,-1,0,1,-1,0.1157795791918236
Dover International Speedway,,"('Practice',)",Chevrolet National Impala,2,3,Not Pacing,True,10,09:39.000633,True,24.472,2,2,00:50.000646,24.472,00:00.000000,0.0,36,0,40,15.23,1,2249,9,99,157,152,155,157,147,154,177,153,169,171,164,169,99,99,99,99,99,99,99,99,99,99,99,99,124,174,173,0.07,1.01,78,0,0.0,-0.0239550550900225,0.6062853713040444,1.0067285504666794,1,-1,-1,0,1,-2,0.11994281273248787
Dover International Speedway,,"('Practice',)",Chevrolet National Impala,2,3,Not Pacing,True,10,09:39.000766,True,24.472,2,2,00:50.000779,24.472,00:00.000000,0.0,35,0,39,16.95,1,1984,9,99,157,152,155,157,147,154,177,153,169,171,164,169,99,99,99,99,99,99,99,99,99,99,99,99,124,174,173,0.07,1.01,78,0,0.0,-0.06549454367245859,0.6316141737102854,0.947295489296636,1,3,-1,1,1,0,0.11637104159717272
Dover International Speedway,,"('Practice',)",Chevrolet National Impala,2,3,Not Pacing,True,10,09:39.000899,True,24.472,2,2,00:50.000912,24.472,00:00.000000,0.0,33,0,31,18.48,1,2009,9,99,157,152,155,157,147,154,177,153,169,171,164,169,99,99,99,99,99,99,99,99,99,99,99,99,124,174,173,0.07,1.01,78,0,0.0,0.01174628613070489,0.3993839541949506,0.9846214854389155,1,-2,-1,1,1,0,0.10842887044895692
Dover International Speedway,,"('Practice',)",Chevrolet National Impala,2,3,Not Pacing,True,10,09:40.000049,True,24.472,2,2,00:51.000062,24.472,00:00.000000,0.0,33,0,21,19.85,1,2109,10,99,157,152,155,157,147,154,177,153,169,171,164,169,99,99,99,99,99,99,99,99,99,99,99,99,124,174,173,0.07,1.01,78,0,0.0,-0.032795702888574314,0.42900635683329946,0.9835524175023692,1,0,-2,1,0,1,0.10954533703142225
Dover International Speedway,,"('Practice',)",Chevrolet National Impala,2,3,Not Pacing,True,10,09:40.000183,True,24.472,2,2,00:51.000196,24.472,00:00.000000,0.0,33,0,0,21.24,1,2278,11,99,157,152,155,157,147,154,177,153,169,171,164,169,99,99,99,99,99,99,99,99,99,99,99,99,124,174,173,0.07,1.01,78,0,0.0,0.02028996791314641,0.45494999239082606,1.0339570701669114,1,-1,-2,1,0,-2,0.11528618218961663
Dover International Speedway,,"('Practice',)",Chevrolet National Impala,2,3,Not Pacing,True,10,09:40.000333,True,24.472,2,2,00:51.000346,24.472,00:00.000000,0.0,32,0,0,22.54,1,2429,11,99,157,152,155,157,147,154,177,153,169,171,164,169,99,99,99,99,99,99,99,99,99,99,99,99,124,174,173,0.07,1.01,78,0,0.0,-0.019094193018175408,0.42248190239178174,1.0234801655029544,1,0,-2,1,1,-4,0.1130014943542644
Dover International Speedway,,"('Practice',)",Chevrolet National Impala,2,3,Not Pacing,True,10,09:40.000466,True,24.472,2,2,00:51.000479,24.472,00:00.000000,0.0,30,0,0,23.7,1,2492,12,99,157,152,155,157,147,154,177,153,169,171,164,169,99,99,99,99,99,99,99,99,99,99,99,99,124,174,173,0.07,1.01,78,0,0.0,-0.12325692492765995,0.39651605331934187,1.0367210730378658,1,-2,-2,-3,1,0,0.11395761181391365
Dover International Speedway,,"('Practice',)",Chevrolet National Impala,2,3,Not Pacing,True,10,09:40.000616,True,24.472,2,2,00:51.000629,24.472,00:00.000000,0.0,29,0,0,24.85,1,2605,14,99,157,152,155,157,147,154,177,153,169,171,164,169,99,99,99,99,99,99,99,99,99,99,99,99,124,174,173,0.07,1.01,78,0,0.0,-0.10438625236534561,0.3359304898618801,1.015493993729991,1,3,-2,-4,1,-1,0.1096629683554282
Dover International Speedway,,"('Practice',)",Chevrolet National Impala,2,3,Not Pacing,True,10,09:40.000749,True,24.472,2,2,00:51.000762,24.472,00:00.000000,0.0,28,0,0,25.81,1,2686,14,99,157,152,155,157,147,154,177,153,169,171,164,169,99,99,99,99,99,99,99,99,99,99,99,99,124,174,173,0.07,1.01,78,0,0.0,-0.045161379100593466,0.3740994086931483,0.9862248443074668,1,-6,-1,-4,1,7,0.10773062112118623
Dover International Speedway,,"('Practice',)",Chevrolet National Impala,2,3,Not Pacing,True,11,09:40.000899,True,24.472,2,2,00:51.000912,24.472,00:00.000000,0.0,28,0,0,26.8,1,2801,10,99,157,152,155,157,147,154,177,153,169,171,164,169,99,99,99,99,99,99,99,99,99,99,99,99,124,174,173,0.07,1.01,78,0,0.0,-0.1519227489661976,0.28911101101127723,0.901522232973369,1,4,-1,-3,0,2,0.09784261957765313
Dover International Speedway,,"('Practice',)",Chevrolet National Impala,2,3,Not Pacing,True,11,09:41.000049,True,24.472,2,2,00:52.000062,24.472,00:00.000000,0.0,26,0,0,27.78,1,2829,5,99,157,152,155,157,147,154,177,153,169,171,164,169,99,99,99,99,99,99,99,99,99,99,99,99,124,174,173,0.07,1.01,78,0,0.0,-0.06514446207993378,0.36286758477291686,1.202491931351439,1,-4,0,-2,0,-4,0.12834055761733548
Dover International Speedway,,"('Practice',)",Chevrolet National Impala,2,3,Not Pacing,True,11,09:41.000183,True,24.472,2,2,00:52.000196,24.472,00:00.000000,0.0,20,0,0,28.52,1,2953,4,99,157,152,155,157,147,154,177,153,169,171,164,169,99,99,99,99,99,99,99,99,99,99,99,99,124,174,173,0.07,1.01,78,0,0.0,-0.019310306943763164,0.28434344144893103,0.9502344782806925,1,1,0,-1,0,0,0.10122992313649239
Dover International Speedway,,"('Practice',)",Chevrolet National Impala,2,3,Not Pacing,True,11,09:41.000316,True,24.472,2,2,00:52.000329,24.472,00:00.000000,0.0,0,0,0,28.77,1,2778,2,99,157,152,155,157,147,154,177,153,169,171,164,169,99,99,99,99,99,99,99,99,99,99,99,99,124,174,173,0.07,1.01,78,0,0.0,-0.008582581256143178,-0.0017859915102415248,0.972496211589537,1,-1,0,0,0,1,0.09923833905600858
Dover International Speedway,,"('Practice',)",Chevrolet National Impala,2,3,Not Pacing,True,11,09:41.000449,True,24.472,2,2,00:52.000462,24.472,00:00.000000,0.0,0,0,0,28.25,1,2995,2,99,157,152,155,157,147,154,177,153,169,171,164,169,99,99,99,99,99,99,99,99,99,99,99,99,124,174,173,0.07,1.01,78,0,0.0,-0.006453322282746418,-0.06838287782231602,0.9980051038705123,1,2,0,0,0,0,0.10207815901907132
Dover International Speedway,,"('Practice',)",Chevrolet National Impala,2,3,Not Pacing,True,11,09:41.000599,True,24.472,2,2,00:52.000612,24.472,00:00.000000,0.0,1,0,0,28.14,1,2803,1,99,157,152,155,157,147,154,177,153,169,171,164,169,99,99,99,99,99,99,99,99,99,99,99,99,124,174,173,0.07,1.01,78,0,0.0,-0.026573746576221708,-0.17923088734789117,0.9297859899616143,1,-2,0,2,0,0,0.09666081858539796
Dover International Speedway,,"('Practice',)",Chevrolet National Impala,2,3,Not Pacing,True,11,09:41.000733,True,24.472,2,2,00:52.000746,24.472,00:00.000000,0.0,8,0,0,27.87,1,2903,-1,99,157,152,155,157,147,154,177,153,169,171,164,169,99,99,99,99,99,99,99,99,99,99,99,99,124,174,173,0.07,1.01,78,0,0.0,0.046174396797786794,-0.0017644767245993578,1.0739690059308005,1,0,-1,1,0,-1,0.10969006229709394
Dover International Speedway,,"('Practice',)",Chevrolet National Impala,2,3,Not Pacing,True,11,09:41.000866,True,24.472,2,2,00:52.000879,24.472,00:00.000000,0.0,14,0,0,28.11,1,2931,-2,99,157,152,155,157,147,154,177,153,169,171,164,169,99,99,99,99,99,99,99,99,99,99,99,99,124,173,173,0.07,1.01,78,0,0.0,0.03285624929888897,0.40172346991987157,0.9494341112422651,1,0,-1,1,0,-4,0.1052498668652086
Dover International Speedway,,"('Practice',)",Chevrolet National Impala,2,3,Not Pacing,True,11,09:42.000016,True,24.472,2,2,00:53.000029,24.472,00:00.000000,0.0,14,0,0,28.46,1,3030,-4,99,157,152,155,157,147,154,177,153,169,171,164,169,99,99,99,99,99,99,99,99,99,99,99,99,124,173,173,0.07,1.01,78,0,0.0,0.09800155592985474,0.2039069672486347,1.0277285366855509,1,-2,-1,3,0,0,0.10738109089378481
Dover International Speedway,,"('Practice',)",Chevrolet National Impala,2,3,Not Pacing,True,12,09:42.000149,True,24.472,2,2,00:53.000162,24.472,00:00.000000,0.0,19,0,0,28.99,1,3043,-4,99,157,152,155,157,147,154,177,153,169,171,164,169,99,99,99,99,99,99,99,99,99,99,99,99,124,173,173,0.07,1.01,78,0,0.0,0.03021021319456421,0.17596665507791967,0.9849268362062786,1,-1,-2,2,0,-1,0.10214065490092053
Dover International Speedway,,"('Practice',)",Chevrolet National Impala,2,3,Not Pacing,True,12,09:42.000299,True,24.472,2,2,00:53.000312,24.472,00:00.000000,0.0,19,0,0,29.59,1,3077,-5,99,157,152,155,157,147,154,177,153,169,171,164,169,99,99,99,99,99,99,99,99,99,99,99,99,124,173,173,0.07,1.01,78,0,0.0,0.038211623341543835,0.16439589277806024,1.0086604943698334,2,-2,-2,3,0,-1,0.1043554885906387
Dover International Speedway,,"('Practice',)",Chevrolet National Impala,2,3,Not Pacing,True,12,09:42.000433,True,24.472,2,2,00:53.000446,24.472,00:00.000000,0.0,21,0,0,30.14,1,3129,-5,99,157,152,155,157,147,154,177,153,169,171,164,169,99,99,99,99,99,99,99,99,99,99,99,99,124,173,173,0.07,1.01,78,0,0.0,0.03994572053261853,0.20443433164699604,1.004046499425361,2,2,-3,2,1,-2,0.10463530353901022
Dover International Speedway,,"('Practice',)",Chevrolet National Impala,2,3,Not Pacing,False,12,09:42.000583,True,24.472,2,2,00:53.000596,24.472,00:00.000000,0.0,22,0,0,30.81,1,3190,-6,99,157,152,155,157,147,154,177,153,169,171,164,169,99,99,99,99,99,99,99,99,99,99,99,99,124,173,173,0.07,1.01,78,0,0.0,0.04481784429754321,0.21744190006081116,1.0402609448914133,1,0,-3,3,1,0,0.10853960580392166
Dover International Speedway,,"('Practice',)",Chevrolet National Impala,2,3,Not Pacing,False,12,09:42.000733,True,24.472,2,2,00:53.000746,24.472,00:00.000000,0.0,24,0,0,31.48,1,3269,-8,99,157,152,155,157,147,154,177,153,169,171,164,169,99,99,99,99,99,99,99,99,99,99,99,99,124,173,173,0.07,1.01,78,0,0.0,0.09811595310129521,0.24146822249852917,1.0442503366266185,1,0,-4,4,1,-2,0.10982514254661842
Dover International Speedway,,"('Practice',)",Chevrolet National Impala,2,3,Not Pacing,False,12,09:42.000883,True,24.472,2,2,00:53.000896,24.472,00:00.000000,0.0,24,0,0,32.1,1,3330,-9,99,157,152,155,157,147,154,177,153,169,171,164,169,99,99,99,99,99,99,99,99,99,99,99,99,124,173,173,0.07,1.01,78,0,0.0,0.08316063127507978,0.23610854367597386,1.0130922121131578,1,1,-4,4,1,0,0.1064857774346804
Dover International Speedway,,"('Practice',)",Chevrolet National Impala,2,3,Not Pacing,False,12,09:43.000016,True,24.472,2,2,00:54.000029,24.472,00:00.000000,0.0,27,0,0,32.86,1,3415,-12,99,157,152,155,157,147,154,177,153,169,171,164,169,99,99,99,99,99,99,99,99,99,99,99,99,124,173,173,0.07,1.01,78,0,0.0,0.08482849196921065,0.26671196221090115,0.946222338350784,1,0,-5,5,1,0,0.10068837711488143
Dover International Speedway,,"('Practice',)",Chevrolet National Impala,2,3,Not Pacing,False,13,09:43.000166,True,24.472,2,2,00:54.000179,24.472,00:00.000000,0.0,31,0,0,33.68,1,3518,-14,99,157,152,155,157,147,154,177,153,169,171,164,169,99,99,99,99,99,99,99,99,99,99,99,99,124,173,173,0.07,1.01,78,0,0.0,0.14749855319537397,0.28628415896136705,0.9775507826809975,1,-1,-6,6,1,-1,0.1050237461292056
Dover International Speedway,,"('Practice',)",Chevrolet National Impala,2,3,Not Pacing,False,13,09:43.000299,True,24.472,2,2,00:54.000312,24.472,00:00.000000,0.0,35,0,0,34.58,1,3597,-15,99,157,152,155,157,147,154,177,153,169,171,164,169,99,99,99,99,99,99,99,99,99,99,99,99,124,173,173,0.07,1.01,78,0,0.0,0.17684559574185524,0.3479449877802142,1.0357734260209108,1,-2,-7,6,1,0,0.11294617061382914
Dover International Speedway,,"('Practice',)",Chevrolet National Impala,2,3,Not Pacing,False,13,09:43.000449,True,24.472,2,2,00:54.000462,24.472,00:00.000000,0.0,35,0,0,35.58,1,3721,-17,99,157,152,155,157,147,154,177,153,169,171,164,169,99,99,99,99,99,99,99,99,99,99,99,99,124,173,173,0.07,1.01,78,0,0.0,0.1978426169182547,0.3397537663077725,1.0278919542722866,1,0,-8,7,1,-2,0.11229758468694255
Dover International Speedway,,"('Practice',)",Chevrolet National Impala,2,3,Not Pacing,False,13,09:43.000583,True,24.472,2,2,00:54.000596,24.472,00:00.000000,0.0,34,0,0,36.49,1,3794,-20,99,157,152,155,157,147,154,177,153,169,171,164,169,99,99,99,99,99,99,99,99,99,99,99,99,124,173,173,0.07,1.01,78,0,0.0,0.28031098368700125,0.3346457758445623,1.0940765629728513,2,-7,-9,9,1,-3,0.12019895213201585
Dover International Speedway,,"('Practice',)",Chevrolet National Impala,2,3,Not Pacing,False,13,09:43.000716,True,24.472,2,2,00:54.000729,24.472,00:00.000000,0.0,34,0,0,37.34,1,3886,-22,99,157,152,155,157,147,154,177,153,169,171,164,169,99,99,99,99,99,99,99,99,99,99,99,99,124,173,173,0.07,1.01,78,0,0.0,0.32252592170396466,0.32382351664349696,1.153760048713645,2,-6,-10,10,1,-3,0.12663125071622605
Dover International Speedway,,"('Practice',)",Chevrolet National Impala,2,3,Not Pacing,False,13,09:43.000849,True,24.472,2,2,00:54.000862,24.472,00:00.000000,0.0,32,0,0,38.13,1,3958,-22,99,157,152,155,157,147,154,177,153,169,171,164,169,99,99,99,99,99,99,99,99,99,99,99,99,124,173,173,0.07,1.01,78,0,0.0,0.2831007970096382,0.28393574810903005,1.0952562610186811,3,-9,-12,11,1,-4,0.11901441047316222
Dover International Speedway,,"('Practice',)",Chevrolet National Impala,2,3,Not Pacing,False,13,09:43.000983,True,24.472,2,2,00:54.000996,24.472,00:00.000000,0.0,29,0,0,38.84,1,4012,-22,99,157,152,155,157,147,154,177,153,169,171,164,169,99,99,99,99,99,99,99,99,99,99,99,99,124,173,173,0.07,1.01,78,0,0.0,0.2489195686596978,0.258748368507253,1.0854995214246463,4,-2,-13,10,2,-2,0.11666710263459666
Dover International Speedway,,"('Practice',)",Chevrolet National Impala,2,3,Not Pacing,False,14,09:44.000116,True,24.472,2,2,00:55.000129,24.472,00:00.000000,0.0,29,0,0,39.45,1,4084,-22,99,157,152,155,157,147,154,177,153,169,171,164,169,99,99,99,99,99,99,99,99,99,99,99,99,124,173,173,0.07,1.01,78,0,0.0,0.24111428878115343,0.2587159474690755,0.9606487768019618,4,0,-15,10,1,1,0.10445691218154399
Dover International Speedway,,"('Practice',)",Chevrolet National Impala,2,3,Not Pacing,False,14,09:44.000266,True,24.472,2,2,00:55.000279,24.472,00:00.000000,0.0,31,0,0,40.05,1,4164,-23,99,157,152,155,157,147,154,177,153,169,171,164,169,99,99,99,99,99,99,99,99,99,99,99,99,124,173,173,0.07,1.01,78,0,0.0,0.24421518852708293,0.2425779504027449,0.8629275875110995,4,-2,-16,11,1,1,0.09480075895555347
Dover International Speedway,,"('Practice',)",Chevrolet National Impala,2,3,Not Pacing,False,14,09:44.000399,True,24.472,2,2,00:55.000412,24.472,00:00.000000,0.0,33,0,0,40.84,1,4241,-20,99,157,152,155,157,147,154,177,153,169,171,164,169,99,99,99,99,99,99,99,99,99,99,99,99,124,173,173,0.07,1.01,78,0,0.0,0.28732831568042316,0.2936884776046395,1.0537478051297404,4,-2,-18,10,1,-1,0.11540969340209878
Dover International Speedway,,"('Practice',)",Chevrolet National Impala,2,3,Not Pacing,False,14,09:44.000533,True,24.472,2,2,00:55.000546,24.472,00:00.000000,0.0,36,0,0,41.57,1,4342,-16,99,157,152,155,157,147,154,177,153,169,171,164,169,99,99,99,99,99,99,99,99,99,99,99,99,124,173,173,0.07,1.01,78,0,0.0,0.19647185591018163,0.2947299366211186,0.9363555519345095,4,1,-19,10,1,-1,0.10215445943932598
Dover International Speedway,,"('Practice',)",Chevrolet National Impala,2,3,Not Pacing,False,14,09:44.000666,True,24.472,2,2,00:55.000679,24.472,00:00.000000,0.0,38,0,0,42.41,1,4418,-12,99,157,152,155,157,147,154,177,153,169,171,164,169,99,99,99,99,99,99,99,99,99,99,99,99,124,173,173,0.07,1.01,78,0,0.0,0.15176419210482567,0.2832892473319984,0.965616826981944,5,-2,-20,7,1,0,0.1038463238521798
Dover International Speedway,,"('Practice',)",Chevrolet National Impala,2,3,Not Pacing,False,14,09:44.000799,True,24.472,2,2,00:55.000812,24.472,00:00.000000,0.0,38,0,0,43.25,1,4502,-12,99,157,152,155,157,147,154,177,153,169,171,164,169,99,99,99,99,99,99,99,99,99,99,99,99,124,173,173,0.07,1.01,78,0,0.0,0.1543190015079292,0.3243058464213613,1.0596387126273215,5,0,-21,7,1,-2,0.11416825403118606
Dover International Speedway,,"('Practice',)",Chevrolet National Impala,2,3,Not Pacing,False,15,09:44.000933,True,24.472,2,2,00:55.000946,24.472,00:00.000000,0.0,38,0,0,44.09,1,4592,-12,99,157,152,155,157,147,154,177,153,169,171,164,169,99,99,99,99,99,99,99,99,99,99,99,99,124,173,173,0.07,1.01,78,0,0.0,0.16103869913550325,0.2987910969663225,0.9651342541678114,5,-3,-22,7,1,0,0.104395969454251
Dover International Speedway,,"('Practice',)",Chevrolet National Impala,2,3,Not Pacing,False,15,09:45.000083,True,24.472,2,2,00:56.000096,24.472,00:00.000000,0.0,39,0,0,44.96,1,4676,-11,99,157,152,155,157,147,154,177,153,169,171,164,169,99,99,99,99,99,99,99,99,99,99,99,99,124,173,173,0.07,1.01,78,0,0.0,0.18581967348960074,0.3248484978009923,1.082637623544862,5,1,-23,7,1,-1,0.11688728616293971
Dover International Speedway,,"('Practice',)",Chevrolet National Impala,2,3,Not Pacing,False,15,09:45.000216,True,24.472,2,2,00:56.000229,24.472,00:00.000000,0.0,39,0,0,45.93,1,4796,-12,99,157,152,155,157,147,154,177,153,169,171,164,169,99,99,99,99,99,99,99,99,99,99,99,99,124,173,173,0.07,1.01,78,0,0.0,0.1619519686723217,0.3189253879978751,1.0146827386667483,6,-5,-24,7,1,-2,0.10978391669738066
Dover International Speedway,,"('Practice',)",Chevrolet National Impala,2,3,Not Pacing,False,15,09:45.000349,True,24.472,2,2,00:56.000362,24.472,00:00.000000,0.0,39,0,0,46.83,1,4859,-12,99,157,152,155,157,147,154,177,153,169,171,164,169,99,99,99,99,99,99,99,99,99,99,99,99,124,173,173,0.07,1.01,78,0,0.0,0.20882850028688388,0.34328491315929166,1.1627843742098405,6,-7,-26,7,1,-2,0.1255359760764918
Dover International Speedway,,"('Practice',)",Chevrolet National Impala,2,3,Not Pacing,False,15,09:45.000483,True,24.472,2,2,00:56.000496,24.472,00:00.000000,0.0,39,0,0,47.68,1,4973,-13,99,157,152,155,157,147,154,177,153,169,171,164,169,99,99,99,99,99,99,99,99,99,99,99,99,124,173,173,0.07,1.01,78,0,0.0,0.20660819385151372,0.3208865205568397,1.0947514260823816,7,-2,-27,8,1,-2,0.11830292888878012
Dover International Speedway,,"('Practice',)",Chevrolet National Impala,2,3,Not Pacing,False,16,09:45.000649,True,24.472,2,2,00:56.000662,24.472,00:00.000000,0.0,34,0,0,48.66,1,5038,-14,99,157,152,155,157,147,154,177,153,169,171,164,169,99,99,99,99,99,99,99,99,99,99,99,99,124,173,173,0.07,1.01,78,0,0.0,0.19503667813922285,0.24550038861693713,1.0369401945372725,7,-1,-28,9,1,-1,0.11054156157509586
Dover International Speedway,,"('Practice',)",Chevrolet National Impala,2,3,Not Pacing,False,16,09:45.000783,True,24.472,2,2,00:56.000796,24.472,00:00.000000,0.0,34,0,0,49.3,1,5120,-14,99,157,152,155,157,147,154,177,153,169,171,164,169,99,99,99,99,99,99,99,99,99,99,99,99,124,173,173,0.07,1.01,78,0,0.0,0.2275296307485038,0.2569133960751097,0.983447425834508,7,-1,-29,9,1,-3,0.10628632682920514
Dover International Speedway,,"('Practice',)",Chevrolet National Impala,2,3,Not Pacing,False,16,09:45.000933,True,24.472,2,2,00:56.000946,24.472,00:00.000000,0.0,35,0,0,50.06,1,5206,-16,99,157,152,155,157,147,154,177,153,169,171,164,169,99,99,99,99,99,99,99,99,99,99,99,99,124,173,173,0.07,1.01,78,0,0.0,0.26353822449539294,0.24864656601963178,1.005960264215654,7,-1,-31,10,1,-2,0.10910418448005355
Dover International Speedway,,"('Practice',)",Chevrolet National Impala,2,3,Not Pacing,False,16,09:46.000066,True,24.472,2,2,00:57.000079,24.472,00:00.000000,0.0,34,0,0,50.74,1,5266,-17,99,157,152,155,157,147,154,177,153,169,171,164,169,99,99,99,99,99,99,99,99,99,99,99,99,124,173,173,0.07,1.01,78,0,0.0,0.2868334938383734,0.23793610350193717,1.017680736856723,8,-2,-32,10,1,-2,0.11058895024998351
Dover International Speedway,,"('Practice',)",Chevrolet National Impala,2,3,Not Pacing,False,16,09:46.000216,True,24.472,2,2,00:57.000229,24.472,00:00.000000,0.0,36,0,0,51.38,1,5360,-20,99,157,152,155,157,147,154,177,153,169,171,164,169,99,99,99,99,99,99,99,99,99,99,99,99,124,173,173,0.07,1.01,78,0,0.0,0.3463290882402239,0.2865612689143656,0.987238791618386,8,1,-34,12,1,-3,0.11068967232654962
Dover International Speedway,,"('Practice',)",Chevrolet National Impala,2,3,Not Pacing,False,17,09:46.000349,True,24.472,2,2,00:57.000362,24.472,00:00.000000,0.0,39,0,0,52.27,1,5449,-23,99,157,152,155,157,147,154,177,153,169,171,164,169,99,99,99,99,99,99,99,99,99,99,99,99,124,173,173,0.07,1.01,78,0,0.0,0.3006080604109924,0.25794839032685474,0.8357484527805651,7,5,-36,13,1,0,0.09437413329072263
Dover International Speedway,,"('Practice',)",Chevrolet National Impala,2,3,Not Pacing,False,17,09:46.000483,True,24.472,2,2,00:57.000496,24.472,00:00.000000,0.0,39,0,0,53.11,1,5527,-22,99,157,152,155,157,147,154,177,153,169,171,164,169,99,99,99,99,99,99,99,99,99,99,99,99,124,173,173,0.07,1.01,78,0,0.0,0.4345278978104742,0.3014739014200722,0.9766375495996192,7,3,-38,14,1,-2,0.11333064444277387
Dover International Speedway,,"('Practice',)",Chevrolet National Impala,2,3,Not Pacing,False,17,09:46.000633,True,24.472,2,2,00:57.000646,24.472,00:00.000000,0.0,42,0,0,54.03,1,5667,-24,99,157,152,155,157,147,154,177,153,169,171,164,169,99,99,99,99,99,99,99,99,99,99,99,99,124,173,173,0.07,1.01,78,0,0.0,0.4174375388235856,0.3012257613902427,0.7991211373020992,7,-3,-40,14,0,0,0.09699706358385443
Dover International Speedway,,"('Practice',)",Chevrolet National Impala,2,3,Not Pacing,False,17,09:46.000766,True,24.472,2,2,00:57.000779,24.472,00:00.000000,0.0,43,0,0,55.0,1,5784,-20,99,157,152,155,157,147,154,177,153,169,171,164,169,99,99,99,99,99,99,99,99,99,99,99,99,124,173,173,0.07,1.01,78,0,0.0,0.392807441384785,0.23294892636764788,0.8699822498753165,7,0,-42,14,0,0,0.10026163209772629
Dover International Speedway,,"('Practice',)",Chevrolet National Impala,2,3,Not Pacing,False,17,09:46.000916,True,24.472,2,2,00:57.000929,24.472,00:00.000000,0.0,43,0,0,56.25,1,5726,-16,99,157,152,155,157,147,154,177,153,169,171,164,169,99,99,99,99,99,99,99,99,99,99,99,99,124,173,173,0.07,1.01,78,0,0.0,0.5493261277007279,0.4128812406891833,1.586004426355391,5,13,-44,11,0,-4,0.17637542293576675
Dover International Speedway,,"('Practice',)",Chevrolet National Impala,2,3,Not Pacing,False,18,09:47.000066,True,24.472,2,2,00:58.000079,24.472,00:00.000000,0.0,40,0,0,57.12,1,5963,-21,99,157,152,155,157,147,154,177,153,169,171,164,169,99,99,99,99,99,99,99,99,99,99,99,99,124,174,173,0.07,1.01,78,0,0.0,0.4903722368370624,0.24674128319509894,0.9133912493815601,5,-3,-46,13,0,2,0.10874074596387327
Dover International Speedway,,"('Practice',)",Chevrolet National Impala,2,3,Not Pacing,False,18,09:47.000199,True,24.472,2,2,00:58.000212,24.472,00:00.000000,0.0,42,0,0,57.98,1,6005,-21,99,157,152,155,157,147,154,177,153,169,171,164,169,99,99,99,99,99,99,99,99,99,99,99,99,124,174,173,0.07,1.01,78,0,0.0,0.6068924272947476,0.46209764043125534,1.1299748668612324,5,-6,-48,14,0,-1,0.13911632247910902
Dover International Speedway,,"('Practice',)",Chevrolet National Impala,2,3,Not Pacing,False,18,09:47.000349,True,24.472,2,2,00:58.000362,24.472,00:00.000000,0.0,44,0,0,58.97,1,6199,-20,99,157,152,155,157,147,154,177,153,169,171,164,169,99,99,99,99,99,99,99,99,99,99,99,99,124,174,173,0.07,1.01,78,0,0.0,0.5444155312945476,0.3747049092517351,1.0952391512654,6,-2,-50,15,0,-4,0.13053014153358564
Dover International Speedway,,"('Practice',)",Chevrolet National Impala,2,3,Not Pacing,False,18,09:47.000483,True,24.472,2,2,00:58.000496,24.472,00:00.000000,0.0,45,0,0,59.97,1,6275,-15,99,157,152,155,157,147,154,177,153,169,171,164,169,99,99,99,99,99,99,99,99,99,99,99,99,124,174,173,0.07,1.01,78,0,0.0,0.4790351782127015,0.34882186263587006,1.0511610243055556,6,-3,-52,11,0,-1,0.12313121562089117
Dover International Speedway,,"('Practice',)",Chevrolet National Impala,2,3,Not Pacing,False,19,09:47.000633,True,24.472,2,2,00:58.000646,24.472,00:00.000000,0.0,50,0,0,61.19,1,6411,-16,99,157,152,155,157,147,154,177,153,169,171,164,169,99,99,99,99,99,99,99,99,99,99,99,99,124,174,173,0.07,1.01,78,0,0.0,0.4932763258130057,0.48029867516380564,1.1889860170696853,6,0,-54,12,0,-4,0.14019740128156039
Dover International Speedway,,"('Practice',)",Chevrolet National Impala,2,3,Not Pacing,False,19,09:47.000766,True,24.472,2,2,00:58.000779,24.472,00:00.000000,0.0,51,0,0,62.31,1,6569,-17,99,157,152,155,157,147,154,177,153,169,171,164,169,99,99,99,99,99,99,99,99,99,99,99,99,124,174,173,0.07,1.01,78,0,0.0,0.43631572120658724,0.37939565504970413,0.9839579964267369,7,-3,-55,12,0,-1,0.11645561269864331
Dover International Speedway,,"('Practice',)",Chevrolet National Impala,2,3,Not Pacing,False,19,09:47.000899,True,24.472,2,2,00:58.000912,24.472,00:00.000000,0.0,51,0,0,63.5,1,6673,-15,99,157,152,155,157,147,154,177,153,169,171,164,169,99,99,99,99,99,99,99,99,99,99,99,99,124,174,173,0.07,1.01,78,0,0.0,0.43969217547339884,0.41327160554316184,0.9965163609060429,6,3,-57,12,0,-1,0.11887503223547653
Dover International Speedway,,"('Practice',)",Chevrolet National Impala,2,3,Not Pacing,False,19,09:48.000033,True,24.472,2,2,00:59.000046,24.472,00:00.000000,0.0,51,0,0,64.65,1,6809,-15,99,157,152,155,157,147,154,177,153,169,171,164,169,99,99,99,99,99,99,99,99,99,99,99,99,124,174,173,0.07,1.01,78,0,0.0,0.5211403853545737,0.43531159256090324,1.0184321077834817,6,3,-58,11,0,0,0.12490260437330757
Dover International Speedway,,"('Practice',)",Chevrolet National Impala,2,3,Not Pacing,False,20,09:48.000166,True,24.472,2,2,00:59.000179,24.472,00:00.000000,0.0,53,0,0,65.73,1,7022,-13,99,157,152,155,157,147,154,177,153,169,171,164,169,99,99,99,99,99,99,99,99,99,99,99,99,124,174,174,0.07,1.01,78,0,0.0,0.5282021929850758,0.41513044413684214,1.1071140977585352,6,0,-60,14,0,-6,0.13214315135808355
Dover International Speedway,,"('Practice',)",Chevrolet National Impala,2,3,Not Pacing,False,20,09:48.000316,True,24.472,2,2,00:59.000329,24.472,00:00.000000,0.0,56,0,0,67.14,1,6985,-11,99,157,152,155,157,147,154,177,153,169,171,164,169,99,99,99,99,99,99,99,99,99,99,99,99,124,174,174,0.07,1.01,78,0,0.0,0.43694479628318916,0.4052004682908364,1.1127516642501472,6,3,-62,9,0,-1,0.12880301627361931
Dover International Speedway,,"('Practice',)",Chevrolet National Impala,2,3,Not Pacing,False,20,09:48.000449,True,24.472,2,2,00:59.000462,24.472,00:00.000000,0.0,59,0,0,68.43,1,7295,-13,99,157,152,155,157,147,154,177,153,169,171,164,169,99,99,99,99,99,99,99,99,99,99,99,99,124,175,174,0.07,1.01,78,0,0.0,0.46421842351479875,0.4337785197811146,1.008762764031491,5,-4,-63,11,0,-5,0.12164980973415467
Dover International Speedway,,"('Practice',)",Chevrolet National Impala,2,3,Not Pacing,False,20,09:48.000583,True,24.472,2,2,00:59.000596,24.472,00:00.000000,0.0,66,0,0,69.92,1,7416,-13,99,157,152,155,157,147,154,177,153,169,171,164,169,99,99,99,99,99,99,99,99,99,99,99,99,124,175,174,0.07,1.01,78,0,0.0,0.484155514918336,0.47423919771060297,1.050163700675381,5,-4,-65,11,0,-2,0.12753686360160707
Dover International Speedway,,"('Practice',)",Chevrolet National Impala,2,3,Not Pacing,False,21,09:48.000733,True,24.472,2,2,00:59.000746,24.472,00:00.000000,0.0,70,0,0,71.38,1,7688,-15,99,157,152,155,157,147,154,177,153,169,171,164,169,99,99,99,99,99,99,99,99,99,99,99,99,124,175,174,0.07,1.01,78,0,0.0,0.5332311966611218,0.6357676635337774,1.0451525844686742,6,1,-67,13,0,-3,0.1361730758250252
Dover International Speedway,,"('Practice',)",Chevrolet National Impala,2,3,Not Pacing,False,21,09:48.000866,True,24.472,2,2,00:59.000879,24.472,00:00.000000,0.0,40,0,24,73.09,1,7662,-14,99,157,152,155,157,147,154,177,153,169,171,164,169,99,99,99,99,99,99,99,99,99,99,99,99,124,175,174,0.07,1.01,78,0,0.0,0.6415192626424278,0.37553286090660287,1.007469422226652,6,-4,-68,13,0,-1,0.12775765021109417
Dover International Speedway,,"('Practice',)",Chevrolet National Impala,2,3,Not Pacing,False,21,09:48.000999,True,24.472,2,2,01:00.000012,24.472,00:00.000000,0.0,0,0,100,73.27,1,6948,-11,99,157,152,155,157,147,154,177,153,169,171,164,169,99,99,99,99,99,99,99,99,99,99,99,99,124,175,174,0.07,1.01,78,0,0.0,0.5743122489688107,-0.12747439404875494,1.0128097067550053,6,-2,-70,12,0,-1,0.11951710168105914
Dover International Speedway,,"('Practice',)",Chevrolet National Impala,2,3,Not Pacing,False,22,09:49.000149,True,24.472,2,2,01:00.000162,24.472,00:00.000000,0.0,0,0,100,73.12,2,6086,-11,99,157,152,155,157,147,154,177,153,169,171,164,169,99,99,99,99,99,99,99,99,99,99,99,99,124,175,174,0.07,1.01,78,0,0.0,0.5368365910925753,-0.20381149045067337,1.0797638654951898,6,-1,-72,10,0,1,0.12479148182431914
Dover International Speedway,,"('Practice',)",Chevrolet National Impala,2,3,Not Pacing,False,22,09:49.000283,True,24.472,2,2,01:00.000296,24.472,00:00.000000,0.0,50,0,0,73.41,2,5841,-12,99,157,152,155,157,147,154,177,153,169,171,164,169,99,99,99,99,99,99,99,99,99,99,99,99,124,175,174,0.07,1.01,78,0,0.0,0.6459555494675943,0.29044447810399543,1.1341928099030505,6,3,-73,13,0,-6,0.13644539517354776
Dover International Speedway,,"('Practice',)",Chevrolet National Impala,2,3,Not Pacing,False,22,09:49.000433,True,24.472,2,2,01:00.000446,24.472,00:00.000000,0.0,73,0,0,74.64,2,5961,-15,99,157,152,155,157,147,154,177,153,169,171,164,169,99,99,99,99,99,99,99,99,99,99,99,99,124,175,174,0.07,1.01,78,0,0.0,0.4767777115319239,0.3850468072687085,0.9560895136250875,6,-1,-75,10,0,1,0.11588194617113594
Dover International Speedway,,"('Practice',)",Chevrolet National Impala,2,3,Not Pacing,False,23,09:49.000566,True,24.472,2,2,01:00.000579,24.472,00:00.000000,0.0,84,0,0,76.28,2,6185,-15,99,157,152,155,157,147,154,177,153,169,171,164,169,99,99,99,99,99,99,99,99,99,99,99,99,124,176,174,0.07,1.01,78,0,0.0,0.6740118993045601,0.6266296942785731,1.1518562970176018,5,3,-77,16,0,-4,0.1504446326599871
Dover International Speedway,,"('Practice',)",Chevrolet National Impala,2,3,Not Pacing,False,23,09:49.000699,True,24.472,2,2,01:00.000712,24.472,00:00.000000,0.0,88,0,0,77.85,2,6351,-15,99,157,152,155,157,147,154,177,153,169,171,164,169,99,99,99,99,99,99,99,99,99,99,99,99,124,176,174,0.07,1.01,78,0,0.0,0.8960704434051668,0.6020748651720332,1.2700903306313611,5,-1,-79,16,0,-5,0.17009214957161511
Dover International Speedway,,"('Practice',)",Chevrolet National Impala,2,3,Not Pacing,False,23,09:49.000833,True,24.472,2,2,01:00.000846,24.472,00:00.000000,0.0,88,0,0,79.46,2,6442,-17,99,157,152,155,157,147,154,177,153,169,171,164,169,99,99,99,99,99,99,99,99,99,99,99,99,124,176,174,0.07,1.01,78,0,0.0,0.7282155004845482,0.5377837520369939,0.9616786672920747,5,-4,-81,14,0,1,0.13476864955473603
Dover International Speedway,,"('Practice',)",Chevrolet National Impala,2,3,Not Pacing,False,23,09:49.000966,True,24.472,2,2,01:00.000979,24.472,00:00.000000,0.0,88,0,0,80.79,2,6824,-13,99,157,152,155,157,147,154,177,153,169,171,164,169,99,99,99,99,99,99,99,99,99,99,99,99,124,176,175,0.07,1.01,78,0,0.0,0.8026992144570073,0.5961940193759556,1.1177002715286737,6,-2,-83,21,0,-4,0.15302813365444556
Dover International Speedway,,"('Practice',)",Chevrolet National Impala,2,3,Not Pacing,False,24,09:50.000116,True,24.472,2,2,01:01.000129,24.472,00:00.000000,0.0,87,0,0,82.36,2,6882,-10,99,157,152,155,157,147,154,177,153,169,171,164,169,99,99,99,99,99,99,99,99,99,99,99,99,124,176,175,0.07,1.01,78,0,0.0,0.8994866584054555,0.4666935048701201,1.0360291973895617,6,1,-86,22,0,-3,0.1478794850086821
Dover International Speedway,,"('Practice',)",Chevrolet National Impala,2,3,Not Pacing,False,24,09:50.000266,True,24.472,2,2,01:01.000279,24.472,00:00.000000,0.0,80,0,0,83.93,2,7078,1,99,157,152,155,157,147,154,177,153,169,171,164,169,99,99,99,99,99,99,99,99,99,99,99,99,124,176,175,0.07,1.01,78,0,0.0,0.987752181431326,0.540398676461036,1.0912950614905867,6,-3,-90,26,0,-3,0.15999954487248258
Dover International Speedway,,"('Practice',)",Chevrolet National Impala,2,3,Not Pacing,False,24,09:50.000399,True,24.472,2,2,01:01.000412,24.472,00:00.000000,0.0,50,0,0,85.15,2,7091,16,99,157,152,155,157,147,154,177,153,169,171,164,169,99,99,99,99,99,99,99,99,99,99,99,99,124,176,175,0.07,1.01,78,0,0.0,1.0637901609461606,0.3398092028805483,1.0356312984112692,5,7,-94,26,-1,0,0.15541228327237314
Dover International Speedway,,"('Practice',)",Chevrolet National Impala,2,3,Not Pacing,False,25,09:50.000549,True,24.472,2,2,01:01.000562,24.472,00:00.000000,0.0,6,0,0,85.34,2,6570,54,99,157,152,155,157,147,154,177,153,169,171,164,169,99,99,99,99,99,99,99,99,99,99,99,99,124,176,175,0.07,1.01,78,0,0.0,0.9869436483742872,-0.03638155416611138,1.0463119646824828,5,-3,-97,11,-1,-1,0.14681649213009754
Dover International Speedway,,"('Practice',)",Chevrolet National Impala,2,3,Not Pacing,False,25,09:50.000683,True,24.472,2,2,01:01.000696,24.472,00:00.000000,0.0,3,0,0,84.56,2,6434,47,99,157,152,155,157,147,154,177,153,169,171,164,169,99,99,99,99,99,99,99,99,99,99,99,99,124,176,175,0.07,1.01,78,0,0.0,0.7018328928194035,-0.23620850449308342,1.0910065288329829,5,5,-97,-19,-1,0,0.13454920775121512
Dover International Speedway,,"('Practice',)",Chevrolet National Impala,2,3,Not Pacing,False,25,09:50.000816,True,24.472,2,2,01:01.000829,24.472,00:00.000000,0.0,12,0,0,83.88,2,6555,-12,99,157,152,155,157,147,154,177,153,169,171,164,169,99,99,99,99,99,99,99,99,99,99,99,99,124,176,175,0.07,1.01,78,0,0.0,-0.07285463579082586,-0.14099778263819204,0.7999157200773435,5,-2,-94,-17,-1,-2,0.08321510415718561
Dover International Speedway,,"('Practice',)",Chevrolet National Impala,2,3,Not Pacing,False,26,09:50.000966,True,24.472,2,2,01:01.000979,24.472,00:00.000000,0.0,11,0,0,83.74,2,6465,-28,99,157,152,155,157,147,154,177,153,169,171,164,169,99,99,99,99,99,99,99,99,99,99,99,99,124,176,174,0.07,1.01,78,0,0.0,0.6514554116096457,-0.11255837118710703,1.1822713138374226,6,-12,-94,22,-1,-4,0.1382202652657709
Dover International Speedway,,"('Practice',)",Chevrolet National Impala,2,3,Not Pacing,False,26,09:51.000099,True,24.472,2,2,01:02.000112,24.472,00:00.000000,0.0,6,0,0,83.15,2,6431,-15,99,157,152,155,157,147,154,177,153,169,171,164,169,99,99,99,99,99,99,99,99,99,99,99,99,124,176,174,0.07,1.01,78,0,0.0,1.0458511679179807,-0.17997049531926923,1.4044785961341661,6,-1,-98,19,-1,0,0.17962529174768838
Dover International Speedway,,"('Practice',)",Chevrolet National Impala,2,3,Not Pacing,False,26,09:51.000249,True,24.472,2,2,01:02.000262,24.472,00:00.000000,0.0,10,0,0,82.62,2,6385,-7,99,157,152,155,157,147,154,177,153,169,171,164,169,99,99,99,99,99,99,99,99,99,99,99,99,124,177,174,0.07,1.01,78,0,0.0,0.8630723399124378,-0.14505776425749517,1.149644569762499,7,-7,-100,14,-1,-3,0.14743461746583858
Dover International Speedway,,"('Practice',)",Chevrolet National Impala,2,3,Not Pacing,False,27,09:51.000399,True,24.472,2,2,01:02.000412,24.472,00:00.000000,0.0,22,0,0,82.2,2,6469,-16,99,157,152,155,157,147,154,177,153,169,171,164,169,99,99,99,99,99,99,99,99,99,99,99,99,124,177,174,0.07,1.01,78,0,0.0,0.7115207073277775,-0.042378300920538944,1.0131851491821164,7,-6,-102,8,-1,2,0.1264071889755538
Dover International Speedway,,"('Practice',)",Chevrolet National Impala,2,3,Not Pacing,False,27,09:51.000533,True,24.472,2,2,01:02.000546,24.472,00:00.000000,0.0,25,0,0,82.24,2,6403,-19,99,157,152,155,157,147,154,177,153,169,171,164,169,99,99,99,99,99,99,99,99,99,99,99,99,124,177,174,0.07,1.01,78,0,0.0,0.913400970832288,-0.03470590719753813,1.2159180325227168,8,-3,-104,20,-1,-7,0.15522157368072018
Dover International Speedway,,"('Practice',)",Chevrolet National Impala,2,3,Not Pacing,False,27,09:51.000666,True,24.472,2,2,01:02.000679,24.472,00:00.000000,0.0,36,0,0,82.34,2,6487,-14,99,157,152,155,157,147,154,177,153,169,171,164,169,99,99,99,99,99,99,99,99,99,99,99,99,124,177,174,0.07,1.01,78,0,0.0,0.8969045438776201,0.13426555649099242,1.2535173958594645,8,-1,-106,14,0,-4,0.1578756721118136
Dover International Speedway,,"('Practice',)",Chevrolet National Impala,2,3,Not Pacing,False,28,09:51.000816,True,24.472,2,2,01:02.000829,24.472,00:00.000000,0.0,41,0,0,82.77,2,6533,-18,99,157,152,155,157,147,154,177,153,169,171,164,169,99,99,99,99,99,99,99,99,99,99,99,99,124,177,174,0.07,1.01,78,0,0.0,0.8665307460088856,0.23127887834710326,1.2351667966074655,8,4,-108,15,-1,0,0.155758628665932
Dover International Speedway,,"('Practice',)",Chevrolet National Impala,2,3,Not Pacing,False,28,09:51.000983,True,24.472,2,2,01:02.000996,24.472,00:00.000000,0.0,43,0,0,83.42,2,6622,-18,99,157,152,155,157,147,154,177,153,169,171,164,169,99,99,99,99,99,99,99,99,99,99,99,99,124,177,174,0.07,1.01,78,0,0.0,0.8178952029478052,0.1702787436233505,0.9764006378453806,8,-1,-111,16,-1,-2,0.1311256498902499
Dover International Speedway,,"('Practice',)",Chevrolet National Impala,2,3,Not Pacing,False,29,09:52.000116,True,24.472,2,2,01:03.000129,24.472,00:00.000000,0.0,43,0,0,84.07,2,6593,-11,99,157,152,155,157,147,154,177,153,169,171,164,169,99,99,99,99,99,99,99,99,99,99,99,99,124,177,174,0.07,1.01,78,0,0.0,0.9837953565560592,0.23233992608679907,1.2797058175463194,9,-10,-113,14,-1,-2,0.16640733370597768
Dover International Speedway,,"('Practice',)",Chevrolet National Impala,2,3,Not Pacing,False,29,09:52.000266,True,24.472,2,2,01:03.000279,24.472,00:00.000000,0.0,46,0,0,84.64,2,6642,-9,99,157,152,155,157,147,154,177,153,169,171,164,169,99,99,99,99,99,99,99,99,99,99,99,99,124,177,174,0.07,1.01,78,0,0.0,0.8790024923622061,0.22168166775951326,1.3084354264534455,8,4,-116,12,-1,-2,0.16242742295563686
Dover International Speedway,,"('Practice',)",Chevrolet National Impala,2,3,Not Pacing,False,29,09:52.000399,True,24.472,2,2,01:03.000412,24.472,00:00.000000,0.0,42,0,0,85.22,2,6722,-18,99,157,152,155,157,147,154,177,153,169,171,164,169,99,99,99,99,99,99,99,99,99,99,99,99,124,177,174,0.07,1.01,78,0,0.0,0.8258860410171182,0.21161729285719438,1.126376374659796,8,6,-117,14,-1,-3,0.14414844120770873
Dover International Speedway,,"('Practice',)",Chevrolet National Impala,2,3,Not Pacing,False,30,09:52.000533,True,24.472,2,2,01:03.000546,24.472,00:00.000000,0.0,42,0,0,85.77,2,6800,-22,99,157,152,155,157,147,154,177,153,169,171,164,169,99,99,99,99,99,99,99,99,99,99,99,99,124,177,174,0.07,1.01,78,0,0.0,0.8157337355929655,0.15286359096764301,0.9115362993681709,7,-7,-119,17,-1,-3,0.1257914233714404
Dover International Speedway,,"('Practice',)",Chevrolet National Impala,2,3,Not Pacing,False,30,09:52.000683,True,24.472,2,2,01:03.000696,24.472,00:00.000000,0.0,42,0,0,86.23,2,6816,-12,99,157,152,155,157,147,154,177,153,169,171,164,169,99,99,99,99,99,99,99,99,99,99,99,99,124,177,174,0.07,1.01,78,0,0.0,1.0540447954494776,0.21189831569411094,1.2729137315662629,8,-4,-122,19,-1,-5,0.17002035473048185
Dover International Speedway,,"('Practice',)",Chevrolet National Impala,2,3,Not Pacing,False,30,09:52.000816,True,24.472,2,2,01:03.000829,24.472,00:00.000000,0.0,47,0,0,86.86,2,6837,-8,99,157,152,155,157,147,154,177,153,169,171,164,169,99,99,99,99,99,99,99,99,99,99,99,99,124,177,174,0.07,1.01,78,0,0.0,0.9781336808666419,0.3384259133528496,1.3123696003485164,8,7,-124,9,-1,3,0.1705514356892791
Dover International Speedway,,"('Practice',)",Chevrolet National Impala,2,3,Not Pacing,False,31,09:52.000949,True,24.472,2,2,01:03.000962,24.472,00:00.000000,0.0,51,0,0,87.47,2,6941,-11,99,157,152,155,157,147,154,177,153,169,171,164,169,99,99,99,99,99,99,99,99,99,99,99,99,124,178,174,0.07,1.01,78,0,0.0,0.705105959457724,0.2652751074896918,0.9381178565224618,8,-8,-126,13,-1,-4,0.12277212502807991
Dover International Speedway,,"('Practice',)",Chevrolet National Impala,2,3,Not Pacing,False,31,09:53.000083,True,24.472,2,2,01:04.000096,24.472,00:00.000000,0.0,54,0,0,88.3,2,6979,-15,99,157,152,155,157,147,154,177,153,169,171,164,169,99,99,99,99,99,99,99,99,99,99,99,99,124,178,174,0.07,1.01,78,0,0.0,0.9531116388381196,0.2886532522001276,1.3095612676622428,8,-3,-128,14,-1,-4,0.1678778664043694
Dover International Speedway,,"('Practice',)",Chevrolet National Impala,2,3,Not Pacing,False,31,09:53.000233,True,24.472,2,2,01:04.000246,24.472,00:00.000000,0.0,56,0,0,89.28,2,7057,-8,99,157,152,155,157,147,154,177,153,169,171,164,169,99,99,99,99,99,99,99,99,99,99,99,99,124,178,174,0.07,1.01,78,0,0.0,0.7502038179916708,0.30444830078840496,1.136819157031698,8,1,-130,12,-1,0,0.14241375551927776
Dover International Speedway,,"('Practice',)",Chevrolet National Impala,2,3,Not Pacing,False,32,09:53.000366,True,24.472,2,2,01:04.000379,24.472,00:00.000000,0.0,56,0,0,90.04,2,7222,-12,99,157,152,155,157,147,154,177,153,169,171,164,169,99,99,99,99,99,99,99,99,99,99,99,99,124,178,174,0.07,1.01,78,0,0.0,0.8026621757297341,0.38078288176494757,1.176976234054954,9,-2,-132,14,-1,-5,0.1504725039924335
Dover International Speedway,,"('Practice',)",Chevrolet National Impala,2,3,Not Pacing,False,32,09:53.000516,True,24.472,2,2,01:04.000529,24.472,00:00.000000,0.0,53,0,0,90.94,2,7210,-13,99,157,152,155,157,147,154,177,153,169,171,164,169,99,99,99,99,99,99,99,99,99,99,99,99,124,178,174,0.07,1.01,78,0,0.0,0.9235744690190275,0.3541609805901359,1.2448362375739639,9,4,-134,15,0,-6,0.16224287825638176
Dover International Speedway,,"('Practice',)",Chevrolet National Impala,2,3,Not Pacing,False,32,09:53.000649,True,24.472,2,2,01:04.000662,24.472,00:00.000000,0.0,49,0,0,91.69,2,7305,-16,99,157,152,155,157,147,154,177,153,169,171,164,169,99,99,99,99,99,99,99,99,99,99,99,99,124,178,174,0.07,1.01,78,0,0.0,0.8778245441775073,0.26261964461611437,1.1397438554831842,8,-5,-136,15,-1,-4,0.1492226513267889
Dover International Speedway,,"('Practice',)",Chevrolet National Impala,2,3,Not Pacing,False,33,09:53.000783,True,24.472,2,2,01:04.000796,24.472,00:00.000000,0.0,47,0,0,92.29,2,7303,-20,99,157,152,155,157,147,154,177,153,169,171,164,169,99,99,99,99,99,99,99,99,99,99,99,99,124,178,174,0.07,1.01,78,0,0.0,0.8464985302099758,0.18473844158783112,0.9861542665751823,9,-2,-138,16,-1,-3,0.13394925169518482
Dover International Speedway,,"('Practice',)",Chevrolet National Impala,2,3,Not Pacing,False,33,09:53.000933,True,24.472,2,2,01:04.000946,24.472,00:00.000000,0.0,47,0,0,92.86,2,7384,-11,99,157,152,155,157,147,154,177,153,169,171,164,169,99,99,99,99,99,99,99,99,99,99,99,99,124,178,174,0.07,1.01,78,0,0.0,0.906862809145244,0.17089578840467665,1.1421261941985617,10,-8,-140,19,-1,-6,0.14983184273460878
Dover International Speedway,,"('Practice',)",Chevrolet National Impala,2,3,Not Pacing,False,33,09:54.000066,True,24.472,2,2,01:05.000079,24.472,00:00.000000,0.0,47,0,0,93.44,2,7357,-13,99,157,152,155,157,147,154,177,153,169,171,164,169,99,99,99,99,99,99,99,99,99,99,99,99,124,179,174,0.07,1.01,78,0,0.0,0.9856773322024719,0.20519773286903062,1.2493708082659893,10,2,-143,13,0,-2,0.1637299933360457
Dover International Speedway,,"('Practice',)",Chevrolet National Impala,2,3,Not Pacing,False,34,09:54.000216,True,24.472,2,2,01:05.000229,24.472,00:00.000000,0.0,46,0,0,93.97,2,7377,-16,99,157,152,155,157,147,154,177,153,169,171,164,169,99,99,99,99,99,99,99,99,99,99,99,99,124,179,174,0.07,1.01,78,0,0.0,1.078140480438139,0.23863113862172786,1.3600155969400045,10,0,-145,14,0,-2,0.1787600793533677
Dover International Speedway,,"('Practice',)",Chevrolet National Impala,2,3,Not Pacing,False,34,09:54.000366,True,24.472,2,2,01:05.000379,24.472,00:00.000000,0.0,44,0,0,94.48,2,7450,-23,99,157,152,155,157,147,154,177,153,169,171,164,169,99,99,99,99,99,99,99,99,99,99,99,99,124,179,174,0.07,1.01,78,0,0.0,0.8251734586787637,0.1515657043845889,0.9323252328917399,10,2,-147,16,-1,1,0.1279835010720067
Dover International Speedway,,"('Practice',)",Chevrolet National Impala,2,3,Not Pacing,False,35,09:54.000499,True,24.472,2,2,01:05.000512,24.472,00:00.000000,0.0,45,0,0,94.94,2,7490,-13,99,157,152,155,157,147,154,177,153,169,171,164,169,99,99,99,99,99,99,99,99,99,99,99,99,124,179,174,0.07,1.01,78,0,0.0,1.3879666148583336,0.23268251001045,1.4784263665279966,10,-4,-150,21,-1,-8,0.2082817038928332
Dover International Speedway,,"('Practice',)",Chevrolet National Impala,2,3,Not Pacing,False,35,09:54.000633,True,24.472,2,2,01:05.000646,24.472,00:00.000000,0.0,47,0,0,95.44,2,7452,-12,99,157,152,155,157,147,154,177,153,169,171,164,169,99,99,99,99,99,99,99,99,99,99,99,99,124,179,174,0.07,1.01,78,0,0.0,1.0977544794267349,0.21936956652564496,1.3485418547184094,10,-1,-152,11,-1,-1,0.17884099297384964
Dover International Speedway,,"('Practice',)",Chevrolet National Impala,2,3,Not Pacing,False,35,09:54.000783,True,24.472,2,2,01:05.000796,24.472,00:00.000000,0.0,48,0,0,95.9,2,7563,-15,99,157,152,155,157,147,154,177,153,169,171,164,169,99,99,99,99,99,99,99,99,99,99,99,99,124,179,174,0.07,1.01,78,0,0.0,0.8826155667397346,0.24540215335733176,1.1290098184474746,10,1,-154,12,-1,1,0.14835961387064864
Dover International Speedway,,"('Practice',)",Chevrolet National Impala,2,3,Not Pacing,False,36,09:54.000916,True,24.472,2,2,01:05.000929,24.472,00:00.000000,0.0,52,0,0,96.54,2,7598,-19,99,157,152,155,157,147,154,177,153,169,171,164,169,99,99,99,99,99,99,99,99,99,99,99,99,124,180,174,0.07,1.01,78,0,0.0,1.2362457804237543,0.27663938617609085,1.4116750944645031,10,-1,-156,20,-1,-9,0.1935458911841876
Dover International Speedway,,"('Practice',)",Chevrolet National Impala,2,3,Not Pacing,False,36,09:55.000049,True,24.472,2,2,01:06.000062,24.472,00:00.000000,0.0,53,0,0,97.14,2,7675,-18,99,157,152,155,157,147,154,177,153,169,171,164,169,99,99,99,99,99,99,99,99,99,99,99,99,124,180,174,0.07,1.01,78,0,0.0,1.0420087645177811,0.2681643469496483,1.1664645265973914,10,2,-159,17,-1,-2,0.16193121627988138
Dover International Speedway,,"('Practice',)",Chevrolet National Impala,2,3,Not Pacing,False,37,09:55.000199,True,24.472,2,2,01:06.000212,24.472,00:00.000000,0.0,52,0,0,97.7,2,7775,-24,99,157,152,155,157,147,154,177,153,169,171,164,169,99,99,99,99,99,99,99,99,99,99,99,99,124,180,174,0.07,1.01,78,0,0.0,1.1511217442006023,0.2221883254678242,1.15432078199163,10,-3,-161,20,-1,-3,0.16788444631498092
Dover International Speedway,,"('Practice',)",Chevrolet National Impala,2,3,Not Pacing,False,37,09:55.000333,True,24.472,2,2,01:06.000346,24.472,00:00.000000,0.0,50,0,0,98.29,2,7758,-16,99,157,152,155,157,147,154,177,153,169,171,164,169,99,99,99,99,99,99,99,99,99,99,99,99,124,180,174,0.07,1.01,78,0,0.0,1.4626521461479038,0.23555293846324799,1.474550424122786,10,0,-164,21,-1,-6,0.2132905814709482
Dover International Speedway,,"('Practice',)",Chevrolet National Impala,2,3,Not Pacing,False,37,09:55.000499,True,24.472,2,2,01:06.000512,24.472,00:00.000000,0.0,52,0,0,98.78,2,7851,-13,99,157,152,155,157,147,154,177,153,169,171,164,169,99,99,99,99,99,99,99,99,99,99,99,99,124,180,174,0.07,1.01,78,0,0.0,1.219498248396785,0.23568033807503702,1.2458021609182872,10,4,-167,17,-1,-5,0.17950903192356418
Dover International Speedway,,"('Practice',)",Chevrolet National Impala,2,3,Not Pacing,False,38,09:55.000633,True,24.472,2,2,01:06.000646,24.472,00:00.000000,0.0,55,0,0,99.43,2,7880,-18,99,157,152,155,157,147,154,177,153,169,171,164,169,99,99,99,99,99,99,99,99,99,99,99,99,124,180,174,0.07,1.01,78,0,0.0,0.5419160977051527,0.10481544226316865,0.6141959587975987,10,-5,-169,9,-1,6,0.08426223975693825
Dover International Speedway,,"('Practice',)",Chevrolet National Impala,2,3,Not Pacing,False,38,09:55.000783,True,24.472,2,2,01:06.000796,24.472,00:00.000000,0.0,63,0,0,99.66,2,7911,-3,99,157,152,155,157,147,154,177,153,169,171,164,169,99,99,99,99,99,99,99,99,99,99,99,99,124,181,174,0.07,1.01,78,0,0.0,1.1584392745925016,0.26028783314089526,1.3580609048421473,8,-10,-172,15,-1,-10,0.18407158470303894
Dover International Speedway,,"('Practice',)",Chevrolet National Impala,2,3,Not Pacing,False,39,09:55.000916,True,24.472,2,2,01:06.000929,24.472,00:00.000000,0.0,67,0,0,100.34,2,7927,-12,99,157,152,155,157,147,154,177,153,169,171,164,169,99,99,99,99,99,99,99,99,99,99,99,99,124,181,174,0.07,1.01,78,0,0.0,0.9456716181670489,0.09458456321350782,1.259238372398322,10,-12,-173,8,-1,-1,0.1609828442101877
Dover International Speedway,,"('Practice',)",Chevrolet National Impala,2,3,Not Pacing,False,39,09:56.000049,True,24.472,2,2,01:07.000062,24.472,00:00.000000,0.0,75,0,0,100.59,2,7822,-4,99,157,152,155,157,147,154,177,153,169,171,164,169,99,99,99,99,99,99,99,99,99,99,99,99,124,181,174,0.07,1.01,78,0,0.0,0.6958240155172396,0.033353297960746056,1.2777839839519223,11,-18,-174,10,-1,-6,0.14850411308260617
Dover International Speedway,,"('Practice',)",Chevrolet National Impala,2,3,Not Pacing,False,39,09:56.000199,True,24.472,2,2,01:07.000212,24.472,00:00.000000,0.0,82,0,0,100.76,2,7890,-4,99,157,152,155,157,147,154,177,153,169,171,164,169,99,99,99,99,99,99,99,99,99,99,99,99,124,181,174,0.07,1.01,78,0,0.0,0.5398283189468306,0.08043920835831357,1.468991990240099,14,-10,-176,9,-1,-4,0.15990881888704334
Dover International Speedway,,"('Practice',)",Chevrolet National Impala,2,3,Not Pacing,False,40,09:56.000333,True,24.472,2,2,01:07.000346,24.472,00:00.000000,0.0,0,0,62,100.74,2,7633,-4,99,157,152,155,157,147,154,177,153,169,171,164,169,99,99,99,99,99,99,99,99,99,99,99,99,124,181,174,0.07,1.01,78,0,0.0,0.4768467824393456,-0.07283440302149843,1.2079909671701787,16,-16,-177,9,0,-5,0.13272878062451404
Dover International Speedway,,"('Practice',)",Chevrolet National Impala,2,3,Not Pacing,False,40,09:56.000483,True,24.472,2,2,01:07.000496,24.472,00:00.000000,0.0,0,0,100,100.48,3,6649,4,99,157,152,155,157,147,154,177,153,169,171,164,169,99,99,99,99,99,99,99,99,99,99,99,99,124,182,174,0.07,1.01,78,0,0.0,0.16907073185227575,-0.12682269229558385,1.1475008926624917,17,0,-178,4,-1,-4,0.11906144165040833
Dover International Speedway,,"('Practice',)",Chevrolet National Impala,2,3,Not Pacing,False,41,09:56.000633,True,24.472,2,2,01:07.000646,24.472,00:00.000000,0.0,99,0,4,100.75,3,6043,7,99,157,152,155,157,147,154,177,153,169,171,164,169,99,99,99,99,99,99,99,99,99,99,99,99,124,182,174,0.07,1.01,78,0,0.0,-0.07665185267286076,0.4336834439929958,0.8452411577728302,16,3,-178,-1,-1,-2,0.09725455821265079
Dover International Speedway,,"('Practice',)",Chevrolet National Impala,2,3,Not Pacing,False,41,09:56.000766,True,24.472,2,2,01:07.000779,24.472,00:00.000000,0.0,100,0,0,102.07,3,6098,2,99,157,152,155,157,147,154,177,153,169,171,164,169,99,99,99,99,99,99,99,99,99,99,99,99,124,182,174,0.07,1.01,78,0,0.0,-0.3123228460033856,0.4399913045122961,0.9903263243695646,16,0,-178,-2,-1,0,0.11507942935927234
Dover International Speedway,,"('Practice',)",Chevrolet National Impala,2,3,Not Pacing,False,41,09:56.000899,True,24.472,2,2,01:07.000912,24.472,00:00.000000,0.0,100,0,0,103.26,3,6203,1,99,157,152,155,157,147,154,177,153,169,171,164,169,99,99,99,99,99,99,99,99,99,99,99,99,124,182,174,0.07,1.01,78,0,0.0,-0.3602341895924917,0.38879214198338996,0.91852407815138,16,5,-178,-1,0,-3,0.10821208386002062
