TrackName,TrackType,SessionFlag,CarName,RacePosition,Lap Nbr,PaceMode,OnPitRoad,LapDistPrct %,SessionTime,IsOnTrack,PreviousLap,LapBestLap,LapCompleted,CurrentLapTime,LapBestLapTime,LapDeltaToBestLap,LapDeltaToBestLap_DD,Throttle %,Brake %,Clutch %,Speed (MPH),currentGear,RPM,SteeringWheelAngle (deg),FuelLevelPct,LFtempCL (F),LFtempCR (F),LFtempCM (F),LRtempCL (F),LRtempCR (F),LRtempCM (F),RFtempCL (F),RFtempCR (F),RFtempCM (F),RRtempCL (F),RRtempCR (F),RRtempCM (F),LFwearL %,LFwearM %,LFwearR %,LRwearL %,LRwearM %,LRwearR %,RFwearL %,RFwearM %,RFwearR %,RRwearL %,RRwearM %,RRwearR %,TrackTemp (F),OilTemp (F),WaterTemp (F),AirDensity (lbs/ft^3),AirPressure (bar),AirTemp (F),WindDir (deg),WindVel (MPH),LatAccel (m/s),LongAccel (m/s),VertAccel (m/s),Roll (deg),RollRate (deg/s),Yaw (deg),YawRate (deg/s),Pitch (deg),PitchRate (deg/s),gForces
Las Vegas Motor Speedway,Oval,"('Practice',)",NASCAR Chevrolet Camaro ZL1,0,0,Not Pacing,True,9,11:35.916,True,0.0,0,0,00:00.000,0.0,00:00.000,0.0,0,100,0,0,N,2000,1,99,65,65,65,65,65,65,65,65,65,65,65,65,100,100,100,100,100,100,100,100,100,100,100,100,65,171,170,0.07,0.95,65,0,0,0.01,0.01,1.0,0,0,11,0,-1,-1,0.1
Las Vegas Motor Speedway,Oval,"('Practice',)",NASCAR Chevrolet Camaro ZL1,0,0,Not Pacing,True,9,11:36.183,True,0.0,0,0,00:00.000,0.0,00:00.000,0.0,0,100,0,0,N,2000,1,99,65,65,65,65,65,65,65,65,65,65,65,65,100,100,100,100,100,100,100,100,100,100,100,100,65,171,170,0.07,0.95,65,0,0,0.01,0.01,1.0,0,0,11,0,-1,-1,0.1
Las Vegas Motor Speedway,Oval,"('Practice',)",NASCAR Chevrolet Camaro ZL1,0,0,Not Pacing,True,9,11:36.433,True,0.0,0,0,00:00.000,0.0,00:00.000,0.0,50,100,0,0,N,3330,1,99,65,65,65,65,65,65,65,65,65,65,65,65,100,100,100,100,100,100,100,100,100,100,100,100,65,171,170,0.07,0.95,65,0,0,0.01,0.01,1.01,0,0,11,0,-1,0,0.1
Las Vegas Motor Speedway,Oval,"('Practice',)",NASCAR Chevrolet Camaro ZL1,0,0,Not Pacing,True,9,11:36.699,True,0.0,0,0,00:00.000,0.0,00:00.000,0.0,0,100,0,0,N,4738,2,99,65,65,65,65,65,65,65,65,65,65,65,65,100,100,100,100,100,100,100,100,100,100,100,100,65,171,171,0.07,0.95,65,0,0,0.01,0.01,1.0,0,-1,11,-1,-1,-1,0.1
Las Vegas Motor Speedway,Oval,"('Practice',)",NASCAR Chevrolet Camaro ZL1,0,0,Not Pacing,True,9,11:36.966,True,0.0,0,0,00:00.000,0.0,00:00.000,0.0,0,100,0,0,N,3927,2,99,65,65,65,65,65,65,65,65,65,65,65,65,100,100,100,100,100,100,100,100,100,100,100,100,65,172,171,0.07,0.95,65,0,0,0.01,0.01,1.0,0,0,11,-1,-1,0,0.1
Las Vegas Motor Speedway,Oval,"('Practice',)",NASCAR Chevrolet Camaro ZL1,0,0,Not Pacing,True,9,11:37.216,True,0.0,0,0,00:00.000,0.0,00:00.000,0.0,0,100,0,0,N,3165,2,99,65,65,65,65,65,65,65,65,65,65,65,65,100,100,100,100,100,100,100,100,100,100,100,100,65,172,171,0.07,0.95,65,0,0,0.01,0.01,1.0,0,0,11,-1,-1,0,0.1
Las Vegas Motor Speedway,Oval,"('Practice',)",NASCAR Chevrolet Camaro ZL1,0,0,Not Pacing,True,9,11:37.483,True,0.0,0,0,00:00.000,0.0,00:00.000,0.0,0,100,0,0,N,2480,2,99,65,65,65,65,65,65,65,65,65,65,65,65,100,100,100,100,100,100,100,100,100,100,100,100,65,172,171,0.07,0.95,65,0,0,0.01,0.01,1.0,0,-1,11,-1,-1,-1,0.1
Las Vegas Motor Speedway,Oval,"('Practice',)",NASCAR Chevrolet Camaro ZL1,0,0,Not Pacing,True,9,11:37.733,True,0.0,0,0,00:00.000,0.0,00:00.000,0.0,11,100,0,0,1,2457,2,99,65,65,65,65,65,65,65,65,65,65,65,65,100,100,100,100,100,100,100,100,100,100,100,100,65,172,171,0.07,0.95,65,0,0,0.01,0.01,1.0,0,0,11,0,-1,0,0.1
Las Vegas Motor Speedway,Oval,"('Practice',)",NASCAR Chevrolet Camaro ZL1,0,0,Not Pacing,True,9,11:37.999,True,0.0,0,0,00:00.000,0.0,00:00.000,0.0,9,100,0,0,1,4103,2,99,65,65,65,65,65,65,65,65,65,65,65,65,100,100,100,100,100,100,100,100,100,100,100,100,65,172,171,0.07,0.95,65,0,0,0.01,0.01,1.0,0,-1,11,0,-1,-1,0.1
Las Vegas Motor Speedway,Oval,"('Practice',)",NASCAR Chevrolet Camaro ZL1,0,0,Not Pacing,True,9,11:38.249,True,0.0,0,0,00:00.000,0.0,00:00.000,0.0,24,100,0,0,1,6064,2,99,65,65,65,65,65,65,65,65,65,65,65,65,100,100,100,100,100,100,100,100,100,100,100,100,65,172,171,0.07,0.95,65,0,0,0.01,0.01,1.0,0,-1,11,0,-1,0,0.1
Las Vegas Motor Speedway,Oval,"('Practice',)",NASCAR Chevrolet Camaro ZL1,0,0,Not Pacing,True,9,11:38.516,True,0.0,0,0,00:00.000,0.0,00:00.000,0.0,0,100,0,0,1,5551,2,99,65,65,65,65,65,65,65,65,65,65,65,65,100,100,100,100,100,100,100,100,100,100,100,100,65,172,171,0.07,0.95,65,0,0,0.01,0.01,1.0,0,0,11,0,-1,0,0.1
Las Vegas Motor Speedway,Oval,"('Practice',)",NASCAR Chevrolet Camaro ZL1,0,0,Not Pacing,True,9,11:38.766,True,0.0,0,0,00:00.000,0.0,00:00.000,0.0,0,100,0,0,1,4872,2,99,65,65,65,65,65,65,65,65,65,65,65,65,100,100,100,100,100,100,100,100,100,100,100,100,65,173,171,0.07,0.95,65,0,0,0.01,0.01,1.0,0,-1,11,-1,-1,0,0.1
Las Vegas Motor Speedway,Oval,"('Practice',)",NASCAR Chevrolet Camaro ZL1,0,0,Not Pacing,True,9,11:39.049,True,0.0,0,0,00:00.000,0.0,00:00.000,0.0,0,100,0,0,1,4072,2,99,65,65,65,65,65,65,65,65,65,65,65,65,100,100,100,100,100,100,100,100,100,100,100,100,65,173,171,0.07,0.95,65,0,0,0.01,0.01,1.0,0,-1,11,-1,-1,0,0.1
Las Vegas Motor Speedway,Oval,"('Practice',)",NASCAR Chevrolet Camaro ZL1,0,0,Not Pacing,True,9,11:39.316,True,0.0,0,0,00:00.000,0.0,00:00.000,0.0,8,100,0,0,1,3632,2,99,65,65,65,65,65,65,65,65,65,65,65,65,100,100,100,100,100,100,100,100,100,100,100,100,65,173,171,0.07,0.95,65,0,0,0.01,0.01,1.0,0,0,11,0,-1,0,0.1
Las Vegas Motor Speedway,Oval,"('Practice',)",NASCAR Chevrolet Camaro ZL1,0,0,Not Pacing,True,9,11:39.566,True,0.0,0,0,00:00.000,0.0,00:00.000,0.0,24,100,0,0,1,5213,2,99,65,65,65,65,65,65,65,65,65,65,65,65,100,100,100,100,100,100,100,100,100,100,100,100,65,173,171,0.07,0.95,65,0,0,0.01,0.01,1.0,0,0,11,0,-1,0,0.1
Las Vegas Motor Speedway,Oval,"('Practice',)",NASCAR Chevrolet Camaro ZL1,0,0,Not Pacing,True,9,11:39.833,True,0.0,0,0,00:00.000,0.0,00:00.000,0.0,27,100,1,0,1,7995,1,99,65,65,65,65,65,65,65,65,65,65,65,65,100,100,100,100,100,100,100,100,100,100,100,100,65,174,172,0.07,0.95,65,0,0,0.01,0.01,1.0,0,-1,11,0,-1,0,0.1
Las Vegas Motor Speedway,Oval,"('Practice',)",NASCAR Chevrolet Camaro ZL1,0,0,Not Pacing,True,9,11:40.083,True,0.0,0,0,00:00.000,0.0,00:00.000,0.0,32,0,31,0,1,8565,1,99,65,65,65,65,65,65,65,65,65,65,65,65,100,100,100,100,100,100,100,100,100,100,100,100,65,174,172,0.07,0.95,65,0,0,0.01,0.19,1.0,0,-1,11,-1,-1,-1,0.1
Las Vegas Motor Speedway,Oval,"('Practice',)",NASCAR Chevrolet Camaro ZL1,0,0,Not Pacing,True,9,11:40.349,True,0.0,0,0,00:00.000,0.0,00:00.000,0.0,34,0,41,1,1,7976,1,99,65,65,65,65,65,65,65,65,65,65,65,65,100,100,100,100,100,100,100,100,100,100,100,100,65,175,172,0.07,0.95,65,0,0,0.02,0.33,0.99,0,-1,11,0,-1,-1,0.11
Las Vegas Motor Speedway,Oval,"('Practice',)",NASCAR Chevrolet Camaro ZL1,0,0,Not Pacing,True,9,11:40.599,True,0.0,0,0,00:00.000,0.0,00:00.000,0.0,31,0,43,3,1,7102,0,99,65,65,65,65,65,65,65,65,65,65,65,65,100,100,100,100,100,100,100,100,100,100,100,100,65,176,173,0.07,0.95,65,0,0,0.01,0.37,1.0,0,-1,11,0,-1,-1,0.11
Las Vegas Motor Speedway,Oval,"('Practice',)",NASCAR Chevrolet Camaro ZL1,0,0,Not Pacing,True,9,11:40.866,True,0.0,0,0,00:00.000,0.0,00:00.000,0.0,29,0,44,5,1,6072,-6,99,65,65,65,65,65,65,65,65,65,65,65,65,100,100,100,100,100,100,100,100,100,100,100,100,65,176,173,0.07,0.95,65,0,0,0.01,0.4,1.0,0,-1,11,0,-1,0,0.11
Las Vegas Motor Speedway,Oval,"('Practice',)",NASCAR Chevrolet Camaro ZL1,0,0,Not Pacing,True,9,11:41.116,True,0.0,0,0,00:00.000,0.0,00:00.000,0.0,29,0,44,8,1,5346,-9,99,65,65,65,65,65,65,65,65,65,65,65,65,100,100,100,100,100,100,100,100,100,100,100,100,65,176,173,0.07,0.95,65,0,0,0.01,0.4,0.99,0,-1,11,0,-1,0,0.11
Las Vegas Motor Speedway,Oval,"('Practice',)",NASCAR Chevrolet Camaro ZL1,0,0,Not Pacing,True,9,11:41.383,True,0.0,0,0,00:00.000,0.0,00:00.000,0.0,30,0,45,10,1,4500,-12,99,65,65,65,65,65,65,65,65,65,65,65,65,100,100,100,100,100,100,100,100,100,100,100,100,65,176,173,0.07,0.95,65,0,0,0.0,0.39,1.01,0,-1,12,-1,-1,0,0.11
Las Vegas Motor Speedway,Oval,"('Practice',)",NASCAR Chevrolet Camaro ZL1,0,0,Not Pacing,True,9,11:41.633,True,0.0,0,0,00:00.000,0.0,00:00.000,0.0,30,0,47,12,1,3208,-14,99,65,65,65,65,65,65,65,65,65,65,65,65,100,100,100,100,100,100,100,100,100,100,100,100,65,176,173,0.07,0.95,65,0,0,0.01,0.47,0.98,0,0,12,0,-1,0,0.11
Las Vegas Motor Speedway,Oval,"('Practice',)",NASCAR Chevrolet Camaro ZL1,0,0,Not Pacing,True,9,11:41.899,True,0.0,0,0,00:00.000,0.0,00:00.000,0.0,30,0,47,15,1,2670,-11,99,65,65,65,65,65,65,65,65,65,65,65,65,100,100,100,100,100,100,100,100,100,100,100,100,65,176,173,0.07,0.95,65,0,0,0.01,0.47,1.01,0,-1,12,0,-1,0,0.11
Las Vegas Motor Speedway,Oval,"('Practice',)",NASCAR Chevrolet Camaro ZL1,0,0,Not Pacing,True,10,11:42.166,True,0.0,0,0,00:00.000,0.0,00:00.000,0.0,23,0,47,17,1,2285,-11,99,65,65,65,65,65,65,65,65,65,65,65,65,100,100,100,100,100,100,100,100,100,100,100,100,65,176,173,0.07,0.95,65,0,0,0.01,0.48,0.96,0,0,12,0,-1,-1,0.11
Las Vegas Motor Speedway,Oval,"('Practice',)",NASCAR Chevrolet Camaro ZL1,0,0,Not Pacing,True,10,11:42.416,True,0.0,0,0,00:00.000,0.0,00:00.000,0.0,23,0,62,19,1,2550,-18,99,65,65,65,65,65,65,65,65,65,65,65,65,100,100,100,100,100,100,100,100,100,100,100,100,65,176,174,0.07,0.95,65,0,0,-0.02,0.33,0.97,0,0,12,-2,-1,-1,0.1
Las Vegas Motor Speedway,Oval,"('Practice',)",NASCAR Chevrolet Camaro ZL1,0,0,Not Pacing,True,10,11:42.683,True,0.0,0,0,00:00.000,0.0,00:00.000,0.0,23,0,99,21,1,2781,-14,99,65,65,65,65,65,65,65,65,65,65,65,65,100,100,100,100,100,100,100,100,100,100,100,100,65,176,174,0.07,0.95,65,0,0,-0.0,0.32,1.05,0,-2,12,-2,-1,-1,0.11
Las Vegas Motor Speedway,Oval,"('Practice',)",NASCAR Chevrolet Camaro ZL1,0,0,Not Pacing,True,10,11:42.933,True,0.0,0,0,00:00.000,0.0,00:00.000,0.0,24,0,100,23,1,2982,-12,99,65,65,65,65,65,65,65,65,65,65,65,65,100,100,100,100,100,100,100,100,100,100,100,100,65,176,174,0.07,0.95,65,0,0,-0.02,0.33,0.88,0,0,11,-1,-2,0,0.1
Las Vegas Motor Speedway,Oval,"('Practice',)",NASCAR Chevrolet Camaro ZL1,0,0,Not Pacing,True,10,11:43.199,True,0.0,0,0,00:00.000,0.0,00:00.000,0.0,25,0,100,25,1,3153,-10,99,65,65,65,65,65,65,65,65,65,65,65,65,100,100,100,100,100,100,100,100,100,100,100,100,65,176,174,0.07,0.95,65,0,0,-0.04,0.27,0.8,0,1,11,-3,-1,1,0.09
Las Vegas Motor Speedway,Oval,"('Practice',)",NASCAR Chevrolet Camaro ZL1,0,0,Not Pacing,True,10,11:43.449,True,0.0,0,0,00:00.000,0.0,00:00.000,0.0,20,0,100,26,1,3281,-9,99,65,65,65,65,65,65,65,65,65,65,65,65,100,100,100,100,100,100,100,100,100,100,100,100,65,176,174,0.07,0.95,65,0,0,-0.02,0.21,0.97,0,1,10,-2,-1,2,0.1
Las Vegas Motor Speedway,Oval,"('Practice',)",NASCAR Chevrolet Camaro ZL1,0,0,Not Pacing,True,10,11:43.716,True,0.0,0,0,00:00.000,0.0,00:00.000,0.0,20,0,100,27,1,3417,-6,99,65,65,65,65,65,65,65,65,65,65,65,65,100,100,100,100,100,100,100,100,100,100,100,100,65,176,174,0.07,0.95,65,0,0,0.01,0.19,1.02,1,-1,10,-1,-1,0,0.11
Las Vegas Motor Speedway,Oval,"('Practice',)",NASCAR Chevrolet Camaro ZL1,0,0,Not Pacing,True,10,11:43.966,True,0.0,0,0,00:00.000,0.0,00:00.000,0.0,19,0,100,28,1,3527,-4,99,65,65,65,65,65,65,65,65,65,65,65,65,100,100,100,100,100,100,100,100,100,100,100,100,65,176,174,0.07,0.95,65,0,0,0.03,0.16,1.0,1,-2,10,-1,-1,-1,0.1
Las Vegas Motor Speedway,Oval,"('Practice',)",NASCAR Chevrolet Camaro ZL1,0,0,Not Pacing,True,10,11:44.233,True,0.0,0,0,00:00.000,0.0,00:00.000,0.0,28,0,100,29,1,3698,-2,99,65,65,65,65,65,65,65,65,65,65,65,65,100,100,100,100,100,100,100,100,100,100,100,100,65,176,174,0.07,0.95,65,0,0,-0.0,0.25,0.95,0,-1,10,-1,-1,0,0.1
Las Vegas Motor Speedway,Oval,"('Practice',)",NASCAR Chevrolet Camaro ZL1,0,0,Not Pacing,True,11,11:44.483,True,0.0,0,0,00:00.000,0.0,00:00.000,0.0,28,0,100,31,1,3865,-1,99,65,65,65,65,65,65,65,65,65,65,65,65,100,100,100,100,100,100,100,100,100,100,100,100,65,176,174,0.07,0.95,65,0,0,0.02,0.24,0.96,0,-1,10,-1,-1,-1,0.1
Las Vegas Motor Speedway,Oval,"('Practice',)",NASCAR Chevrolet Camaro ZL1,0,0,Not Pacing,True,11,11:44.749,True,0.0,0,0,00:00.000,0.0,00:00.000,0.0,25,0,100,32,1,4025,-1,99,65,65,65,65,65,65,65,65,65,65,65,65,100,100,100,100,100,100,100,100,100,100,100,100,65,175,174,0.07,0.95,65,0,0,-0.01,0.21,0.96,0,-1,10,-1,-1,1,0.1
Las Vegas Motor Speedway,Oval,"('Practice',)",NASCAR Chevrolet Camaro ZL1,0,0,Not Pacing,True,11,11:44.999,True,0.0,0,0,00:00.000,0.0,00:00.000,0.0,23,0,100,33,1,4163,-4,99,65,65,65,65,65,65,65,65,65,65,65,65,100,100,100,100,100,100,100,100,100,100,100,100,65,175,174,0.07,0.95,65,0,0,0.01,0.18,1.04,0,-2,10,-1,0,-1,0.11
Las Vegas Motor Speedway,Oval,"('Practice',)",NASCAR Chevrolet Camaro ZL1,0,0,Not Pacing,True,11,11:45.266,True,0.0,0,0,00:00.000,0.0,00:00.000,0.0,21,0,100,34,1,4292,-1,99,65,65,65,65,65,65,65,65,65,65,65,65,100,100,100,100,100,100,100,100,100,100,100,100,65,175,174,0.07,0.95,65,0,0,0.01,0.18,1.04,0,-2,10,0,-1,-1,0.11
Las Vegas Motor Speedway,Oval,"('Practice',)",NASCAR Chevrolet Camaro ZL1,0,0,Not Pacing,True,11,11:45.516,True,0.0,0,0,00:00.000,0.0,00:00.000,0.0,21,0,100,35,1,4395,0,99,65,65,65,65,65,65,65,65,65,65,65,65,100,100,100,100,100,100,100,100,100,100,100,100,65,175,174,0.07,0.95,65,0,0,0.02,0.17,0.95,-1,-3,10,0,-1,-1,0.1
Las Vegas Motor Speedway,Oval,"('Practice',)",NASCAR Chevrolet Camaro ZL1,0,0,Not Pacing,True,11,11:45.783,True,0.0,0,0,00:00.000,0.0,00:00.000,0.0,21,0,100,36,1,4527,-1,99,65,65,65,65,65,65,65,65,65,65,65,65,100,100,100,100,100,100,100,100,100,100,100,100,65,175,174,0.07,0.95,65,0,0,-0.03,0.17,0.99,-1,-1,10,-1,-1,-1,0.1
Las Vegas Motor Speedway,Oval,"('Practice',)",NASCAR Chevrolet Camaro ZL1,0,0,Not Pacing,True,12,11:46.033,True,0.0,0,0,00:00.000,0.0,00:00.000,0.0,19,0,100,37,1,4618,1,99,65,65,65,65,65,65,65,65,65,65,65,65,100,100,100,100,100,100,100,100,100,100,100,100,65,175,173,0.07,0.95,65,0,0,-0.02,0.15,1.0,-2,-1,10,0,-1,0,0.1
Las Vegas Motor Speedway,Oval,"('Practice',)",NASCAR Chevrolet Camaro ZL1,0,0,Not Pacing,False,12,11:46.299,True,0.0,0,0,00:00.000,0.0,00:00.000,0.0,23,0,100,38,1,4765,4,99,65,65,65,65,65,65,65,65,65,65,65,65,100,100,100,100,100,100,100,100,100,100,100,100,65,175,173,0.07,0.95,65,0,0,0.02,0.2,1.0,-2,-1,10,1,-1,-1,0.1
Las Vegas Motor Speedway,Oval,"('Practice',)",NASCAR Chevrolet Camaro ZL1,0,0,Not Pacing,False,12,11:46.549,True,0.0,0,0,00:00.000,0.0,00:00.000,0.0,23,0,100,39,1,4886,6,99,65,65,65,65,65,65,65,65,65,65,65,65,100,100,100,100,100,100,100,100,100,100,100,100,65,175,173,0.07,0.95,65,0,0,0.05,0.2,1.01,-2,-1,11,2,-1,0,0.11
Las Vegas Motor Speedway,Oval,"('Practice',)",NASCAR Chevrolet Camaro ZL1,0,0,Not Pacing,False,12,11:46.816,True,0.0,0,0,00:00.000,0.0,00:00.000,0.0,24,0,100,40,1,5043,9,99,65,65,65,65,65,65,65,65,65,65,65,65,100,100,100,100,100,100,100,100,100,100,100,100,65,175,173,0.07,0.95,65,0,0,0.09,0.23,1.0,-2,0,11,3,-1,0,0.11
Las Vegas Motor Speedway,Oval,"('Practice',)",NASCAR Chevrolet Camaro ZL1,0,0,Not Pacing,False,12,11:47.066,True,0.0,0,0,00:00.000,0.0,00:00.000,0.0,24,0,100,41,1,5198,9,99,65,65,65,65,65,65,65,65,65,65,65,65,100,100,100,100,100,100,100,100,100,100,100,100,65,175,173,0.07,0.95,65,0,0,0.08,0.23,0.97,-2,0,12,3,-1,-1,0.1
Las Vegas Motor Speedway,Oval,"('Practice',)",NASCAR Chevrolet Camaro ZL1,0,0,Not Pacing,False,12,11:47.333,True,0.0,0,0,00:00.000,0.0,00:00.000,0.0,25,0,100,43,1,5364,11,99,65,65,65,65,65,65,65,65,65,65,65,65,100,100,100,100,100,100,100,100,100,100,100,100,65,175,173,0.07,0.95,65,0,0,0.11,0.27,1.02,-2,-1,13,3,-1,-1,0.11
Las Vegas Motor Speedway,Oval,"('Practice',)",NASCAR Chevrolet Camaro ZL1,0,0,Not Pacing,False,13,11:47.599,True,0.0,0,0,00:00.000,0.0,00:00.000,0.0,28,0,100,44,1,5564,12,99,65,65,65,65,65,65,65,65,65,65,65,65,100,100,100,100,100,100,100,100,100,100,100,100,65,175,173,0.07,0.95,65,0,0,0.13,0.28,1.01,-2,-2,14,4,-1,0,0.11
Las Vegas Motor Speedway,Oval,"('Practice',)",NASCAR Chevrolet Camaro ZL1,0,0,Not Pacing,False,13,11:47.866,True,0.0,0,0,00:00.000,0.0,00:00.000,0.0,33,0,100,46,1,5809,8,99,65,65,65,65,65,65,65,65,65,65,65,65,100,100,100,100,100,100,100,100,100,100,100,100,65,175,174,0.07,0.95,65,0,0,0.07,0.34,1.0,-2,-1,15,2,-1,0,0.11
Las Vegas Motor Speedway,Oval,"('Practice',)",NASCAR Chevrolet Camaro ZL1,0,0,Not Pacing,False,13,11:48.133,True,0.0,0,0,00:00.000,0.0,00:00.000,0.0,34,0,100,48,1,6046,9,99,65,65,65,65,65,65,65,65,65,65,65,65,100,100,100,100,100,100,100,100,100,100,100,100,65,175,174,0.07,0.95,65,0,0,0.08,0.36,1.01,-2,-1,16,3,-1,-1,0.11
Las Vegas Motor Speedway,Oval,"('Practice',)",NASCAR Chevrolet Camaro ZL1,0,0,Not Pacing,False,13,11:48.383,True,0.0,0,0,00:00.000,0.0,00:00.000,0.0,38,0,100,50,1,6303,11,99,65,65,65,65,65,65,65,65,65,65,65,65,100,100,100,100,100,100,100,100,100,100,100,100,65,175,174,0.07,0.95,65,0,0,0.14,0.37,0.92,-3,-1,17,4,-1,0,0.1
Las Vegas Motor Speedway,Oval,"('Practice',)",NASCAR Chevrolet Camaro ZL1,0,0,Not Pacing,False,14,11:48.649,True,0.0,0,0,00:00.000,0.0,00:00.000,0.0,39,0,100,52,1,6549,12,99,65,65,65,65,65,65,65,65,65,65,65,65,100,100,100,100,100,100,100,100,100,100,100,100,65,175,174,0.07,0.95,65,0,0,0.16,0.37,1.01,-3,-1,18,4,-1,0,0.11
Las Vegas Motor Speedway,Oval,"('Practice',)",NASCAR Chevrolet Camaro ZL1,0,0,Not Pacing,False,14,11:48.899,True,0.0,0,0,00:00.000,0.0,00:00.000,0.0,39,0,100,54,1,6827,10,99,65,65,65,65,65,65,65,65,65,65,65,65,100,100,100,100,100,100,100,100,100,100,100,100,65,175,174,0.07,0.95,65,0,0,0.17,0.38,1.01,-2,0,19,4,-1,-1,0.11
Las Vegas Motor Speedway,Oval,"('Practice',)",NASCAR Chevrolet Camaro ZL1,0,0,Not Pacing,False,14,11:49.166,True,0.0,0,0,00:00.000,0.0,00:00.000,0.0,39,0,100,56,1,7078,11,99,65,65,65,65,65,65,65,65,65,65,65,65,100,100,100,100,100,100,100,100,100,100,100,100,65,175,174,0.07,0.95,65,0,0,0.18,0.34,0.99,-3,0,20,4,-1,0,0.11
Las Vegas Motor Speedway,Oval,"('Practice',)",NASCAR Chevrolet Camaro ZL1,0,0,Not Pacing,False,14,11:49.433,True,0.0,0,0,00:00.000,0.0,00:00.000,0.0,39,0,100,58,1,7304,11,99,65,65,65,65,65,65,65,65,65,65,65,65,100,100,100,100,100,100,100,100,100,100,100,100,65,175,174,0.07,0.95,65,0,0,0.2,0.35,0.95,-3,-2,22,4,-1,-1,0.11
Las Vegas Motor Speedway,Oval,"('Practice',)",NASCAR Chevrolet Camaro ZL1,0,0,Not Pacing,False,15,11:49.683,True,0.0,0,0,00:00.000,0.0,00:00.000,0.0,40,0,100,60,1,7536,11,99,65,65,65,65,65,65,65,65,65,65,65,65,100,100,100,100,100,100,100,100,100,100,100,100,65,175,174,0.07,0.95,65,0,0,0.23,0.33,1.05,-3,-1,23,5,-1,-2,0.11
Las Vegas Motor Speedway,Oval,"('Practice',)",NASCAR Chevrolet Camaro ZL1,0,0,Not Pacing,False,15,11:49.949,True,0.0,0,0,00:00.000,0.0,00:00.000,0.0,40,0,100,62,1,7764,13,99,65,65,65,65,65,65,65,65,65,65,65,65,100,100,100,100,100,100,100,100,100,100,100,100,65,176,174,0.07,0.95,65,0,0,0.26,0.31,0.98,-3,0,24,5,-1,0,0.11
Las Vegas Motor Speedway,Oval,"('Practice',)",NASCAR Chevrolet Camaro ZL1,0,0,Not Pacing,False,15,11:50.199,True,0.0,0,0,00:00.000,0.0,00:00.000,0.0,39,0,100,64,1,7972,16,99,65,65,65,65,65,65,65,65,65,65,65,65,100,100,100,100,100,100,100,100,100,100,100,100,65,176,175,0.07,0.95,65,0,0,0.32,0.28,0.95,-3,-1,26,7,-1,0,0.11
Las Vegas Motor Speedway,Oval,"('Practice',)",NASCAR Chevrolet Camaro ZL1,0,0,Not Pacing,False,16,11:50.466,True,0.0,0,0,00:00.000,0.0,00:00.000,0.0,39,0,100,65,1,8141,16,99,65,65,65,65,65,65,65,65,65,65,65,65,100,100,100,100,100,100,100,100,100,100,100,100,65,176,175,0.07,0.95,65,0,0,0.36,0.26,1.0,-3,-2,28,7,-1,-1,0.11
Las Vegas Motor Speedway,Oval,"('Practice',)",NASCAR Chevrolet Camaro ZL1,0,0,Not Pacing,False,16,11:50.716,True,0.0,0,0,00:00.000,0.0,00:00.000,0.0,38,0,100,67,1,8313,17,99,65,65,65,65,65,65,65,65,65,65,65,65,100,100,100,100,100,100,100,100,100,100,100,100,65,177,175,0.07,0.95,65,0,0,0.41,0.24,1.04,-3,1,30,8,-1,-3,0.12
Las Vegas Motor Speedway,Oval,"('Practice',)",NASCAR Chevrolet Camaro ZL1,0,0,Not Pacing,False,16,11:50.983,True,0.0,0,0,00:00.000,0.0,00:00.000,0.0,38,0,100,68,1,8475,20,99,65,65,65,65,65,65,65,65,65,65,65,65,100,100,100,100,100,100,100,100,100,100,100,100,65,177,175,0.07,0.95,65,0,0,0.48,0.21,1.03,-3,-1,32,9,-1,-1,0.12
Las Vegas Motor Speedway,Oval,"('Practice',)",NASCAR Chevrolet Camaro ZL1,0,0,Not Pacing,False,17,11:51.233,True,0.0,0,0,00:00.000,0.0,00:00.000,0.0,39,0,100,69,1,8626,17,99,65,65,65,65,65,65,65,65,65,65,65,65,100,100,100,100,100,100,100,100,100,100,100,100,65,177,175,0.07,0.95,65,0,0,0.5,0.22,1.06,-3,0,35,9,-1,-2,0.12
Las Vegas Motor Speedway,Oval,"('Practice',)",NASCAR Chevrolet Camaro ZL1,0,0,Not Pacing,False,17,11:51.499,True,0.0,0,0,00:00.000,0.0,00:00.000,0.0,39,0,100,70,1,8764,17,99,65,65,65,65,65,65,65,65,65,65,65,65,100,100,100,100,100,100,100,100,100,100,100,100,65,178,175,0.07,0.95,65,0,0,0.47,0.21,0.95,-3,-1,37,10,-1,-1,0.11
Las Vegas Motor Speedway,Oval,"('Practice',)",NASCAR Chevrolet Camaro ZL1,0,0,Not Pacing,False,17,11:51.749,True,0.0,0,0,00:00.000,0.0,00:00.000,0.0,39,0,100,71,1,8888,18,99,65,65,65,65,65,65,65,65,65,65,65,65,100,100,100,100,100,100,100,100,100,100,100,100,65,178,175,0.07,0.95,65,0,0,0.5,0.18,1.04,-3,-3,40,10,-1,-2,0.12
Las Vegas Motor Speedway,Oval,"('Practice',)",NASCAR Chevrolet Camaro ZL1,0,0,Not Pacing,False,18,11:52.016,True,0.0,0,0,00:00.000,0.0,00:00.000,0.0,40,0,100,72,1,9009,16,99,65,65,65,65,65,65,65,65,65,65,65,65,100,100,100,100,100,100,100,100,100,100,100,100,65,179,175,0.07,0.95,65,0,0,0.46,0.18,0.96,-4,-3,42,9,-1,1,0.11
Las Vegas Motor Speedway,Oval,"('Practice',)",NASCAR Chevrolet Camaro ZL1,0,0,Not Pacing,False,18,11:52.283,True,0.0,0,0,00:00.000,0.0,00:00.000,0.0,40,0,100,73,1,9107,17,99,65,65,65,65,65,65,65,65,65,65,65,65,100,100,100,100,100,100,100,100,100,100,100,100,65,179,175,0.07,0.95,65,0,0,0.46,0.02,1.03,-5,-6,45,8,-1,0,0.12
Las Vegas Motor Speedway,Oval,"('Practice',)",NASCAR Chevrolet Camaro ZL1,0,0,Not Pacing,False,18,11:52.533,True,0.0,0,0,00:00.000,0.0,00:00.000,0.0,0,0,100,72,1,8891,16,99,65,65,65,65,65,65,65,65,65,65,65,65,100,100,100,100,100,100,100,100,100,100,100,100,65,180,175,0.07,0.95,65,0,0,0.43,-0.18,0.82,-6,-1,47,10,-1,0,0.1
Las Vegas Motor Speedway,Oval,"('Practice',)",NASCAR Chevrolet Camaro ZL1,0,0,Not Pacing,False,19,11:52.799,True,0.0,0,0,00:00.000,0.0,00:00.000,0.0,0,0,100,70,1,8683,14,99,65,65,65,65,65,65,65,65,65,65,65,65,100,100,100,100,100,100,100,100,100,100,100,100,65,180,174,0.07,0.95,65,0,0,0.29,-0.3,0.96,-7,5,50,8,-1,-1,0.11
Las Vegas Motor Speedway,Oval,"('Practice',)",NASCAR Chevrolet Camaro ZL1,0,0,Not Pacing,False,19,11:53.049,True,0.0,0,0,00:00.000,0.0,00:00.000,0.0,39,0,100,70,1,8693,14,99,65,65,65,65,65,65,65,65,65,65,65,65,100,100,100,100,100,100,100,100,100,100,100,100,65,181,174,0.07,0.95,65,0,0,0.34,0.42,1.03,-7,0,52,7,-1,-3,0.12
Las Vegas Motor Speedway,Oval,"('Practice',)",NASCAR Chevrolet Camaro ZL1,0,0,Not Pacing,False,19,11:53.316,True,0.0,0,0,00:00.000,0.0,00:00.000,0.0,45,0,100,71,1,8924,14,99,65,65,65,65,65,65,65,65,65,65,65,65,100,100,100,100,100,100,100,100,100,100,100,100,65,181,174,0.07,0.95,65,0,0,0.36,0.26,0.98,-7,-1,54,8,-1,-2,0.11
Las Vegas Motor Speedway,Oval,"('Practice',)",NASCAR Chevrolet Camaro ZL1,0,0,Not Pacing,False,20,11:53.566,True,0.0,0,0,00:00.000,0.0,00:00.000,0.0,44,0,100,73,1,9043,16,99,65,65,65,65,65,65,65,65,65,65,65,65,100,100,100,100,100,100,100,100,100,100,100,100,65,182,175,0.07,0.95,65,0,0,0.39,0.23,1.07,-7,0,56,8,-1,2,0.12
Las Vegas Motor Speedway,Oval,"('Practice',)",NASCAR Chevrolet Camaro ZL1,0,0,Not Pacing,False,20,11:53.833,True,0.0,0,0,00:00.000,0.0,00:00.000,0.0,20,0,100,73,1,9014,15,99,65,65,65,65,65,65,65,65,65,65,65,65,100,100,100,100,100,100,100,100,100,100,100,100,65,182,175,0.07,0.95,65,0,0,0.35,-0.04,1.06,-7,5,59,8,-1,-4,0.11
Las Vegas Motor Speedway,Oval,"('Practice',)",NASCAR Chevrolet Camaro ZL1,0,0,Not Pacing,False,21,11:54.099,True,0.0,0,0,00:00.000,0.0,00:00.000,0.0,15,0,100,74,2,5873,17,99,65,65,65,65,65,65,65,65,65,65,65,65,100,100,100,100,100,100,100,100,100,100,100,100,65,182,174,0.07,0.95,65,0,0,0.55,-0.02,1.28,-7,-5,61,9,-1,-1,0.14
Las Vegas Motor Speedway,Oval,"('Practice',)",NASCAR Chevrolet Camaro ZL1,0,0,Not Pacing,False,21,11:54.349,True,0.0,0,0,00:00.000,0.0,00:00.000,0.0,31,0,100,75,2,5797,20,99,65,65,65,65,65,65,65,65,65,65,65,65,100,100,100,100,100,100,100,100,100,100,100,100,65,182,174,0.07,0.95,65,0,0,0.51,0.22,1.06,-7,0,63,11,-1,-2,0.12
Las Vegas Motor Speedway,Oval,"('Practice',)",NASCAR Chevrolet Camaro ZL1,0,0,Not Pacing,False,21,11:54.616,True,0.0,0,0,00:00.000,0.0,00:00.000,0.0,43,0,100,76,2,5935,21,99,65,65,65,65,65,65,65,65,65,65,65,65,100,100,100,100,100,100,100,100,100,100,100,100,65,182,174,0.07,0.95,65,0,0,0.44,0.27,0.95,-7,1,66,12,-1,-1,0.11
Las Vegas Motor Speedway,Oval,"('Practice',)",NASCAR Chevrolet Camaro ZL1,0,0,Not Pacing,False,22,11:54.866,True,0.0,0,0,00:00.000,0.0,00:00.000,0.0,49,0,100,78,2,6056,18,99,65,65,65,65,65,65,65,65,65,65,65,65,100,100,100,100,100,100,100,100,100,100,100,100,65,182,174,0.07,0.95,65,0,0,0.47,0.34,1.02,-7,0,69,10,-1,-3,0.12
Las Vegas Motor Speedway,Oval,"('Practice',)",NASCAR Chevrolet Camaro ZL1,0,0,Not Pacing,False,22,11:55.133,True,0.0,0,0,00:00.000,0.0,00:00.000,0.0,53,0,100,79,2,6210,13,99,65,65,65,65,65,65,65,65,65,65,65,65,100,100,100,100,100,100,100,100,100,100,100,100,65,182,175,0.07,0.95,65,0,0,0.57,0.34,1.3,-7,-1,72,8,-1,-2,0.15
Las Vegas Motor Speedway,Oval,"('Practice',)",NASCAR Chevrolet Camaro ZL1,0,0,Not Pacing,False,22,11:55.383,True,0.0,0,0,00:00.000,0.0,00:00.000,0.0,58,0,100,81,2,6367,14,99,65,65,65,65,65,65,65,65,65,65,65,65,100,100,100,100,100,100,100,100,100,100,100,100,65,182,175,0.07,0.95,65,0,0,0.54,0.38,1.09,-7,0,74,9,-1,-2,0.13
Las Vegas Motor Speedway,Oval,"('Practice',)",NASCAR Chevrolet Camaro ZL1,0,0,Not Pacing,False,23,11:55.649,True,0.0,0,0,00:00.000,0.0,00:00.000,0.0,58,0,100,84,2,6567,15,99,65,65,65,65,65,65,65,65,65,65,65,65,100,100,100,100,100,100,100,100,100,100,100,100,65,182,175,0.07,0.95,65,0,0,0.64,0.39,1.15,-7,-2,77,10,-1,-4,0.14
Las Vegas Motor Speedway,Oval,"('Practice',)",NASCAR Chevrolet Camaro ZL1,0,0,Not Pacing,False,23,11:55.899,True,0.0,0,0,00:00.000,0.0,00:00.000,0.0,59,0,100,86,2,6766,14,99,65,65,65,65,65,65,65,65,65,65,65,65,100,100,100,100,100,100,100,100,100,100,100,100,65,182,175,0.07,0.95,65,0,0,0.61,0.39,1.19,-7,1,79,11,-1,-4,0.14
Las Vegas Motor Speedway,Oval,"('Practice',)",NASCAR Chevrolet Camaro ZL1,0,0,Not Pacing,False,24,11:56.166,True,0.0,0,0,00:00.000,0.0,00:00.000,0.0,58,0,100,88,2,6849,13,99,65,65,65,65,65,65,65,65,65,65,65,65,100,100,100,100,100,100,100,100,100,100,100,100,65,182,175,0.07,0.95,65,0,0,0.58,0.35,1.15,-7,-1,82,10,-1,-3,0.14
Las Vegas Motor Speedway,Oval,"('Practice',)",NASCAR Chevrolet Camaro ZL1,0,0,Not Pacing,False,24,11:56.416,True,0.0,0,0,00:00.000,0.0,00:00.000,0.0,56,0,100,90,2,7085,14,99,65,65,65,65,65,65,65,65,65,65,65,65,100,100,100,100,100,100,100,100,100,100,100,100,65,182,176,0.07,0.95,65,0,0,0.65,0.39,1.07,-6,-1,85,11,-1,-5,0.13
Las Vegas Motor Speedway,Oval,"('Practice',)",NASCAR Chevrolet Camaro ZL1,0,0,Not Pacing,False,24,11:56.683,True,0.0,0,0,00:00.000,0.0,00:00.000,0.0,45,0,100,91,2,7267,23,99,65,65,65,65,65,65,65,65,65,65,65,65,100,100,100,100,100,100,100,100,100,100,100,100,65,182,176,0.07,0.95,65,0,0,0.51,0.36,1.19,-7,7,87,14,0,-4,0.14
Las Vegas Motor Speedway,Oval,"('Practice',)",NASCAR Chevrolet Camaro ZL1,0,0,Not Pacing,False,25,11:56.933,True,0.0,0,0,00:00.000,0.0,00:00.000,0.0,37,0,100,92,2,7266,11,99,65,65,65,65,65,65,65,65,65,65,65,65,100,100,100,100,100,100,100,100,100,100,100,100,65,182,176,0.07,0.95,65,0,0,0.42,0.2,0.87,-6,7,90,8,-1,-3,0.1
Las Vegas Motor Speedway,Oval,"('Practice',)",NASCAR Chevrolet Camaro ZL1,0,0,Not Pacing,False,25,11:57.199,True,0.0,0,0,00:00.000,0.0,00:00.000,0.0,37,0,100,93,2,7281,18,99,65,65,65,65,65,65,65,65,65,65,65,65,100,100,100,100,100,100,100,100,100,100,100,100,65,182,176,0.07,0.95,65,0,0,0.64,0.16,0.96,-6,2,92,10,-1,-1,0.12
Las Vegas Motor Speedway,Oval,"('Practice',)",NASCAR Chevrolet Camaro ZL1,0,0,Not Pacing,False,26,11:57.466,True,0.0,0,0,00:00.000,0.0,00:00.000,0.0,40,0,100,94,2,7331,18,99,65,65,65,65,65,65,65,65,65,65,65,65,100,100,100,100,100,100,100,100,100,100,100,100,65,182,176,0.07,0.95,65,0,0,0.75,0.18,1.18,-6,3,95,12,-1,-2,0.14
Las Vegas Motor Speedway,Oval,"('Practice',)",NASCAR Chevrolet Camaro ZL1,0,0,Not Pacing,False,26,11:57.716,True,0.0,0,0,00:00.000,0.0,00:00.000,0.0,41,0,100,95,2,7484,15,99,65,65,65,65,65,65,65,65,65,65,65,65,100,100,100,100,100,100,100,100,100,100,100,100,65,182,176,0.07,0.95,65,0,0,0.93,0.18,1.02,-6,9,99,13,-1,-3,0.14
Las Vegas Motor Speedway,Oval,"('Practice',)",NASCAR Chevrolet Camaro ZL1,0,0,Not Pacing,False,27,11:57.966,True,0.0,0,0,00:00.000,0.0,00:00.000,0.0,35,0,100,96,2,7462,17,99,65,65,65,65,65,65,65,65,65,65,65,65,100,100,100,100,100,100,100,100,100,100,100,100,65,182,176,0.07,0.95,65,0,0,1.02,0.07,1.18,-5,-9,102,14,-1,-4,0.16
Las Vegas Motor Speedway,Oval,"('Practice',)",NASCAR Chevrolet Camaro ZL1,0,0,Not Pacing,False,27,11:58.233,True,0.0,0,0,00:00.000,0.0,00:00.000,0.0,41,0,100,97,2,7526,15,99,65,65,65,65,65,65,65,65,65,65,65,65,100,100,100,100,100,100,100,100,100,100,100,100,65,182,176,0.07,0.95,65,0,0,0.95,0.16,1.2,-5,2,105,14,-1,-5,0.16
Las Vegas Motor Speedway,Oval,"('Practice',)",NASCAR Chevrolet Camaro ZL1,0,0,Not Pacing,False,28,11:58.499,True,0.0,0,0,00:00.000,0.0,00:00.000,0.0,41,0,100,97,2,7602,14,99,65,65,65,65,65,65,65,65,65,65,65,65,100,100,100,100,100,100,100,100,100,100,100,100,65,182,176,0.07,0.95,65,0,0,0.95,0.17,1.14,-4,3,108,12,-1,-3,0.15
Las Vegas Motor Speedway,Oval,"('Practice',)",NASCAR Chevrolet Camaro ZL1,0,0,Not Pacing,False,28,11:58.749,True,0.0,0,0,00:00.000,0.0,00:00.000,0.0,34,0,100,98,2,7642,18,99,65,65,65,65,65,65,65,65,65,65,65,65,100,100,100,100,100,100,100,100,100,100,100,100,65,183,176,0.07,0.95,65,0,0,0.79,0.08,0.82,-4,1,111,11,-1,0,0.12
Las Vegas Motor Speedway,Oval,"('Practice',)",NASCAR Chevrolet Camaro ZL1,0,0,Not Pacing,False,29,11:59.016,True,0.0,0,0,00:00.000,0.0,00:00.000,0.0,33,0,100,99,2,7666,16,99,65,65,65,65,65,65,65,65,65,65,65,65,100,100,100,100,100,100,100,100,100,100,100,100,65,183,176,0.07,0.95,65,0,0,0.97,0.1,1.13,-4,-1,114,11,-1,-1,0.15
Las Vegas Motor Speedway,Oval,"('Practice',)",NASCAR Chevrolet Camaro ZL1,0,0,Not Pacing,False,29,11:59.266,True,0.0,0,0,00:00.000,0.0,00:00.000,0.0,38,0,100,99,2,7737,16,99,65,65,65,65,65,65,65,65,65,65,65,65,100,100,100,100,100,100,100,100,100,100,100,100,65,183,176,0.07,0.95,65,0,0,0.88,0.14,1.08,-3,1,117,11,-1,-2,0.14
Las Vegas Motor Speedway,Oval,"('Practice',)",NASCAR Chevrolet Camaro ZL1,0,0,Not Pacing,False,30,11:59.516,True,0.0,0,0,00:00.000,0.0,00:00.000,0.0,40,0,100,100,2,7790,15,99,65,65,65,65,65,65,65,65,65,65,65,65,100,100,100,100,100,100,100,100,100,100,100,100,65,183,176,0.07,0.95,65,0,0,0.84,0.15,1.08,-3,0,120,11,-1,-3,0.14
Las Vegas Motor Speedway,Oval,"('Practice',)",NASCAR Chevrolet Camaro ZL1,0,0,Not Pacing,False,30,11:59.783,True,0.0,0,0,00:00.000,0.0,00:00.000,0.0,42,0,100,101,2,7863,16,99,65,65,65,65,65,65,65,65,65,65,65,65,100,100,100,100,100,100,100,100,100,100,100,100,65,183,176,0.07,0.95,65,0,0,0.87,0.17,1.11,-3,1,123,11,-1,-2,0.14
Las Vegas Motor Speedway,Oval,"('Practice',)",NASCAR Chevrolet Camaro ZL1,0,0,Not Pacing,False,31,12:00.049,True,0.0,0,0,00:00.000,0.0,00:00.000,0.0,42,0,100,102,2,7925,16,99,65,65,65,65,65,65,65,65,65,65,65,65,100,100,100,100,100,100,100,100,100,100,100,100,65,183,176,0.07,0.95,65,0,0,0.82,0.16,0.98,-4,-2,126,11,-1,-2,0.13
Las Vegas Motor Speedway,Oval,"('Practice',)",NASCAR Chevrolet Camaro ZL1,0,0,Not Pacing,False,31,12:00.299,True,0.0,0,0,00:00.000,0.0,00:00.000,0.0,40,0,100,102,2,7973,14,99,65,65,65,65,65,65,65,65,65,65,65,65,100,100,100,100,100,100,100,100,100,100,100,100,65,183,176,0.07,0.95,65,0,0,0.8,0.14,1.06,-3,1,129,11,-1,-2,0.14
Las Vegas Motor Speedway,Oval,"('Practice',)",NASCAR Chevrolet Camaro ZL1,0,0,Not Pacing,False,32,12:00.566,True,0.0,0,0,00:00.000,0.0,00:00.000,0.0,43,0,100,103,2,8037,15,99,65,65,65,65,65,65,65,65,65,65,65,65,100,100,100,100,100,100,100,100,100,100,100,100,65,184,176,0.07,0.95,65,0,0,0.85,0.16,1.11,-3,-1,131,10,-1,-1,0.14
Las Vegas Motor Speedway,Oval,"('Practice',)",NASCAR Chevrolet Camaro ZL1,0,0,Not Pacing,False,32,12:00.816,True,0.0,0,0,00:00.000,0.0,00:00.000,0.0,43,0,100,104,2,8109,16,99,65,65,65,65,65,65,65,65,65,65,65,65,100,100,100,100,100,100,100,100,100,100,100,100,65,184,176,0.07,0.95,65,0,0,0.85,0.17,1.07,-4,0,134,12,-1,-3,0.14
Las Vegas Motor Speedway,Oval,"('Practice',)",NASCAR Chevrolet Camaro ZL1,0,0,Not Pacing,False,33,12:01.083,True,0.0,0,0,00:00.000,0.0,00:00.000,0.0,39,0,100,105,2,8152,16,99,65,65,65,65,65,65,65,65,65,65,65,65,100,100,100,100,100,100,100,100,100,100,100,100,65,184,176,0.07,0.95,65,0,0,0.84,0.12,1.06,-4,-1,137,11,-1,-2,0.14
Las Vegas Motor Speedway,Oval,"('Practice',)",NASCAR Chevrolet Camaro ZL1,0,0,Not Pacing,False,33,12:01.333,True,0.0,0,0,00:00.000,0.0,00:00.000,0.0,40,0,100,105,2,8184,15,99,65,65,65,65,65,65,65,65,65,65,65,65,100,100,100,100,100,100,100,100,100,100,100,100,65,184,176,0.07,0.95,65,0,0,0.93,0.12,1.08,-4,0,140,11,-1,-2,0.15
Las Vegas Motor Speedway,Oval,"('Practice',)",NASCAR Chevrolet Camaro ZL1,0,0,Not Pacing,False,34,12:01.599,True,0.0,0,0,00:00.000,0.0,00:00.000,0.0,35,0,100,106,2,8197,17,99,65,65,65,65,65,65,65,65,65,65,65,65,100,100,100,100,100,100,100,100,100,100,100,100,65,184,176,0.07,0.95,65,0,0,0.85,0.05,0.94,-3,0,143,10,-1,1,0.13
Las Vegas Motor Speedway,Oval,"('Practice',)",NASCAR Chevrolet Camaro ZL1,0,0,Not Pacing,False,34,12:01.866,True,0.0,0,0,00:00.000,0.0,00:00.000,0.0,34,0,100,106,2,8216,17,99,65,65,65,65,65,65,65,65,65,65,65,65,100,100,100,100,100,100,100,100,100,100,100,100,65,185,176,0.07,0.95,65,0,0,0.84,0.05,0.88,-3,-1,146,9,-1,2,0.12
Las Vegas Motor Speedway,Oval,"('Practice',)",NASCAR Chevrolet Camaro ZL1,0,0,Not Pacing,False,35,12:02.116,True,0.0,0,0,00:00.000,0.0,00:00.000,0.0,28,0,100,106,2,8219,20,99,65,65,65,65,65,65,65,65,65,65,65,65,100,100,100,100,100,100,100,100,100,100,100,100,65,185,176,0.07,0.95,65,0,0,0.96,0.01,1.01,-3,-1,149,11,-1,0,0.14
Las Vegas Motor Speedway,Oval,"('Practice',)",NASCAR Chevrolet Camaro ZL1,0,0,Not Pacing,False,35,12:02.383,True,0.0,0,0,00:00.000,0.0,00:00.000,0.0,29,0,100,106,2,8213,18,99,65,65,65,65,65,65,65,65,65,65,65,65,100,100,100,100,100,100,100,100,100,100,100,100,65,185,175,0.07,0.95,65,0,0,0.97,0.01,1.08,-3,0,152,12,-1,-2,0.15
Las Vegas Motor Speedway,Oval,"('Practice',)",NASCAR Chevrolet Camaro ZL1,0,0,Not Pacing,False,36,12:02.633,True,0.0,0,0,00:00.000,0.0,00:00.000,0.0,34,0,100,106,2,8231,19,99,65,65,65,65,65,65,65,65,65,65,65,65,100,100,100,100,100,100,100,100,100,100,100,100,65,185,175,0.07,0.95,65,0,0,1.05,0.06,1.19,-3,0,155,14,-1,-3,0.16
Las Vegas Motor Speedway,Oval,"('Practice',)",NASCAR Chevrolet Camaro ZL1,0,0,Not Pacing,False,36,12:02.899,True,0.0,0,0,00:00.000,0.0,00:00.000,0.0,38,0,100,106,2,8269,19,99,65,65,65,65,65,65,65,65,65,65,65,65,100,100,100,100,100,100,100,100,100,100,100,100,65,185,175,0.07,0.95,65,0,0,0.97,0.11,1.0,-3,0,159,13,-1,-2,0.14
Las Vegas Motor Speedway,Oval,"('Practice',)",NASCAR Chevrolet Camaro ZL1,0,0,Not Pacing,False,37,12:03.149,True,0.0,0,0,00:00.000,0.0,00:00.000,0.0,45,0,100,107,2,8327,14,99,65,65,65,65,65,65,65,65,65,65,65,65,100,100,100,100,100,100,100,100,100,100,100,100,65,186,175,0.07,0.95,65,0,0,0.98,0.14,1.03,-3,-2,162,10,-1,0,0.15
Las Vegas Motor Speedway,Oval,"('Practice',)",NASCAR Chevrolet Camaro ZL1,0,0,Not Pacing,False,37,12:03.416,True,0.0,0,0,00:00.000,0.0,00:00.000,0.0,54,0,100,108,2,8414,12,99,65,65,65,65,65,65,65,65,65,65,65,65,100,100,100,100,100,100,100,100,100,100,100,100,65,186,175,0.07,0.95,65,0,0,0.74,0.21,0.9,-3,0,165,8,-1,1,0.12
Las Vegas Motor Speedway,Oval,"('Practice',)",NASCAR Chevrolet Camaro ZL1,0,0,Not Pacing,False,38,12:03.666,True,0.0,0,0,00:00.000,0.0,00:00.000,0.0,64,0,100,109,2,8529,10,99,65,65,65,65,65,65,65,65,65,65,65,65,100,100,100,100,100,100,100,100,100,100,100,100,65,186,175,0.07,0.95,65,0,0,0.7,0.29,0.97,-3,-2,167,6,-1,1,0.13
Las Vegas Motor Speedway,Oval,"('Practice',)",NASCAR Chevrolet Camaro ZL1,0,0,Not Pacing,False,38,12:03.933,True,0.0,0,0,00:00.000,0.0,00:00.000,0.0,71,0,100,111,2,8689,6,99,65,65,65,65,65,65,65,65,65,65,65,65,100,100,100,100,100,100,100,100,100,100,100,100,65,187,176,0.07,0.95,65,0,0,0.61,0.34,1.29,-3,0,169,5,-1,-3,0.15
Las Vegas Motor Speedway,Oval,"('Practice',)",NASCAR Chevrolet Camaro ZL1,0,0,Not Pacing,False,39,12:04.183,True,0.0,0,0,00:00.000,0.0,00:00.000,0.0,78,0,100,113,2,8862,6,99,65,65,65,65,65,65,65,65,65,65,65,65,100,100,100,100,100,100,100,100,100,100,100,100,65,187,176,0.07,0.95,65,0,0,0.36,0.38,1.03,-3,2,170,4,-1,-3,0.12
Las Vegas Motor Speedway,Oval,"('Practice',)",NASCAR Chevrolet Camaro ZL1,0,0,Not Pacing,False,40,12:04.449,True,0.0,0,0,00:00.000,0.0,00:00.000,0.0,83,0,100,115,2,9023,7,99,65,65,65,65,65,65,65,65,65,65,65,65,100,100,100,100,100,100,100,100,100,100,100,100,65,187,177,0.07,0.95,65,0,0,0.39,0.36,0.96,-4,-5,171,4,-1,0,0.11
Las Vegas Motor Speedway,Oval,"('Practice',)",NASCAR Chevrolet Camaro ZL1,0,0,Not Pacing,False,40,12:04.699,True,0.0,0,0,00:00.000,0.0,00:00.000,0.0,14,0,100,116,2,8899,8,99,65,65,65,65,65,65,65,65,65,65,65,65,100,100,100,100,100,100,100,100,100,100,100,100,65,188,177,0.07,0.95,65,0,0,0.38,-0.16,0.65,-6,-10,173,2,-1,5,0.08
Las Vegas Motor Speedway,Oval,"('Practice',)",NASCAR Chevrolet Camaro ZL1,0,0,Not Pacing,False,41,12:04.983,True,0.0,0,0,00:00.000,0.0,00:00.000,0.0,100,0,100,117,3,7069,3,99,65,65,65,65,65,65,65,65,65,65,65,65,100,100,100,100,100,100,100,100,100,100,100,100,65,188,177,0.07,0.95,65,0,0,0.16,0.6,1.05,-7,0,174,2,-2,-3,0.12
Las Vegas Motor Speedway,Oval,"('Practice',)",NASCAR Chevrolet Camaro ZL1,0,0,Not Pacing,False,41,12:05.249,True,0.0,0,0,00:00.000,0.0,00:00.000,0.0,100,0,100,119,3,6995,3,99,65,65,65,65,65,65,65,65,65,65,65,65,100,100,100,100,100,100,100,100,100,100,100,100,65,188,177,0.07,0.95,65,0,0,0.16,0.38,1.02,-7,-2,175,2,-1,-1,0.11
Las Vegas Motor Speedway,Oval,"('Practice',)",NASCAR Chevrolet Camaro ZL1,0,0,Not Pacing,False,42,12:05.499,True,0.0,0,0,00:00.000,0.0,00:00.000,0.0,100,0,100,121,3,7110,1,99,65,65,65,65,65,65,65,65,65,65,65,65,100,100,100,100,100,100,100,100,100,100,100,100,65,188,177,0.07,0.95,65,0,0,0.05,0.36,0.99,-7,-1,175,0,-1,-1,0.11
Las Vegas Motor Speedway,Oval,"('Practice',)",NASCAR Chevrolet Camaro ZL1,0,0,Not Pacing,False,42,12:05.766,True,0.0,0,0,00:00.000,0.0,00:00.000,0.0,100,0,100,123,3,7226,1,99,65,65,65,65,65,65,65,65,65,65,65,65,100,100,100,100,100,100,100,100,100,100,100,100,65,188,178,0.07,0.95,65,0,0,0.03,0.35,0.99,-8,-5,176,1,-1,0,0.11
Las Vegas Motor Speedway,Oval,"('Practice',)",NASCAR Chevrolet Camaro ZL1,0,0,Not Pacing,False,43,12:06.016,True,0.0,0,0,00:00.000,0.0,00:00.000,0.0,100,0,100,125,3,7331,-2,99,65,65,65,65,65,65,65,65,65,65,65,65,100,100,100,100,100,100,100,100,100,100,100,100,65,188,178,0.07,0.95,65,0,0,-0.04,0.35,0.94,-7,4,176,0,-1,0,0.1
Las Vegas Motor Speedway,Oval,"('Practice',)",NASCAR Chevrolet Camaro ZL1,0,0,Not Pacing,False,44,12:06.283,True,0.0,0,0,00:00.000,0.0,00:00.000,0.0,100,0,100,127,3,7431,-1,99,65,65,65,65,65,65,65,65,65,65,65,65,100,100,100,100,100,100,100,100,100,100,100,100,65,188,178,0.07,0.95,65,0,0,-0.06,0.34,1.0,-7,-2,176,0,-1,0,0.11
Las Vegas Motor Speedway,Oval,"('Practice',)",NASCAR Chevrolet Camaro ZL1,0,0,Not Pacing,False,44,12:06.533,True,0.0,0,0,00:00.000,0.0,00:00.000,0.0,100,0,100,128,3,7545,1,99,65,65,65,65,65,65,65,65,65,65,65,65,100,100,100,100,100,100,100,100,100,100,100,100,65,188,179,0.07,0.95,65,0,0,-0.08,0.35,1.08,-7,-2,176,0,-1,-2,0.12
Las Vegas Motor Speedway,Oval,"('Practice',)",NASCAR Chevrolet Camaro ZL1,0,0,Not Pacing,False,45,12:06.799,True,0.0,0,0,00:00.000,0.0,00:00.000,0.0,100,0,100,130,3,7648,-1,99,65,65,65,65,65,65,65,65,65,65,65,65,100,100,100,100,100,100,100,100,100,100,100,100,65,188,179,0.07,0.95,65,0,0,-0.1,0.33,0.91,-7,0,176,-1,-1,1,0.1
Las Vegas Motor Speedway,Oval,"('Practice',)",NASCAR Chevrolet Camaro ZL1,0,0,Not Pacing,False,46,12:07.066,True,0.0,0,0,00:00.000,0.0,00:00.000,0.0,100,0,100,132,3,7769,-2,99,65,65,65,65,65,65,65,65,65,65,65,65,100,100,100,100,100,100,100,100,100,100,100,100,65,188,180,0.07,0.95,65,0,0,-0.09,0.3,0.74,-7,-1,176,-1,-1,2,0.08
Las Vegas Motor Speedway,Oval,"('Practice',)",NASCAR Chevrolet Camaro ZL1,0,0,Not Pacing,False,46,12:07.316,True,0.0,0,0,00:00.000,0.0,00:00.000,0.0,100,0,100,134,3,7840,-2,99,65,65,65,65,65,65,65,65,65,65,65,65,100,100,100,100,100,100,100,100,100,100,100,100,65,188,180,0.07,0.95,65,0,0,-0.12,0.3,0.94,-7,2,176,0,-1,1,0.1
Las Vegas Motor Speedway,Oval,"('Practice',)",NASCAR Chevrolet Camaro ZL1,0,0,Not Pacing,False,47,12:07.583,True,0.0,0,0,00:00.000,0.0,00:00.000,0.0,100,0,100,136,3,7953,2,99,65,65,65,65,65,65,65,65,65,65,65,65,100,100,100,100,100,100,100,100,100,100,100,100,65,188,180,0.07,0.95,65,0,0,-0.09,0.32,1.0,-7,-1,176,1,-1,-1,0.11
Las Vegas Motor Speedway,Oval,"('Practice',)",NASCAR Chevrolet Camaro ZL1,0,0,Not Pacing,False,47,12:07.833,True,0.0,0,0,00:00.000,0.0,00:00.000,0.0,100,0,100,137,3,8041,-1,99,65,65,65,65,65,65,65,65,65,65,65,65,100,100,100,100,100,100,100,100,100,100,100,100,65,188,181,0.07,0.95,65,0,0,-0.06,0.3,1.05,-7,1,176,-1,-1,0,0.11
Las Vegas Motor Speedway,Oval,"('Practice',)",NASCAR Chevrolet Camaro ZL1,0,0,Not Pacing,False,48,12:08.099,True,0.0,0,0,00:00.000,0.0,00:00.000,0.0,100,0,100,139,3,8145,1,99,65,65,65,65,65,65,65,65,65,65,65,65,100,100,100,100,100,100,100,100,100,100,100,100,65,188,181,0.07,0.95,65,0,0,-0.01,0.29,0.92,-7,0,176,1,-1,1,0.1
Las Vegas Motor Speedway,Oval,"('Practice',)",NASCAR Chevrolet Camaro ZL1,0,0,Not Pacing,False,49,12:08.349,True,0.0,0,0,00:00.000,0.0,00:00.000,0.0,100,0,100,140,3,8229,0,99,65,65,65,65,65,65,65,65,65,65,65,65,100,100,100,100,100,100,100,100,100,100,100,100,65,188,181,0.07,0.95,65,0,0,0.01,0.27,0.88,-7,0,177,1,-1,2,0.09
Las Vegas Motor Speedway,Oval,"('Practice',)",NASCAR Chevrolet Camaro ZL1,0,0,Not Pacing,False,49,12:08.616,True,0.0,0,0,00:00.000,0.0,00:00.000,0.0,100,0,100,142,3,8324,1,99,65,65,65,65,65,65,65,65,65,65,65,65,100,100,100,100,100,100,100,100,100,100,100,100,65,188,182,0.07,0.95,65,0,0,0.01,0.29,1.11,-7,1,177,1,-1,-1,0.12
Las Vegas Motor Speedway,Oval,"('Practice',)",NASCAR Chevrolet Camaro ZL1,0,0,Not Pacing,False,50,12:08.866,True,0.0,0,0,00:00.000,0.0,00:00.000,0.0,100,0,100,143,3,8398,0,99,65,65,65,65,65,65,65,65,65,65,65,65,100,100,100,100,100,100,100,100,100,100,100,100,65,188,182,0.07,0.95,65,0,0,0.01,0.26,0.96,-7,-2,177,1,-1,0,0.1
Las Vegas Motor Speedway,Oval,"('Practice',)",NASCAR Chevrolet Camaro ZL1,0,0,Not Pacing,False,51,12:09.133,True,0.0,0,0,00:00.000,0.0,00:00.000,0.0,100,0,100,145,3,8491,0,99,65,65,65,65,65,65,65,65,65,65,65,65,100,100,100,100,100,100,100,100,100,100,100,100,65,188,182,0.07,0.95,65,0,0,0.03,0.25,1.04,-7,-2,177,1,-1,0,0.11
Las Vegas Motor Speedway,Oval,"('Practice',)",NASCAR Chevrolet Camaro ZL1,0,0,Not Pacing,False,51,12:09.399,True,0.0,0,0,00:00.000,0.0,00:00.000,0.0,100,0,100,146,3,8582,-1,99,65,65,65,65,65,65,65,65,65,65,65,65,100,100,100,100,100,100,100,100,100,100,100,100,65,189,183,0.07,0.95,65,0,0,-0.07,0.26,0.99,-7,0,178,0,-1,0,0.1
Las Vegas Motor Speedway,Oval,"('Practice',)",NASCAR Chevrolet Camaro ZL1,0,0,Not Pacing,False,52,12:09.649,True,0.0,0,0,00:00.000,0.0,00:00.000,0.0,100,0,100,148,3,8659,0,99,65,65,65,65,65,65,65,65,65,65,65,65,100,100,100,100,100,100,100,100,100,100,100,100,65,189,183,0.07,0.95,65,0,0,0.05,0.24,0.97,-7,0,178,1,-1,0,0.1
Las Vegas Motor Speedway,Oval,"('Practice',)",NASCAR Chevrolet Camaro ZL1,0,0,Not Pacing,False,53,12:09.916,True,0.0,0,0,00:00.000,0.0,00:00.000,0.0,100,0,100,149,3,8751,4,99,65,65,65,65,65,65,65,65,65,65,65,65,100,100,100,100,100,100,100,100,100,100,100,100,65,189,183,0.07,0.95,65,0,0,0.13,0.24,0.84,-7,3,178,2,-1,1,0.09
Las Vegas Motor Speedway,Oval,"('Practice',)",NASCAR Chevrolet Camaro ZL1,0,0,Not Pacing,False,54,12:10.166,True,0.0,0,0,00:00.000,0.0,00:00.000,0.0,100,0,100,150,3,8815,-1,99,65,65,65,65,65,65,65,65,65,65,65,65,100,100,100,100,100,100,100,100,100,100,100,100,65,189,184,0.07,0.95,65,0,0,0.11,0.24,1.12,-7,0,179,1,-1,-2,0.12
Las Vegas Motor Speedway,Oval,"('Practice',)",NASCAR Chevrolet Camaro ZL1,0,0,Not Pacing,False,54,12:10.433,True,0.0,0,0,00:00.000,0.0,00:00.000,0.0,100,0,100,152,3,8888,1,98,65,65,65,65,65,65,65,65,65,65,65,65,100,100,100,100,100,100,100,100,100,100,100,100,65,190,184,0.07,0.95,65,0,0,0.11,0.22,0.88,-7,-1,179,1,-1,0,0.09
Las Vegas Motor Speedway,Oval,"('Practice',)",NASCAR Chevrolet Camaro ZL1,0,0,Not Pacing,False,55,12:10.683,True,0.0,0,0,00:00.000,0.0,00:00.000,0.0,100,0,100,153,3,8963,2,98,65,65,65,65,65,65,65,65,65,65,65,65,100,100,100,100,100,100,100,100,100,100,100,100,65,190,184,0.07,0.95,65,0,0,0.01,0.23,0.96,-7,-4,179,0,-1,-1,0.1
Las Vegas Motor Speedway,Oval,"('Practice',)",NASCAR Chevrolet Camaro ZL1,0,0,Not Pacing,False,56,12:10.949,True,0.0,0,0,00:00.000,0.0,00:00.000,0.0,100,0,100,154,3,9029,-1,98,65,65,65,65,65,65,65,65,65,65,65,65,100,100,100,100,100,100,100,100,100,100,100,100,65,190,185,0.07,0.95,65,0,0,0.04,0.21,1.02,-7,0,-180,0,-1,-1,0.11
Las Vegas Motor Speedway,Oval,"('Practice',)",NASCAR Chevrolet Camaro ZL1,0,0,Not Pacing,False,56,12:11.199,True,0.0,0,0,00:00.000,0.0,00:00.000,0.0,0,0,100,154,4,7585,3,98,65,65,65,65,65,65,65,65,65,65,65,65,100,100,100,100,100,100,100,100,100,100,100,100,65,190,184,0.07,0.95,65,0,0,0.08,0.31,0.97,-7,-6,-180,1,-1,-2,0.1
Las Vegas Motor Speedway,Oval,"('Practice',)",NASCAR Chevrolet Camaro ZL1,0,0,Not Pacing,False,57,12:11.466,True,0.0,0,0,00:00.000,0.0,00:00.000,0.0,100,0,100,155,4,7597,2,98,65,65,65,65,65,65,65,65,65,65,65,65,100,100,100,100,100,100,100,100,100,100,100,100,65,190,184,0.07,0.95,65,0,0,0.37,0.2,1.0,-7,-4,-179,3,-1,1,0.11
Las Vegas Motor Speedway,Oval,"('Practice',)",NASCAR Chevrolet Camaro ZL1,0,0,Not Pacing,False,58,12:11.716,True,0.0,0,0,00:00.000,0.0,00:00.000,0.0,100,0,100,156,4,7647,5,98,65,65,65,65,65,65,65,65,65,65,65,65,100,100,100,100,100,100,100,100,100,100,100,100,65,190,185,0.07,0.95,65,0,0,0.48,0.17,0.92,-8,-5,-178,4,-1,2,0.11
Las Vegas Motor Speedway,Oval,"('Practice',)",NASCAR Chevrolet Camaro ZL1,0,0,Not Pacing,False,59,12:11.983,True,0.0,0,0,00:00.000,0.0,00:00.000,0.0,100,0,100,157,4,7701,14,98,65,65,65,65,65,65,65,65,65,65,65,65,100,100,100,100,100,100,100,100,100,100,100,100,65,190,185,0.07,0.95,65,0,0,0.82,0.19,1.04,-10,-6,-176,8,-1,0,0.14
Las Vegas Motor Speedway,Oval,"('Practice',)",NASCAR Chevrolet Camaro ZL1,0,0,Not Pacing,False,59,12:12.233,True,0.0,0,0,00:00.000,0.0,00:00.000,0.0,100,0,100,158,4,7755,14,98,65,65,65,65,65,65,65,65,65,65,65,65,100,100,100,100,100,100,100,100,100,100,100,100,65,190,185,0.07,0.95,65,0,0,1.07,0.19,1.17,-11,-6,-173,9,-1,-2,0.16
Las Vegas Motor Speedway,Oval,"('Practice',)",NASCAR Chevrolet Camaro ZL1,0,0,Not Pacing,False,60,12:12.499,True,0.0,0,0,00:00.000,0.0,00:00.000,0.0,100,0,100,159,4,7800,17,98,65,65,65,65,65,65,65,65,65,65,65,65,100,100,100,100,100,100,100,100,100,100,100,100,65,190,185,0.07,0.95,65,0,0,1.07,0.22,1.4,-13,-9,-170,10,-1,-5,0.18
Las Vegas Motor Speedway,Oval,"('Practice',)",NASCAR Chevrolet Camaro ZL1,0,0,Not Pacing,False,61,12:12.766,True,0.0,0,0,00:00.000,0.0,00:00.000,0.0,100,0,100,160,4,7834,15,98,65,65,65,65,65,65,65,65,65,65,65,65,100,100,100,100,100,100,100,100,100,100,100,100,65,190,186,0.07,0.95,65,0,0,1.29,0.18,1.52,-15,-6,-167,12,-1,-5,0.2
Las Vegas Motor Speedway,Oval,"('Practice',)",NASCAR Chevrolet Camaro ZL1,0,0,Not Pacing,False,62,12:13.016,True,0.0,0,0,00:00.000,0.0,00:00.000,0.0,100,0,100,161,4,7877,14,98,65,65,65,65,65,65,65,65,65,65,65,65,100,100,100,100,100,100,100,100,100,100,100,100,65,190,186,0.07,0.95,65,0,0,1.26,0.18,1.32,-17,-7,-164,11,-1,-3,0.19
Las Vegas Motor Speedway,Oval,"('Practice',)",NASCAR Chevrolet Camaro ZL1,0,0,Not Pacing,False,62,12:13.283,True,0.0,0,0,00:00.000,0.0,00:00.000,0.0,100,0,100,162,4,7915,16,98,65,65,65,65,65,65,65,65,65,65,65,65,100,100,100,100,100,100,100,100,100,100,100,100,65,190,186,0.07,0.95,65,0,0,1.51,0.18,1.61,-18,-5,-161,15,-1,-5,0.23
Las Vegas Motor Speedway,Oval,"('Practice',)",NASCAR Chevrolet Camaro ZL1,0,0,Not Pacing,False,63,12:13.533,True,0.0,0,0,00:00.000,0.0,00:00.000,0.0,100,0,100,162,4,7955,18,98,65,65,65,65,65,65,65,65,65,65,65,65,100,100,100,100,100,100,100,100,100,100,100,100,65,190,187,0.07,0.95,65,0,0,1.29,0.18,1.29,-19,-3,-157,11,-1,-3,0.19
Las Vegas Motor Speedway,Oval,"('Practice',)",NASCAR Chevrolet Camaro ZL1,0,0,Not Pacing,False,64,12:13.799,True,0.0,0,0,00:00.000,0.0,00:00.000,0.0,100,0,100,163,4,8004,14,98,65,65,65,65,65,65,65,65,65,65,65,65,100,100,100,100,100,100,100,100,100,100,100,100,65,190,187,0.07,0.95,65,0,0,1.34,0.19,1.38,-20,-3,-153,11,-1,-5,0.2
Las Vegas Motor Speedway,Oval,"('Practice',)",NASCAR Chevrolet Camaro ZL1,0,0,Not Pacing,False,65,12:14.049,True,0.0,0,0,00:00.000,0.0,00:00.000,0.0,100,0,100,164,4,8031,20,98,65,65,65,65,65,65,65,65,65,65,65,65,100,100,100,100,100,100,100,100,100,100,100,100,65,190,187,0.07,0.95,65,0,0,1.63,0.18,1.62,-20,0,-149,17,-1,-6,0.24
Las Vegas Motor Speedway,Oval,"('Practice',)",NASCAR Chevrolet Camaro ZL1,0,0,Not Pacing,False,65,12:14.316,True,0.0,0,0,00:00.000,0.0,00:00.000,0.0,55,0,100,164,4,8022,25,98,65,65,65,65,65,65,65,65,65,65,65,65,100,100,100,100,100,100,100,100,100,100,100,100,65,190,187,0.07,0.95,65,0,0,1.76,0.05,1.74,-20,3,-145,15,-1,-7,0.25
Las Vegas Motor Speedway,Oval,"('Practice',)",NASCAR Chevrolet Camaro ZL1,0,0,Not Pacing,False,66,12:14.566,True,0.0,0,0,00:00.000,0.0,00:00.000,0.0,41,0,100,164,4,7981,25,98,65,65,65,65,65,65,65,65,65,65,65,65,100,100,100,100,100,100,100,100,100,100,100,100,65,190,187,0.07,0.95,65,0,0,1.94,-0.07,1.78,-21,-2,-140,17,-1,-6,0.27
Las Vegas Motor Speedway,Oval,"('Practice',)",NASCAR Chevrolet Camaro ZL1,0,0,Not Pacing,False,67,12:14.833,True,0.0,0,0,00:00.000,0.0,00:00.000,0.0,23,0,100,163,4,7921,30,98,65,65,65,65,65,65,65,65,65,65,65,65,100,100,100,100,100,100,100,100,100,100,100,100,65,190,187,0.07,0.95,65,0,0,1.85,-0.17,1.57,-21,-4,-135,16,-1,-4,0.25
Las Vegas Motor Speedway,Oval,"('Practice',)",NASCAR Chevrolet Camaro ZL1,0,0,Not Pacing,False,68,12:15.099,True,0.0,0,0,00:00.000,0.0,00:00.000,0.0,0,0,100,162,4,7814,33,98,65,65,65,65,65,65,65,65,65,65,65,65,100,100,100,100,100,100,100,100,100,100,100,100,65,190,186,0.07,0.95,65,0,0,2.13,-0.27,1.86,-21,0,-130,21,-1,-7,0.29
Las Vegas Motor Speedway,Oval,"('Practice',)",NASCAR Chevrolet Camaro ZL1,0,0,Not Pacing,False,68,12:15.366,True,0.0,0,0,00:00.000,0.0,00:00.000,0.0,0,0,100,160,4,7712,34,98,65,65,65,65,65,65,65,65,65,65,65,65,100,100,100,100,100,100,100,100,100,100,100,100,65,190,185,0.07,0.95,65,0,0,2.36,-0.27,1.82,-21,0,-124,23,0,-9,0.31
Las Vegas Motor Speedway,Oval,"('Practice',)",NASCAR Chevrolet Camaro ZL1,0,0,Not Pacing,False,69,12:15.616,True,0.0,0,0,00:00.000,0.0,00:00.000,0.0,0,0,100,158,4,7618,22,98,65,65,65,65,65,65,65,65,65,65,65,65,100,100,100,100,100,100,100,100,100,100,100,100,65,190,185,0.07,0.95,65,0,0,2.01,-0.28,1.54,-21,-4,-119,16,0,-6,0.26
Las Vegas Motor Speedway,Oval,"('Practice',)",NASCAR Chevrolet Camaro ZL1,0,0,Not Pacing,False,70,12:15.883,True,0.0,0,0,00:00.000,0.0,00:00.000,0.0,53,0,100,157,4,7675,18,98,65,65,65,65,65,65,65,65,65,65,65,65,100,100,100,100,100,100,100,100,100,100,100,100,65,190,185,0.07,0.95,65,0,0,1.67,0.03,1.84,-21,3,-115,14,0,-9,0.25
Las Vegas Motor Speedway,Oval,"('Practice',)",NASCAR Chevrolet Camaro ZL1,0,0,Not Pacing,False,71,12:16.133,True,0.0,0,0,00:00.000,0.0,00:00.000,0.0,75,0,100,157,4,7675,21,98,65,65,65,65,65,65,65,65,65,65,65,65,100,100,100,100,100,100,100,100,100,100,100,100,65,190,185,0.07,0.95,65,0,0,1.66,0.14,1.68,-21,-4,-111,17,0,-5,0.24
Las Vegas Motor Speedway,Oval,"('Practice',)",NASCAR Chevrolet Camaro ZL1,0,0,Not Pacing,False,71,12:16.399,True,0.0,0,0,00:00.000,0.0,00:00.000,0.0,81,0,100,158,4,7723,18,98,65,65,65,65,65,65,65,65,65,65,65,65,100,100,100,100,100,100,100,100,100,100,100,100,65,190,185,0.07,0.95,65,0,0,1.68,0.19,1.76,-21,3,-106,15,0,-8,0.25
Las Vegas Motor Speedway,Oval,"('Practice',)",NASCAR Chevrolet Camaro ZL1,0,0,Not Pacing,False,72,12:16.649,True,0.0,0,0,00:00.000,0.0,00:00.000,0.0,82,0,100,159,4,7755,16,98,65,65,65,65,65,65,65,65,65,65,65,65,100,100,100,100,100,100,100,100,100,100,100,100,65,190,185,0.07,0.95,65,0,0,1.33,0.16,1.57,-21,-2,-102,11,0,-5,0.21
Las Vegas Motor Speedway,Oval,"('Practice',)",NASCAR Chevrolet Camaro ZL1,0,0,Not Pacing,False,73,12:16.916,True,0.0,0,0,00:00.000,0.0,00:00.000,0.0,78,0,100,160,4,7812,14,98,65,65,65,65,65,65,65,65,65,65,65,65,100,100,100,100,100,100,100,100,100,100,100,100,65,190,185,0.07,0.95,65,0,0,1.45,0.16,1.56,-21,-4,-98,14,0,-6,0.22
Las Vegas Motor Speedway,Oval,"('Practice',)",NASCAR Chevrolet Camaro ZL1,0,0,Not Pacing,False,73,12:17.166,True,0.0,0,0,00:00.000,0.0,00:00.000,0.0,78,0,100,160,4,7852,14,98,65,65,65,65,65,65,65,65,65,65,65,65,100,100,100,100,100,100,100,100,100,100,100,100,65,190,186,0.07,0.95,65,0,0,1.32,0.16,1.37,-21,1,-94,12,0,-5,0.19
Las Vegas Motor Speedway,Oval,"('Practice',)",NASCAR Chevrolet Camaro ZL1,0,0,Not Pacing,False,74,12:17.433,True,0.0,0,0,00:00.000,0.0,00:00.000,0.0,78,0,100,161,4,7868,20,98,65,65,65,65,65,65,65,65,65,65,65,65,100,100,100,100,100,100,100,100,100,100,100,100,65,190,186,0.07,0.95,65,0,0,1.45,0.14,1.53,-21,-1,-90,15,0,-4,0.22
Las Vegas Motor Speedway,Oval,"('Practice',)",NASCAR Chevrolet Camaro ZL1,0,0,Not Pacing,False,75,12:17.683,True,0.0,0,0,00:00.000,0.0,00:00.000,0.0,73,0,100,162,4,7893,22,98,65,65,65,65,65,65,65,65,65,65,65,65,100,100,100,100,100,100,100,100,100,100,100,100,65,190,186,0.07,0.95,65,0,0,1.76,0.15,1.81,-21,2,-85,16,0,-8,0.26
Las Vegas Motor Speedway,Oval,"('Practice',)",NASCAR Chevrolet Camaro ZL1,0,0,Not Pacing,False,76,12:17.949,True,0.0,0,0,00:00.000,0.0,00:00.000,0.0,69,0,100,162,4,7904,21,98,65,65,65,65,65,65,65,65,65,65,65,65,100,100,100,100,100,100,100,100,100,100,100,100,65,190,186,0.07,0.95,65,0,0,1.97,0.12,2.05,-21,6,-81,16,0,-8,0.29
Las Vegas Motor Speedway,Oval,"('Practice',)",NASCAR Chevrolet Camaro ZL1,0,0,Not Pacing,False,76,12:18.199,True,0.0,0,0,00:00.000,0.0,00:00.000,0.0,65,0,100,162,4,7916,24,98,65,65,65,65,65,65,65,65,65,65,65,65,100,100,100,100,100,100,100,100,100,100,100,100,65,190,186,0.07,0.95,65,0,0,2.15,0.06,1.97,-21,0,-76,20,0,-8,0.3
Las Vegas Motor Speedway,Oval,"('Practice',)",NASCAR Chevrolet Camaro ZL1,0,0,Not Pacing,False,77,12:18.466,True,0.0,0,0,00:00.000,0.0,00:00.000,0.0,63,0,100,163,4,7936,26,98,65,65,65,65,65,65,65,65,65,65,65,65,100,100,100,100,100,100,100,100,100,100,100,100,65,190,186,0.07,0.95,65,0,0,1.94,0.08,1.75,-21,-2,-71,16,0,-5,0.27
Las Vegas Motor Speedway,Oval,"('Practice',)",NASCAR Chevrolet Camaro ZL1,0,0,Not Pacing,False,78,12:18.716,True,0.0,0,0,00:00.000,0.0,00:00.000,0.0,62,0,100,163,4,7941,22,98,65,65,65,65,65,65,65,65,65,65,65,65,100,100,100,100,100,100,100,100,100,100,100,100,65,190,186,0.07,0.95,65,0,0,1.78,0.06,1.66,-21,2,-66,16,0,-6,0.25
Las Vegas Motor Speedway,Oval,"('Practice',)",NASCAR Chevrolet Camaro ZL1,0,0,Not Pacing,False,79,12:18.983,True,0.0,0,0,00:00.000,0.0,00:00.000,0.0,65,0,100,163,4,7952,24,98,65,65,65,65,65,65,65,65,65,65,65,65,100,100,100,100,100,100,100,100,100,100,100,100,65,190,186,0.07,0.95,65,0,0,1.88,0.1,1.96,-21,3,-62,17,0,-7,0.28
Las Vegas Motor Speedway,Oval,"('Practice',)",NASCAR Chevrolet Camaro ZL1,0,0,Not Pacing,False,79,12:19.233,True,0.0,0,0,00:00.000,0.0,00:00.000,0.0,69,0,100,163,4,7971,21,98,65,65,65,65,65,65,65,65,65,65,65,65,100,100,100,100,100,100,100,100,100,100,100,100,65,190,186,0.07,0.95,65,0,0,1.94,0.1,1.94,-21,3,-57,16,0,-8,0.28
Las Vegas Motor Speedway,Oval,"('Practice',)",NASCAR Chevrolet Camaro ZL1,0,0,Not Pacing,False,80,12:19.499,True,0.0,0,0,00:00.000,0.0,00:00.000,0.0,70,0,100,164,4,7987,15,98,65,65,65,65,65,65,65,65,65,65,65,65,100,100,100,100,100,100,100,100,100,100,100,100,65,190,186,0.07,0.95,65,0,0,1.9,0.1,1.95,-21,0,-52,17,0,-7,0.28
Las Vegas Motor Speedway,Oval,"('Practice',)",NASCAR Chevrolet Camaro ZL1,0,0,Not Pacing,False,81,12:19.766,True,0.0,0,0,00:00.000,0.0,00:00.000,0.0,69,0,100,164,4,8005,25,98,65,65,65,65,65,65,65,65,65,65,65,65,100,100,100,100,100,100,100,100,100,100,100,100,65,190,187,0.07,0.95,65,0,0,1.61,0.1,1.51,-21,-2,-48,15,0,-5,0.23
Las Vegas Motor Speedway,Oval,"('Practice',)",NASCAR Chevrolet Camaro ZL1,0,0,Not Pacing,False,82,12:20.016,True,0.0,0,0,00:00.000,0.0,00:00.000,0.0,64,0,100,164,4,8026,23,98,65,65,65,65,65,65,65,65,65,65,65,65,100,100,100,100,100,100,100,100,100,100,100,100,65,190,187,0.07,0.95,65,0,0,1.72,0.07,1.5,-20,6,-44,17,0,-4,0.23
Las Vegas Motor Speedway,Oval,"('Practice',)",NASCAR Chevrolet Camaro ZL1,0,0,Not Pacing,False,82,12:20.283,True,0.0,0,0,00:00.000,0.0,00:00.000,0.0,60,0,100,164,4,8029,24,98,65,65,65,65,65,65,65,65,65,65,65,65,100,100,100,100,100,100,100,100,100,100,100,100,65,190,187,0.07,0.95,65,0,0,1.94,0.05,1.63,-19,8,-39,17,1,-6,0.26
Las Vegas Motor Speedway,Oval,"('Practice',)",NASCAR Chevrolet Camaro ZL1,0,0,Not Pacing,False,83,12:20.533,True,0.0,0,0,00:00.000,0.0,00:00.000,0.0,64,0,100,164,4,8028,14,98,65,65,65,65,65,65,65,65,65,65,65,65,100,100,100,100,100,100,100,100,100,100,100,100,65,190,187,0.07,0.95,65,0,0,1.83,0.08,1.76,-17,7,-35,12,1,-7,0.26
Las Vegas Motor Speedway,Oval,"('Practice',)",NASCAR Chevrolet Camaro ZL1,0,0,Not Pacing,False,84,12:20.799,True,0.0,0,0,00:00.000,0.0,00:00.000,0.0,70,0,100,165,4,8052,16,98,65,65,65,65,65,65,65,65,65,65,65,65,100,100,100,100,100,100,100,100,100,100,100,100,65,190,187,0.07,0.95,65,0,0,1.45,0.1,1.59,-15,14,-32,14,0,-5,0.22
Las Vegas Motor Speedway,Oval,"('Practice',)",NASCAR Chevrolet Camaro ZL1,0,0,Not Pacing,False,85,12:21.049,True,0.0,0,0,00:00.000,0.0,00:00.000,0.0,82,0,100,165,4,8097,1,98,65,65,65,65,65,65,65,65,65,65,65,65,100,100,100,100,100,100,100,100,100,100,100,100,65,190,187,0.07,0.95,65,0,0,1.19,0.11,1.37,-12,5,-29,8,0,-5,0.19
Las Vegas Motor Speedway,Oval,"('Practice',)",NASCAR Chevrolet Camaro ZL1,0,0,Not Pacing,False,85,12:21.316,True,0.0,0,0,00:00.000,0.0,00:00.000,0.0,100,0,100,166,4,8181,-5,98,65,65,65,65,65,65,65,65,65,65,65,65,100,100,100,100,100,100,100,100,100,100,100,100,65,190,187,0.07,0.95,65,0,0,-0.3,0.19,1.36,-12,5,-29,-4,0,-5,0.14
Las Vegas Motor Speedway,Oval,"('Practice',)",NASCAR Chevrolet Camaro ZL1,0,0,Not Pacing,False,86,12:21.566,True,0.0,0,0,00:00.000,0.0,00:00.000,0.0,100,0,100,167,4,8208,-2,98,65,65,65,65,65,65,65,65,65,65,65,65,100,100,100,100,100,100,100,100,100,100,100,100,65,190,187,0.07,0.95,65,0,0,-0.26,0.15,1.65,-11,-7,-29,-1,-1,-6,0.17
Las Vegas Motor Speedway,Oval,"('Practice',)",NASCAR Chevrolet Camaro ZL1,0,0,Not Pacing,False,87,12:21.833,True,0.0,0,0,00:00.000,0.0,00:00.000,0.0,100,0,100,168,4,8248,3,98,65,65,65,65,65,65,65,65,65,65,65,65,100,100,100,100,100,100,100,100,100,100,100,100,65,190,188,0.07,0.95,65,0,0,0.05,0.12,0.94,-11,3,-29,1,-1,1,0.1
Las Vegas Motor Speedway,Oval,"('Practice',)",NASCAR Chevrolet Camaro ZL1,0,0,Not Pacing,False,88,12:22.083,True,0.0,0,0,00:00.000,0.0,00:00.000,0.0,100,0,100,169,4,8311,2,98,65,65,65,65,65,65,65,65,65,65,65,65,100,100,100,100,100,100,100,100,100,100,100,100,65,190,188,0.07,0.95,65,0,0,0.24,0.14,0.85,-10,-1,-28,2,-1,0,0.09
Las Vegas Motor Speedway,Oval,"('Practice',)",NASCAR Chevrolet Camaro ZL1,0,0,Not Pacing,False,89,12:22.349,True,0.0,0,0,00:00.000,0.0,00:00.000,0.0,100,0,100,170,4,8348,9,98,65,65,65,65,65,65,65,65,65,65,65,65,100,100,100,100,100,100,100,100,100,100,100,100,65,190,188,0.07,0.95,65,0,0,0.52,0.17,1.07,-10,-3,-27,6,-1,-1,0.12
Las Vegas Motor Speedway,Oval,"('Practice',)",NASCAR Chevrolet Camaro ZL1,0,0,Not Pacing,False,89,12:22.616,True,0.0,0,0,00:00.000,0.0,00:00.000,0.0,100,0,100,170,4,8367,10,98,65,65,65,65,65,65,65,65,65,65,65,65,100,100,100,100,100,100,100,100,100,100,100,100,65,190,188,0.07,0.95,65,0,0,0.68,0.11,0.71,-10,-1,-25,5,0,4,0.1
Las Vegas Motor Speedway,Oval,"('Practice',)",NASCAR Chevrolet Camaro ZL1,0,0,Not Pacing,False,90,12:22.866,True,0.0,0,0,00:00.000,0.0,00:00.000,0.0,100,0,100,171,4,8392,8,98,65,65,65,65,65,65,65,65,65,65,65,65,100,100,100,100,100,100,100,100,100,100,100,100,65,190,189,0.07,0.95,65,0,0,1.05,0.14,1.19,-10,1,-23,9,0,-2,0.16
Las Vegas Motor Speedway,Oval,"('Practice',)",NASCAR Chevrolet Camaro ZL1,0,0,Not Pacing,False,91,12:23.133,True,0.0,0,0,00:00.000,0.0,00:00.000,0.0,100,0,100,172,4,8445,9,98,65,65,65,65,65,65,65,65,65,65,65,65,100,100,100,100,100,100,100,100,100,100,100,100,65,190,189,0.07,0.95,65,0,0,0.87,0.15,1.06,-10,-1,-21,6,0,-1,0.14
