TrackName,TrackType,SessionFlag,CarName,RacePosition,Lap Nbr,PaceMode,OnPitRoad,LapDistPrct %,SessionTime,IsOnTrack,PreviousLap,LapBestLap,LapCompleted,CurrentLapTime,LapBestLapTime,LapDeltaToBestLap,LapDeltaToBestLap_DD,Throttle %,Brake %,Clutch %,Speed (MPH),currentGear,RPM,SteeringWheelAngle (deg),FuelLevelPct,LFtempCL (F),LFtempCR (F),LFtempCM (F),LRtempCL (F),LRtempCR (F),LRtempCM (F),RFtempCL (F),RFtempCR (F),RFtempCM (F),RRtempCL (F),RRtempCR (F),RRtempCM (F),LFwearL %,LFwearM %,LFwearR %,LRwearL %,LRwearM %,LRwearR %,RFwearL %,RFwearM %,RFwearR %,RRwearL %,RRwearM %,RRwearR %,TrackTemp (F),OilTemp (F),WaterTemp (F),AirDensity (lbs/ft^3),AirPressure (bar),AirTemp (F),WindDir (deg),WindVel (MPH),LatAccel (m/s),LongAccel (m/s),VertAccel (m/s),Roll (deg),RollRate (deg/s),Yaw (deg),YawRate (deg/s),Pitch (deg),PitchRate (deg/s),gForces
Watkins Glen,Boot,"('Practice',)",Mercedes W12,2,4,Not Pacing,True,3,27:48.000516,True,81.521,3,3,02:56.000617,81.521,00:00.000000,0.0,0,100,100,0,N,4000,-1,56,202,209,201,198,209,201,192,179,184,204,185,196,98,98,98,99,99,99,98,98,99,98,98,99,65,168,164,0.07,1.0,65,-316,15,-0.02173121703388008,-0.03821747443970069,0.998602389803234,1,-1,-176,-1,-3,0,0.10199690657630502
Watkins Glen,Boot,"('Practice',)",Mercedes W12,2,4,Not Pacing,True,3,27:48.000650,True,81.521,3,3,02:56.000750,81.521,00:00.000000,0.0,0,100,100,0,N,4000,-1,56,202,209,201,198,209,201,192,179,184,204,185,196,98,98,98,99,99,99,98,98,99,98,98,99,65,168,163,0.07,1.0,65,-316,15,-0.020848881457073122,-0.037371604935960055,0.9988586472444213,1,-1,-176,0,-3,0,0.10201784996080498
Watkins Glen,Boot,"('Practice',)",Mercedes W12,2,4,Not Pacing,True,3,27:48.000800,True,81.521,3,3,02:56.000900,81.521,00:00.000000,0.0,0,100,100,0,N,4000,1,56,202,209,201,198,209,201,192,179,184,204,185,196,98,98,98,99,99,99,98,98,99,98,98,99,65,168,163,0.07,1.0,65,-316,15,-0.02073947108606072,-0.03707623688331316,0.9988202475140461,1,0,-176,0,-3,-1,0.1020125807795337
Watkins Glen,Boot,"('Practice',)",Mercedes W12,2,4,Not Pacing,True,3,27:48.000933,True,81.521,3,3,02:57.000034,81.521,00:00.000000,0.0,0,100,100,0,N,4000,0,56,202,209,201,198,209,201,192,179,184,204,185,196,98,98,98,99,99,99,98,98,99,98,98,99,65,168,163,0.07,1.0,65,-316,15,-0.020595528299290834,-0.03712542134808959,0.99845355439259,1,-1,-176,0,-3,0,0.10197507948748319
Watkins Glen,Boot,"('Practice',)",Mercedes W12,2,4,Not Pacing,True,3,27:49.000066,True,81.521,3,3,02:57.000167,81.521,00:00.000000,0.0,0,100,100,0,N,4000,0,56,202,209,201,198,209,201,192,179,184,204,185,196,98,98,98,99,99,99,98,98,99,98,98,99,65,168,163,0.07,1.0,65,-316,15,-0.02064593250233828,-0.037876813540521866,0.998441694222702,1,0,-176,0,-3,0,0.10197685364152644
Watkins Glen,Boot,"('Practice',)",Mercedes W12,2,4,Not Pacing,True,3,27:49.000200,True,81.521,3,3,02:57.000300,81.521,00:00.000000,0.0,0,100,100,0,N,4000,0,56,202,209,201,198,209,201,192,179,184,204,185,196,98,98,98,99,99,99,98,98,99,98,98,99,65,168,163,0.07,1.0,65,-316,15,-0.02016269741437486,-0.0376322977890419,0.9985032310058095,1,-1,-176,-1,-3,0,0.10198117780318085
Watkins Glen,Boot,"('Practice',)",Mercedes W12,2,4,Not Pacing,True,3,27:49.000333,True,81.521,3,3,02:57.000434,81.521,00:00.000000,0.0,0,100,100,0,N,4000,0,56,202,209,201,198,209,201,192,179,184,204,185,196,98,98,98,99,99,99,98,98,99,98,98,99,65,168,163,0.07,1.0,65,-316,15,-0.020030961124175184,-0.03568835093219224,0.998798277035401,1,0,-176,-1,-3,-1,0.10200371243809059
Watkins Glen,Boot,"('Practice',)",Mercedes W12,2,4,Not Pacing,True,3,27:49.000466,True,81.521,3,3,02:57.000567,81.521,00:00.000000,0.0,0,100,100,0,1,4000,-1,56,202,209,201,198,209,201,192,179,184,204,185,196,98,98,98,99,99,99,98,98,99,98,98,99,65,168,163,0.07,1.0,65,-316,15,-0.02028052443515027,-0.03707025515316215,0.9988613692506251,1,-1,-176,-1,-3,-1,0.10201578971004277
Watkins Glen,Boot,"('Practice',)",Mercedes W12,2,4,Not Pacing,True,3,27:49.000616,True,81.521,3,3,02:57.000717,81.521,00:00.000000,0.0,0,100,100,0,1,4000,-2,56,202,209,201,198,209,201,192,179,184,204,185,196,98,98,98,99,99,99,98,98,99,98,98,99,65,168,163,0.07,1.0,65,-316,15,-0.020223606860115137,-0.03747138347586847,0.9983589646770076,1,0,-176,0,-3,0,0.10196597874067241
Watkins Glen,Boot,"('Practice',)",Mercedes W12,2,4,Not Pacing,True,3,27:49.000750,True,81.521,3,3,02:57.000850,81.521,00:00.000000,0.0,0,100,100,0,1,4000,-2,56,202,209,201,198,209,201,192,179,184,204,185,196,98,98,98,99,99,99,98,98,99,98,98,99,65,168,163,0.07,1.0,65,-316,15,-0.020559045517481063,-0.036514330955334275,0.9985485329662015,1,0,-176,-1,-3,0,0.10198238854820406
Watkins Glen,Boot,"('Practice',)",Mercedes W12,2,4,Not Pacing,True,3,27:49.000883,True,81.521,3,3,02:57.000984,81.521,00:00.000000,0.0,6,100,100,0,1,4583,-3,56,202,209,201,198,209,201,192,179,184,204,185,196,98,98,98,99,99,99,98,98,99,98,98,99,65,168,163,0.07,1.0,65,-316,15,-0.019856044884000227,-0.03705412665881391,0.99872400515184,1,-1,-176,0,-3,-1,0.10200085489385678
Watkins Glen,Boot,"('Practice',)",Mercedes W12,2,4,Not Pacing,True,3,27:50.000016,True,81.521,3,3,02:58.000117,81.521,00:00.000000,0.0,6,100,100,0,1,5434,-3,56,202,209,201,198,209,201,192,179,184,204,185,196,98,98,98,99,99,99,98,98,99,98,98,99,65,168,163,0.07,1.0,65,-316,15,-0.019525672013849533,-0.03635715940069107,0.9988368711947908,1,0,-176,-1,-3,0,0.10200908640171157
Watkins Glen,Boot,"('Practice',)",Mercedes W12,2,4,Not Pacing,True,3,27:50.000166,True,81.521,3,3,02:58.000267,81.521,00:00.000000,0.0,4,100,100,0,1,6019,-4,56,202,209,201,198,209,201,192,179,184,204,185,196,98,98,98,99,99,99,98,98,99,98,98,99,65,168,163,0.07,1.0,65,-316,15,-0.018921538534271365,-0.03835201931777472,0.998757835800373,1,0,-176,0,-3,0,0.1020074494720947
Watkins Glen,Boot,"('Practice',)",Mercedes W12,2,4,Not Pacing,True,3,27:50.000300,True,81.521,3,3,02:58.000400,81.521,00:00.000000,0.0,2,100,100,0,1,5912,-4,56,202,209,201,198,209,201,192,179,184,204,185,196,98,98,98,99,99,99,98,98,99,98,98,99,65,168,163,0.07,1.0,65,-316,15,-0.02013927327505067,-0.035974769174262775,0.9991675949485537,1,0,-176,0,-3,-1,0.10204263555217413
Watkins Glen,Boot,"('Practice',)",Mercedes W12,2,4,Not Pacing,True,3,27:50.000433,True,81.521,3,3,02:58.000534,81.521,00:00.000000,0.0,3,100,100,0,1,5668,-5,56,202,209,201,198,209,201,192,179,184,204,185,196,98,98,98,99,99,99,98,98,99,98,98,99,65,168,162,0.07,1.0,65,-316,15,-0.020427134544963622,-0.03753529593849765,0.9987816533546564,1,0,-176,0,-3,-1,0.10200973798894289
Watkins Glen,Boot,"('Practice',)",Mercedes W12,2,4,Not Pacing,True,3,27:50.000566,True,81.521,3,3,02:58.000667,81.521,00:00.000000,0.0,4,100,100,0,1,5760,-5,56,202,209,201,198,209,201,192,179,184,204,185,196,98,98,98,99,99,99,98,98,99,98,98,99,65,168,162,0.07,1.0,65,-316,15,-0.020767651141358198,-0.03739377288157301,0.9986404978900874,1,-1,-176,-1,-3,-1,0.10199552227446104
Watkins Glen,Boot,"('Practice',)",Mercedes W12,2,4,Not Pacing,True,3,27:50.000700,True,81.521,3,3,02:58.000800,81.521,00:00.000000,0.0,5,100,100,0,1,6020,-5,56,202,209,201,198,209,201,192,179,184,204,185,196,98,98,98,99,99,99,98,98,99,98,98,99,65,168,162,0.07,1.0,65,-316,15,-0.019740598099676473,-0.038150445036931865,0.9982483345677242,1,0,-176,0,-3,0,0.10195633672032861
Watkins Glen,Boot,"('Practice',)",Mercedes W12,2,4,Not Pacing,True,3,27:50.000850,True,81.521,3,3,02:58.000950,81.521,00:00.000000,0.0,6,100,100,0,1,6815,-6,56,202,209,201,198,209,201,192,179,184,204,185,196,98,98,98,99,99,99,98,98,99,98,98,99,65,168,162,0.07,1.0,65,-316,15,-0.02204431458229197,-0.03749641924944614,0.9989346689891134,1,0,-176,0,-3,-1,0.10202869347224178
Watkins Glen,Boot,"('Practice',)",Mercedes W12,2,4,Not Pacing,True,3,27:51.000000,True,81.521,3,3,02:59.000100,81.521,00:00.000000,0.0,7,100,96,0,1,7752,-6,56,202,209,201,198,209,201,192,179,184,204,185,196,98,98,98,99,99,99,98,98,99,98,98,99,65,168,162,0.07,1.0,65,-316,15,-0.021360115842109548,-0.03762524366135748,0.9988015823286486,1,0,-176,-1,-3,0,0.10201410437981319
Watkins Glen,Boot,"('Practice',)",Mercedes W12,2,4,Not Pacing,True,3,27:51.000133,True,81.521,3,3,02:59.000234,81.521,00:00.000000,0.0,8,100,96,0,1,8929,-6,56,202,209,201,198,209,201,192,179,184,204,185,196,98,98,98,99,99,99,98,98,99,98,98,99,65,168,162,0.07,1.0,65,-316,15,-0.01985771727732076,-0.037864078440068324,0.9988234555927863,1,-1,-176,0,-3,0,0.10201409409356482
Watkins Glen,Boot,"('Practice',)",Mercedes W12,2,4,Not Pacing,True,3,27:51.000283,True,81.521,3,3,02:59.000384,81.521,00:00.000000,0.0,8,100,96,0,1,10076,-7,56,202,209,201,198,209,201,192,179,184,204,185,196,98,98,98,99,99,99,98,98,99,98,98,99,65,168,162,0.07,1.0,65,-316,15,-0.016869730662619056,-0.0381378648720993,0.9991587484283914,1,0,-176,0,-3,-1,0.10204373919847622
Watkins Glen,Boot,"('Practice',)",Mercedes W12,2,4,Not Pacing,True,3,27:51.000433,True,81.521,3,3,02:59.000534,81.521,00:00.000000,0.0,8,100,94,0,1,11316,-10,56,202,209,201,198,209,201,192,179,184,204,185,196,98,98,98,99,99,99,98,98,99,98,98,99,65,168,162,0.07,1.0,65,-316,15,-0.02145612580088422,-0.03512296654762478,0.998061779928256,1,0,-176,0,-3,0,0.10192959779052249
Watkins Glen,Boot,"('Practice',)",Mercedes W12,2,4,Not Pacing,True,3,27:51.000566,True,81.521,3,3,02:59.000667,81.521,00:00.000000,0.0,9,100,94,0,1,12450,-12,56,202,209,201,198,209,201,192,179,184,204,185,196,98,98,98,99,99,99,98,98,99,98,98,99,65,168,162,0.07,1.0,65,-316,15,-0.02560849461958921,-0.03721330630062309,0.9986425393947402,1,-1,-176,0,-3,0,0.10200650171249379
Watkins Glen,Boot,"('Practice',)",Mercedes W12,2,4,Not Pacing,True,3,27:51.000716,True,81.521,3,3,02:59.000817,81.521,00:00.000000,0.0,11,100,92,0,1,12971,-13,56,202,209,201,198,209,201,192,179,184,204,185,196,98,98,98,99,99,99,98,98,99,98,98,99,65,168,161,0.07,1.0,65,-316,15,-0.019277917804095844,-0.03729976645303428,0.998782917143251,1,0,-176,0,-3,0,0.1020066384736076
Watkins Glen,Boot,"('Practice',)",Mercedes W12,2,4,Not Pacing,True,3,27:51.000866,True,81.521,3,3,02:59.000967,81.521,00:00.000000,0.0,11,0,88,0,1,12969,-13,56,202,209,201,198,209,201,192,179,184,204,185,196,98,98,98,99,99,99,98,98,99,98,98,99,65,169,161,0.07,1.0,65,-316,15,0.0011809739862377853,-0.007943947259317722,0.9914806494289946,1,-1,-176,0,-3,0,0.10117481392942745
Watkins Glen,Boot,"('Practice',)",Mercedes W12,2,4,Not Pacing,True,3,27:52.000000,True,81.521,3,3,03:00.000100,81.521,00:00.000000,0.0,4,0,83,0,1,12448,-8,56,202,209,201,198,209,201,192,179,184,204,185,196,98,98,98,99,99,99,98,98,99,98,98,99,65,169,161,0.07,1.0,65,-316,15,0.011807004185383958,-0.020491590801242902,0.9977277508812455,1,0,-176,0,-3,0,0.10183755140157295
Watkins Glen,Boot,"('Practice',)",Mercedes W12,2,4,Not Pacing,True,3,27:52.000150,True,81.521,3,3,03:00.000250,81.521,00:00.000000,0.0,5,0,83,0,1,11324,-9,56,202,209,201,198,209,201,192,179,184,204,185,196,98,98,98,99,99,99,98,98,99,98,98,99,65,169,161,0.07,1.0,65,-316,15,-0.02031057435073619,0.10675419118183224,1.0028027370192345,1,-1,-176,0,-3,-1,0.10292587121827708
Watkins Glen,Boot,"('Practice',)",Mercedes W12,2,4,Not Pacing,True,3,27:52.000283,True,81.521,3,3,03:00.000384,81.521,00:00.000000,0.0,10,0,82,0,1,10968,-16,56,202,209,201,198,209,201,192,179,184,204,185,196,98,98,98,99,99,99,98,98,99,98,98,99,65,169,161,0.07,1.0,65,-316,15,-0.030010911302829006,0.07200598352181437,0.9992740448340242,1,0,-176,0,-3,0,0.10227697840538678
Watkins Glen,Boot,"('Practice',)",Mercedes W12,2,4,Not Pacing,True,3,27:52.000416,True,81.521,3,3,03:00.000517,81.521,00:00.000000,0.0,13,0,82,1,1,11823,-16,56,202,209,201,198,209,201,192,179,184,204,185,196,98,98,98,99,99,99,98,98,99,98,98,99,65,169,161,0.07,1.0,65,-316,15,-0.0151331514636554,0.08504269198418635,1.0004355637669926,1,-1,-176,0,-3,0,0.10246506647537079
Watkins Glen,Boot,"('Practice',)",Mercedes W12,2,4,Not Pacing,True,3,27:52.000550,True,81.521,3,3,03:00.000650,81.521,00:00.000000,0.0,12,0,82,1,1,12558,-17,56,202,209,201,198,209,201,192,179,184,204,185,196,98,98,98,99,99,99,98,98,99,98,98,99,65,169,161,0.07,1.0,65,-316,15,-0.02386027702133225,0.08823808423119096,0.9998423608435767,1,-1,-176,0,-3,0,0.10245020015461137
Watkins Glen,Boot,"('Practice',)",Mercedes W12,2,4,Not Pacing,True,3,27:52.000700,True,81.521,3,3,03:00.000800,81.521,00:00.000000,0.0,8,0,79,2,1,12290,-16,56,202,209,201,198,209,201,192,179,184,204,185,196,98,98,98,99,99,99,98,98,99,98,98,99,65,169,161,0.07,1.0,65,-316,15,-0.0013577828713513295,0.13967613925992164,0.9982842067209101,1,0,-176,0,-3,0,0.10285808555818403
Watkins Glen,Boot,"('Practice',)",Mercedes W12,2,4,Not Pacing,True,3,27:52.000833,True,81.521,3,3,03:00.000934,81.521,00:00.000000,0.0,8,0,79,2,1,11399,-14,56,202,209,201,198,209,201,192,179,184,204,185,196,98,98,98,99,99,99,98,98,99,98,98,99,65,169,161,0.07,1.0,65,-316,15,-0.02969552617554271,0.12923520396365787,1.001939569409105,1,0,-176,0,-3,0,0.10313022861512207
Watkins Glen,Boot,"('Practice',)",Mercedes W12,2,4,Not Pacing,True,3,27:52.000983,True,81.521,3,3,03:01.000084,81.521,00:00.000000,0.0,10,0,78,3,1,10588,-15,56,202,209,201,198,209,201,192,179,184,204,185,196,98,98,98,99,99,99,98,98,99,98,98,99,65,170,161,0.07,1.0,65,-316,15,0.0022295159909581797,0.16978845440770263,0.9983896844613077,1,-1,-176,0,-3,-1,0.10333944322038173
Watkins Glen,Boot,"('Practice',)",Mercedes W12,2,4,Not Pacing,True,3,27:53.000116,True,81.521,3,3,03:01.000217,81.521,00:00.000000,0.0,11,0,77,3,1,10078,-17,56,202,209,201,198,209,201,192,179,184,204,185,196,98,98,98,99,99,99,98,98,99,98,98,99,65,170,161,0.07,1.0,65,-316,15,-0.03109798822684876,0.16971234760031664,0.9997478683425016,1,-1,-176,0,-3,-1,0.10352316991996752
Watkins Glen,Boot,"('Practice',)",Mercedes W12,2,4,Not Pacing,True,3,27:53.000250,True,81.521,3,3,03:01.000350,81.521,00:00.000000,0.0,13,0,77,4,1,9957,-18,56,202,209,201,198,209,201,192,179,184,204,185,196,98,98,98,99,99,99,98,98,99,98,98,99,65,170,161,0.07,1.0,65,-316,15,-0.007653511323938554,0.21444412060347778,1.001776443465891,1,0,-176,0,-3,-1,0.10454084868577271
Watkins Glen,Boot,"('Practice',)",Mercedes W12,2,4,Not Pacing,True,3,27:53.000400,True,81.521,3,3,03:01.000500,81.521,00:00.000000,0.0,14,0,76,5,1,9893,-18,56,202,209,201,198,209,201,192,179,184,204,185,196,98,98,98,99,99,99,98,98,99,98,98,99,65,170,161,0.07,1.0,65,-316,15,-0.02084177264622835,0.2323770377249528,0.9998366251876473,1,0,-176,0,-3,-1,0.10476500071591204
Watkins Glen,Boot,"('Practice',)",Mercedes W12,2,4,Not Pacing,True,3,27:53.000533,True,81.521,3,3,03:01.000634,81.521,00:00.000000,0.0,15,0,76,6,1,10049,-18,56,202,209,201,198,209,201,192,179,184,204,185,196,98,98,98,99,99,99,98,98,99,98,98,99,65,170,161,0.07,1.0,65,-316,15,-0.020999989256824798,0.20136940126875974,1.0003295999540587,1,-1,-176,1,-3,-1,0.10414413608757953
Watkins Glen,Boot,"('Practice',)",Mercedes W12,2,4,Not Pacing,True,3,27:53.000666,True,81.521,3,3,03:01.000767,81.521,00:00.000000,0.0,15,0,75,6,1,10091,-19,56,202,209,201,198,209,201,192,179,184,204,185,196,98,98,98,99,99,99,98,98,99,98,98,99,65,170,161,0.07,1.0,65,-316,15,-0.003893351396897031,0.2761007935021388,1.0010964279874748,1,0,-176,1,-3,-1,0.10596735450904726
Watkins Glen,Boot,"('Practice',)",Mercedes W12,2,4,Not Pacing,True,3,27:53.000816,True,81.521,3,3,03:01.000917,81.521,00:00.000000,0.0,16,0,72,7,1,9888,-20,56,202,209,201,198,209,201,192,179,184,204,185,196,98,98,98,99,99,99,98,98,99,98,98,99,65,170,161,0.07,1.0,65,-316,15,-0.01648170351374526,0.34050129726149375,0.9813718961041029,1,-1,-177,1,-3,0,0.10600973107490799
Watkins Glen,Boot,"('Practice',)",Mercedes W12,2,4,Not Pacing,True,3,27:53.000950,True,81.521,3,3,03:02.000050,81.521,00:00.000000,0.0,17,0,70,9,1,8530,-20,56,202,209,201,198,209,201,192,179,184,204,185,196,98,98,98,99,99,99,98,98,99,98,98,99,65,170,161,0.07,1.0,65,-316,15,0.020509870166564692,0.4237676128577991,0.9896224913368652,1,0,-177,1,-3,0,0.10987063688565199
Watkins Glen,Boot,"('Practice',)",Mercedes W12,2,4,Not Pacing,True,3,27:54.000100,True,81.521,3,3,03:02.000200,81.521,00:00.000000,0.0,17,0,69,10,1,6976,-20,56,202,209,201,198,209,201,192,179,184,204,185,196,98,98,98,99,99,99,98,98,99,98,98,99,65,170,161,0.07,1.0,65,-316,15,0.023402743018730698,0.4729999071718113,0.9846500665040555,1,-1,-177,2,-3,0,0.11149155140779217
Watkins Glen,Boot,"('Practice',)",Mercedes W12,2,4,Not Pacing,True,3,27:54.000250,True,81.521,3,3,03:02.000350,81.521,00:00.000000,0.0,17,0,68,12,1,4902,-19,56,202,209,201,198,209,201,192,179,184,204,185,196,98,98,98,99,99,99,98,98,99,98,98,99,65,170,161,0.07,1.0,65,-316,15,0.009163313381047302,0.5059628190129053,1.016394297281901,1,-1,-178,2,-3,0,0.11585743710184215
Watkins Glen,Boot,"('Practice',)",Mercedes W12,2,4,Not Pacing,True,3,27:54.000400,True,81.521,3,3,03:02.000500,81.521,00:00.000000,0.0,16,0,78,13,1,2972,-18,56,202,209,201,198,209,201,192,179,184,204,185,196,98,98,98,99,99,99,98,98,99,98,98,99,65,170,161,0.07,1.0,65,-316,15,0.004783676791020975,0.012193257169499917,1.0239933608868799,0,0,-178,2,-3,1,0.10449766602936973
Watkins Glen,Boot,"('Practice',)",Mercedes W12,2,4,Not Pacing,True,3,27:54.000533,True,81.521,3,3,03:02.000634,81.521,00:00.000000,0.0,17,0,78,14,1,2975,-18,56,202,209,201,198,209,201,192,179,184,204,185,196,98,98,98,99,99,99,98,98,99,98,98,99,65,170,161,0.07,1.0,65,-316,15,0.016949007574328344,0.40639440826198253,0.9684285621759723,0,-1,-178,2,-3,-1,0.10718160445930483
Watkins Glen,Boot,"('Practice',)",Mercedes W12,2,4,Not Pacing,True,3,27:54.000683,True,81.521,3,3,03:02.000784,81.521,00:00.000000,0.0,19,0,77,15,1,2979,-18,56,202,209,201,198,209,201,192,179,184,204,185,196,98,98,98,99,99,99,98,98,99,98,98,99,65,170,161,0.07,1.0,65,-316,15,0.024836365357572998,0.08130953338654155,1.0075874406384886,0,0,-179,3,-3,0,0.10318039865577772
Watkins Glen,Boot,"('Practice',)",Mercedes W12,2,4,Not Pacing,True,3,27:54.000850,True,81.521,3,3,03:02.000950,81.521,00:00.000000,0.0,19,0,77,16,1,2980,-18,56,202,209,201,198,209,201,192,179,184,204,185,196,98,98,98,99,99,99,98,98,99,98,98,99,65,170,161,0.07,1.0,65,-316,15,0.017980254510613147,0.20892972489258807,1.0097831274998905,0,0,-179,2,-3,0,0.10523752334138088
Watkins Glen,Boot,"('Practice',)",Mercedes W12,2,4,Not Pacing,True,3,27:54.000983,True,81.521,3,3,03:03.000084,81.521,00:00.000000,0.0,19,0,77,16,1,2980,-17,56,202,209,201,198,209,201,192,179,184,204,185,196,98,98,98,99,99,99,98,98,99,98,98,99,65,170,161,0.07,1.0,65,-316,15,0.03742310128323772,0.1723590490164256,0.9889184638751513,0,0,-180,3,-3,0,0.10250241809404252
Watkins Glen,Boot,"('Practice',)",Mercedes W12,2,4,Not Pacing,True,3,27:55.000116,True,81.521,3,3,03:03.000217,81.521,00:00.000000,0.0,19,0,71,17,1,3033,-17,56,202,209,201,198,209,201,192,179,184,204,185,196,98,98,98,99,99,99,98,98,99,98,98,99,65,170,161,0.07,1.0,65,-316,15,0.022660531521329578,0.1686701351714061,1.015173769143014,0,0,-180,3,-3,0,0.10503469685863709
Watkins Glen,Boot,"('Practice',)",Mercedes W12,2,4,Not Pacing,True,3,27:55.000266,True,81.521,3,3,03:03.000367,81.521,00:00.000000,0.0,20,0,56,18,1,3154,-16,56,202,209,201,198,209,201,192,179,184,204,185,196,98,98,98,99,99,99,98,98,99,98,98,99,65,170,161,0.07,1.0,65,-316,15,0.02975064680116986,0.19814917071514537,1.0389809214740717,0,-1,-180,2,-3,-2,0.10797198865205154
Watkins Glen,Boot,"('Practice',)",Mercedes W12,2,4,Not Pacing,True,3,27:55.000400,True,81.521,3,3,03:03.000500,81.521,00:00.000000,0.0,20,0,40,18,1,3275,-15,56,202,209,201,198,209,201,192,179,184,204,185,196,98,98,98,99,99,99,98,98,99,98,98,99,65,170,161,0.07,1.0,65,-316,15,0.02123894099673972,0.2030293632841742,0.9542332026085965,0,1,179,2,-3,0,0.09957390583453857
Watkins Glen,Boot,"('Practice',)",Mercedes W12,2,4,Not Pacing,True,3,27:55.000533,True,81.521,3,3,03:03.000634,81.521,00:00.000000,0.0,21,0,25,19,1,3396,-14,56,202,209,201,198,209,201,192,179,184,204,185,196,98,98,98,99,99,99,98,98,99,98,98,99,65,170,161,0.07,1.0,65,-316,15,0.02636308577690163,0.198591423812384,1.012304677389691,0,1,179,2,-3,0,0.10529971136989433
Watkins Glen,Boot,"('Practice',)",Mercedes W12,2,4,Not Pacing,True,3,27:55.000683,True,81.521,3,3,03:03.000784,81.521,00:00.000000,0.0,24,0,7,20,1,3541,-12,56,202,209,201,198,209,201,192,179,184,204,185,196,98,98,98,99,99,99,98,98,99,98,98,99,65,170,161,0.07,1.0,65,-316,15,0.03663331847429032,0.2524207734429751,1.0471073737810388,0,1,178,2,-3,2,0.10997198249427667
Watkins Glen,Boot,"('Practice',)",Mercedes W12,2,4,Not Pacing,True,3,27:55.000816,True,81.521,3,3,03:03.000917,81.521,00:00.000000,0.0,25,0,0,21,1,3742,-10,56,202,209,201,198,209,201,192,179,184,204,185,196,98,98,98,99,99,99,98,98,99,98,98,99,65,170,161,0.07,1.0,65,-316,15,0.0403503090841933,0.32627662752017333,0.9212039904735382,-1,1,178,2,-3,0,0.0998072578786487
Watkins Glen,Boot,"('Practice',)",Mercedes W12,2,4,Not Pacing,True,3,27:55.000966,True,81.521,3,3,03:04.000067,81.521,00:00.000000,0.0,27,0,0,22,1,4001,-7,56,202,209,201,198,209,201,192,179,184,204,185,196,98,98,98,99,99,99,98,98,99,98,98,99,65,170,160,0.07,1.0,65,-316,15,0.01868075338950823,0.44603833850856706,1.0095387302285912,-1,0,178,1,-3,-1,0.11263695989073061
Watkins Glen,Boot,"('Practice',)",Mercedes W12,2,4,Not Pacing,True,3,27:56.000116,True,81.521,3,3,03:04.000217,81.521,00:00.000000,0.0,28,0,0,24,1,4308,-6,56,202,209,201,198,209,201,192,179,184,204,185,196,98,98,98,99,99,99,98,98,99,98,98,99,65,170,160,0.07,1.0,65,-316,15,0.03282854620226783,0.49065809609571603,1.0499202755491546,-1,-1,178,1,-3,-1,0.11830380356847195
Watkins Glen,Boot,"('Practice',)",Mercedes W12,2,4,Not Pacing,True,3,27:56.000250,True,81.521,3,3,03:04.000350,81.521,00:00.000000,0.0,32,0,0,26,1,4646,-6,56,202,209,201,198,209,201,192,179,184,204,185,196,98,98,98,99,99,99,98,98,99,98,98,99,65,170,160,0.07,1.0,65,-316,15,0.026408007993124552,0.56938148055237,0.9932931167027028,-1,-1,177,1,-3,-1,0.11685896183597627
Watkins Glen,Boot,"('Practice',)",Mercedes W12,2,4,Not Pacing,True,4,27:56.000383,True,81.521,3,3,03:04.000484,81.521,00:00.000000,0.0,32,0,0,28,1,4946,-5,56,202,209,201,198,209,201,192,179,184,204,185,196,98,98,98,99,99,99,98,98,99,98,98,99,65,169,160,0.07,1.0,65,-316,15,0.010108376618675986,0.5758166920762057,1.0348740946140735,-1,-1,177,0,-3,0,0.12084973656629082
Watkins Glen,Boot,"('Practice',)",Mercedes W12,2,4,Not Pacing,True,4,27:56.000533,True,81.521,3,3,03:04.000634,81.521,00:00.000000,0.0,32,0,0,30,1,5323,-4,56,202,209,201,198,209,201,192,179,184,204,185,196,98,98,98,99,99,99,98,98,99,98,98,99,65,169,160,0.07,1.0,65,-316,15,0.007998603837570284,0.580494459737453,0.977848259073271,0,-1,177,0,-3,0,0.11604086896304514
Watkins Glen,Boot,"('Practice',)",Mercedes W12,2,4,Not Pacing,False,4,27:56.000683,True,81.521,3,3,03:04.000784,81.521,00:00.000000,0.0,32,0,0,32,1,5680,-2,56,202,209,201,198,209,201,192,179,184,204,185,196,98,98,98,99,99,99,98,98,99,98,98,99,65,169,160,0.07,1.0,65,-316,15,-0.0005715762081800008,0.592433470590885,0.9918813676279983,0,0,177,0,-3,0,0.11789165459995896
Watkins Glen,Boot,"('Practice',)",Mercedes W12,2,4,Not Pacing,False,4,27:56.000833,True,81.521,3,3,03:04.000934,81.521,00:00.000000,0.0,32,0,0,34,1,6059,-1,56,202,209,201,198,209,201,192,179,184,204,185,196,98,98,98,99,99,99,98,98,99,98,98,99,65,169,160,0.07,1.0,65,-316,15,0.0017495778418705247,0.5992452911159192,0.9897375933134834,0,-1,177,0,-3,-1,0.11806252462397707
Watkins Glen,Boot,"('Practice',)",Mercedes W12,2,4,Not Pacing,False,4,27:56.000983,True,81.521,3,3,03:05.000084,81.521,00:00.000000,0.0,32,0,0,36,1,6396,1,56,202,209,201,198,209,201,192,179,184,204,185,196,98,98,98,99,99,99,98,98,99,98,98,99,65,169,160,0.07,1.0,65,-316,15,-0.015290509852429777,0.6114134851702613,0.9849031158665026,-1,1,177,-1,-3,-1,0.11830110730953272
Watkins Glen,Boot,"('Practice',)",Mercedes W12,2,4,Not Pacing,False,4,27:57.000116,True,81.521,3,3,03:05.000217,81.521,00:00.000000,0.0,32,0,0,38,1,6752,1,56,202,209,201,198,209,201,192,179,184,204,185,196,98,98,98,99,99,99,98,98,99,98,98,99,65,169,160,0.07,1.0,65,-316,15,-0.02170228812308122,0.6103463615238606,1.0337520447710602,-1,1,177,-1,-3,-1,0.12251855848012791
Watkins Glen,Boot,"('Practice',)",Mercedes W12,2,4,Not Pacing,False,4,27:57.000266,True,81.521,3,3,03:05.000367,81.521,00:00.000000,0.0,33,0,0,40,1,6792,2,56,202,209,201,198,209,201,192,179,184,204,185,196,98,98,98,99,99,99,98,98,99,98,98,99,65,169,160,0.07,1.0,65,-316,15,-0.020333930136109953,0.09591660246815034,1.0067926148269761,-1,-1,177,-1,-3,0,0.10321996426387638
Watkins Glen,Boot,"('Practice',)",Mercedes W12,2,4,Not Pacing,False,4,27:57.000416,True,81.521,3,3,03:05.000517,81.521,00:00.000000,0.0,35,0,0,40,1,6780,5,56,202,209,201,198,209,201,192,179,184,204,185,196,98,98,98,99,99,99,98,98,99,98,98,99,65,169,160,0.07,1.0,65,-316,15,-0.08935907686643765,-0.06110479221674523,0.9337548694357838,-1,0,177,-3,-3,-1,0.09591928985907394
Watkins Glen,Boot,"('Practice',)",Mercedes W12,2,4,Not Pacing,False,4,27:57.000566,True,81.521,3,3,03:05.000667,81.521,00:00.000000,0.0,35,0,0,39,1,6832,8,56,202,209,201,198,209,201,192,179,184,204,185,196,98,98,98,99,99,99,98,98,99,98,98,99,65,169,160,0.07,1.0,65,-316,15,-0.12118856476716673,-0.04902013276573593,1.018326921686606,-1,0,178,-4,-3,0,0.10476363993673964
Watkins Glen,Boot,"('Practice',)",Mercedes W12,2,4,Not Pacing,False,4,27:57.000716,True,81.521,3,3,03:05.000817,81.521,00:00.000000,0.0,35,0,0,39,1,6796,12,56,202,209,201,198,209,201,192,179,184,204,185,196,98,98,98,99,99,99,98,98,99,98,98,99,65,169,160,0.07,1.0,65,-316,15,-0.18424895439186834,0.013809527339799201,0.9666928943630144,-1,2,178,-5,-3,-1,0.10042773640794049
Watkins Glen,Boot,"('Practice',)",Mercedes W12,2,4,Not Pacing,False,4,27:57.000850,True,81.521,3,3,03:05.000950,81.521,00:00.000000,0.0,32,0,0,39,1,6790,15,56,202,209,201,198,209,201,192,179,184,204,185,196,98,98,98,99,99,99,98,98,99,98,98,99,65,169,160,0.07,1.0,65,-316,15,-0.21342482649465827,-0.06515513137210764,1.0660308581244324,-1,0,179,-7,-3,-1,0.111136322393552
Watkins Glen,Boot,"('Practice',)",Mercedes W12,2,4,Not Pacing,False,4,27:57.000983,True,81.521,3,3,03:06.000084,81.521,00:00.000000,0.0,32,0,0,39,1,6781,20,56,202,209,201,198,209,201,192,179,184,204,185,196,98,98,98,99,99,99,98,98,99,98,98,99,65,169,160,0.07,1.0,65,-316,15,-0.2974068595971779,-0.16166906230432662,1.0359096235456087,-1,0,-180,-9,-3,0,0.1112056000621153
Watkins Glen,Boot,"('Practice',)",Mercedes W12,2,4,Not Pacing,False,4,27:58.000133,True,81.521,3,3,03:06.000234,81.521,00:00.000000,0.0,33,0,0,39,1,7051,20,56,202,209,201,198,209,201,192,179,184,204,185,196,98,98,98,99,99,99,98,98,99,98,98,99,65,169,160,0.07,1.0,65,-316,15,-0.25434729763734837,0.18876933176583105,0.8260291407718328,-1,1,-179,-9,-4,-1,0.09027299921969723
Watkins Glen,Boot,"('Practice',)",Mercedes W12,2,4,Not Pacing,False,4,27:58.000283,True,81.521,3,3,03:06.000384,81.521,00:00.000000,0.0,34,0,0,39,1,6792,21,56,202,209,201,198,209,201,192,179,184,204,185,196,98,98,98,99,99,99,98,98,99,98,98,99,65,168,160,0.07,1.0,65,-316,15,-0.2664712833945054,-0.06640335349375562,0.9826512390198935,-1,0,-177,-10,-4,1,0.10411263082697561
Watkins Glen,Boot,"('Practice',)",Mercedes W12,2,4,Not Pacing,False,4,27:58.000433,True,81.521,3,3,03:06.000534,81.521,00:00.000000,0.0,35,0,0,39,1,7732,19,56,202,209,201,198,209,201,192,179,184,204,185,196,98,98,98,99,99,99,98,98,99,98,98,99,65,168,160,0.07,1.0,65,-316,15,-0.223364377969631,0.7337634352004491,1.0213709023385238,-1,-1,-176,-9,-4,-1,0.13033688066204252
Watkins Glen,Boot,"('Practice',)",Mercedes W12,2,4,Not Pacing,False,4,27:58.000566,True,81.521,3,3,03:06.000667,81.521,00:00.000000,0.0,35,0,0,42,1,7568,18,56,202,209,201,198,209,201,192,179,184,204,185,196,98,98,98,99,99,99,98,98,99,98,98,99,65,168,160,0.07,1.0,65,-316,15,-0.2914341460917217,0.6267715788519467,1.0361164960170983,-1,1,-175,-9,-4,0,0.1270936234352622
Watkins Glen,Boot,"('Practice',)",Mercedes W12,2,4,Not Pacing,False,4,27:58.000716,True,81.521,3,3,03:06.000817,81.521,00:00.000000,0.0,39,0,0,44,1,7993,16,56,202,209,201,198,209,201,192,179,184,204,185,196,98,98,98,99,99,99,98,98,99,98,98,99,65,168,160,0.07,1.0,65,-316,15,-0.22630584592362304,0.7629032407210385,1.0183975966333978,-1,1,-174,-7,-4,0,0.13188037738140054
Watkins Glen,Boot,"('Practice',)",Mercedes W12,2,4,Not Pacing,False,4,27:58.000850,True,81.521,3,3,03:06.000950,81.521,00:00.000000,0.0,40,0,0,47,1,8488,15,56,202,209,201,198,209,201,192,179,184,204,185,196,98,98,98,99,99,99,98,98,99,98,98,99,65,168,160,0.07,1.0,65,-316,15,-0.22840200943319802,0.7962667249393754,0.9644846668301736,-1,1,-173,-7,-4,0,0.1297339269121946
Watkins Glen,Boot,"('Practice',)",Mercedes W12,2,4,Not Pacing,False,4,27:58.000983,True,81.521,3,3,03:07.000084,81.521,00:00.000000,0.0,40,0,0,50,1,8901,13,56,202,209,201,198,209,201,192,179,184,204,185,196,98,98,98,99,99,99,98,98,99,98,98,99,65,168,160,0.07,1.0,65,-316,15,-0.22314027422672625,0.7746163250595544,0.992560897033878,-2,1,-172,-7,-4,0,0.13047661833296434
Watkins Glen,Boot,"('Practice',)",Mercedes W12,2,4,Not Pacing,False,4,27:59.000116,True,81.521,3,3,03:07.000217,81.521,00:00.000000,0.0,40,0,0,52,1,9333,13,56,202,209,201,198,209,201,192,179,184,204,185,196,98,98,98,99,99,99,98,98,99,98,98,99,65,168,160,0.07,1.0,65,-316,15,-0.244706729379512,0.7660442414512206,1.0074253840548546,-2,1,-171,-7,-4,0,0.13153417720118823
Watkins Glen,Boot,"('Practice',)",Mercedes W12,2,4,Not Pacing,False,4,27:59.000266,True,81.521,3,3,03:07.000367,81.521,00:00.000000,0.0,40,0,0,55,1,9793,14,56,202,209,201,198,209,201,192,179,184,204,185,196,98,98,98,99,99,99,98,98,99,98,98,99,65,168,160,0.07,1.0,65,-316,15,-0.2891850155549433,0.7651282863636386,0.954927314190568,-2,1,-170,-8,-4,-1,0.12830128094542714
Watkins Glen,Boot,"('Practice',)",Mercedes W12,2,4,Not Pacing,False,5,27:59.000416,True,81.521,3,3,03:07.000517,81.521,00:00.000000,0.0,40,0,0,57,1,10201,14,56,202,209,201,198,209,201,192,179,184,204,185,196,98,98,98,99,99,99,98,98,99,98,98,99,65,168,160,0.07,1.0,65,-316,15,-0.32853064308594243,0.7575741358610225,0.9690213762413592,-2,0,-169,-8,-4,0,0.12991095941426326
Watkins Glen,Boot,"('Practice',)",Mercedes W12,2,4,Not Pacing,False,5,27:59.000566,True,81.521,3,3,03:07.000667,81.521,00:00.000000,0.0,40,0,0,60,1,10732,17,56,202,209,201,198,209,201,192,179,184,204,185,196,98,98,98,99,99,99,98,98,99,98,98,99,65,168,160,0.07,1.0,65,-316,15,-0.4469119566782291,0.7359643230379903,0.9750486756926525,-2,0,-168,-10,-4,-1,0.1327352061898925
Watkins Glen,Boot,"('Practice',)",Mercedes W12,2,4,Not Pacing,False,5,27:59.000716,True,81.521,3,3,03:07.000817,81.521,00:00.000000,0.0,38,0,0,63,1,11116,23,56,202,209,201,198,209,201,192,179,184,204,185,196,98,98,98,99,99,99,98,98,99,98,98,99,65,168,160,0.07,1.0,65,-316,15,-0.6334187666089041,0.6564364885336033,0.955020056830512,-2,2,-166,-13,-4,0,0.1347631047486341
Watkins Glen,Boot,"('Practice',)",Mercedes W12,2,4,Not Pacing,False,5,27:59.000866,True,81.521,3,3,03:07.000967,81.521,00:00.000000,0.0,37,0,0,65,1,11471,25,56,202,209,201,198,209,201,192,179,184,204,185,196,98,98,98,99,99,99,98,98,99,98,98,99,65,168,160,0.07,1.0,65,-316,15,-0.7350073920355902,0.5803816909090094,0.9469552385211598,-2,2,-164,-15,-4,0,0.13590224046524707
Watkins Glen,Boot,"('Practice',)",Mercedes W12,2,4,Not Pacing,False,5,28:00.000000,True,81.521,3,3,03:08.000100,81.521,00:00.000000,0.0,36,0,0,67,1,11843,27,56,202,209,201,198,209,201,192,179,184,204,185,196,98,98,98,99,99,99,98,98,99,98,98,99,65,168,160,0.07,1.0,65,-316,15,-0.8795474768900118,0.5566360267538056,0.959586513880925,-2,0,-162,-17,-4,0,0.1444608853530269
Watkins Glen,Boot,"('Practice',)",Mercedes W12,2,4,Not Pacing,False,5,28:00.000150,True,81.521,3,3,03:08.000250,81.521,00:00.000000,0.0,35,0,0,69,1,12166,28,56,202,209,201,198,209,201,192,179,184,204,185,196,98,98,98,99,99,99,98,98,99,98,98,99,65,168,160,0.07,1.0,65,-316,15,-1.0083423112875094,0.49992852011708794,0.99715525464788,-2,-2,-159,-20,-4,-2,0.1534349635672629
Watkins Glen,Boot,"('Practice',)",Mercedes W12,2,4,Not Pacing,False,5,28:00.000300,True,81.521,3,3,03:08.000400,81.521,00:00.000000,0.0,35,0,0,70,2,12460,31,56,202,209,201,198,209,201,192,179,184,204,185,196,98,98,98,99,99,99,98,98,99,98,98,99,65,168,160,0.07,1.0,65,-316,15,-1.083949436106084,0.04919552292663387,0.9482592739217993,-2,2,-156,-20,-4,-2,0.14704369235136538
Watkins Glen,Boot,"('Practice',)",Mercedes W12,2,4,Not Pacing,False,5,28:00.000433,True,81.521,3,3,03:08.000534,81.521,00:00.000000,0.0,37,0,0,73,2,10148,31,56,202,209,201,198,209,201,192,179,184,204,185,196,98,98,98,99,99,99,98,98,99,98,98,99,65,168,160,0.07,1.0,65,-316,15,-1.266973730742506,0.4983284665417841,0.907415959691661,-2,3,-153,-22,-5,0,0.16695316473028912
Watkins Glen,Boot,"('Practice',)",Mercedes W12,2,4,Not Pacing,False,5,28:00.000566,True,81.521,3,3,03:08.000667,81.521,00:00.000000,0.0,37,0,0,75,2,10287,30,56,202,209,201,198,209,201,192,179,184,204,185,196,98,98,98,99,99,99,98,98,99,98,98,99,65,167,159,0.07,1.0,65,-316,15,-1.1939839121034022,0.47090804540418335,0.953258918816647,-2,1,-150,-21,-5,-1,0.1631394456165419
Watkins Glen,Boot,"('Practice',)",Mercedes W12,2,4,Not Pacing,False,5,28:00.000700,True,81.521,3,3,03:08.000800,81.521,00:00.000000,0.0,37,0,0,76,2,10509,28,56,202,209,201,198,209,201,192,179,184,204,185,196,98,98,98,99,99,99,98,98,99,98,98,99,65,167,159,0.07,1.0,65,-316,15,-1.1191974721552764,0.4588163591670698,0.9733157298858984,-2,3,-148,-20,-5,1,0.15842502839068512
Watkins Glen,Boot,"('Practice',)",Mercedes W12,2,4,Not Pacing,False,6,28:00.000850,True,81.521,3,3,03:08.000950,81.521,00:00.000000,0.0,39,0,0,78,2,10737,31,56,202,209,201,198,209,201,192,179,184,204,185,196,98,98,98,99,99,99,98,98,99,98,98,99,65,167,159,0.07,1.0,65,-316,15,-1.2793556508911008,0.48076574226402724,0.9526189557152299,-3,4,-145,-22,-5,-1,0.16999428706345177
Watkins Glen,Boot,"('Practice',)",Mercedes W12,2,4,Not Pacing,False,6,28:00.000983,True,81.521,3,3,03:09.000084,81.521,00:00.000000,0.0,37,0,0,80,2,10959,32,56,202,209,201,198,209,201,192,179,184,204,185,196,98,98,98,99,99,99,98,98,99,98,98,99,65,167,159,0.07,1.0,65,-316,15,-1.429685442941026,0.41670881887702277,1.0981544199096804,-3,4,-142,-24,-5,-2,0.18880556394673367
Watkins Glen,Boot,"('Practice',)",Mercedes W12,2,4,Not Pacing,False,6,28:01.000116,True,81.521,3,3,03:09.000217,81.521,00:00.000000,0.0,37,0,0,81,2,11122,33,56,202,209,201,198,209,201,192,179,184,204,185,196,98,98,98,99,99,99,98,98,99,98,98,99,65,167,159,0.07,1.0,65,-316,15,-1.4525459204002014,0.4071876300341249,1.1370177662700687,-3,3,-139,-23,-5,-1,0.19275995871567203
Watkins Glen,Boot,"('Practice',)",Mercedes W12,2,4,Not Pacing,False,6,28:01.000266,True,81.521,3,3,03:09.000367,81.521,00:00.000000,0.0,36,0,0,82,2,11322,35,56,202,209,201,198,209,201,192,179,184,204,185,196,98,98,98,99,99,99,98,98,99,98,98,99,65,167,159,0.07,1.0,65,-316,15,-1.5935047200209747,0.3685115917256362,1.108768494243408,-3,0,-135,-26,-5,-1,0.2016287712329818
Watkins Glen,Boot,"('Practice',)",Mercedes W12,2,4,Not Pacing,False,6,28:01.000400,True,81.521,3,3,03:09.000500,81.521,00:00.000000,0.0,35,0,0,84,2,11516,37,56,202,209,201,198,209,201,192,179,184,204,185,196,98,98,98,99,99,99,98,98,99,98,98,99,65,167,159,0.07,1.0,65,-316,15,-1.811146906270407,0.3464147342211366,1.1785363324677665,-3,1,-131,-28,-5,-3,0.223308677910657
Watkins Glen,Boot,"('Practice',)",Mercedes W12,2,4,Not Pacing,False,6,28:01.000533,True,81.521,3,3,03:09.000634,81.521,00:00.000000,0.0,36,0,0,85,2,11683,38,56,202,209,201,198,209,201,192,179,184,204,185,196,98,98,98,99,99,99,98,98,99,98,98,99,65,167,159,0.07,1.0,65,-316,15,-1.8589344471844935,0.3273173088205942,1.1937859833665823,-3,1,-128,-29,-5,-4,0.2278939228763624
Watkins Glen,Boot,"('Practice',)",Mercedes W12,2,4,Not Pacing,False,7,28:01.000683,True,81.521,3,3,03:09.000784,81.521,00:00.000000,0.0,38,0,0,86,2,11849,39,56,202,209,201,198,209,201,192,179,184,204,185,196,98,98,98,99,99,99,98,98,99,98,98,99,65,167,158,0.07,1.0,65,-316,15,-1.9866188974798513,0.3440830928713053,1.2162903640855949,-3,1,-123,-30,-4,-4,0.24027113286564475
Watkins Glen,Boot,"('Practice',)",Mercedes W12,2,4,Not Pacing,False,7,28:01.000833,True,81.521,3,3,03:09.000934,81.521,00:00.000000,0.0,38,0,0,88,2,12069,41,56,202,209,201,198,209,201,192,179,184,204,185,196,98,98,98,99,99,99,98,98,99,98,98,99,65,167,158,0.07,1.0,65,-316,15,-2.109779373464477,0.32880002448561235,1.1922696314820456,-3,2,-119,-32,-4,-5,0.24954738984979133
Watkins Glen,Boot,"('Practice',)",Mercedes W12,2,4,Not Pacing,False,7,28:01.000966,True,81.521,3,3,03:10.000067,81.521,00:00.000000,0.0,41,0,0,89,2,12223,37,56,202,209,201,198,209,201,192,179,184,204,185,196,98,98,98,99,99,99,98,98,99,98,98,99,65,167,158,0.07,1.0,65,-316,15,-2.05253577742737,0.36184491245996936,1.2214973675244687,-3,1,-115,-30,-4,-4,0.2465060020567397
Watkins Glen,Boot,"('Practice',)",Mercedes W12,2,4,Not Pacing,False,7,28:02.000116,True,81.521,3,3,03:10.000217,81.521,00:00.000000,0.0,43,0,0,91,3,10278,35,56,202,209,201,198,209,201,192,179,184,204,185,196,98,98,98,99,99,99,98,98,99,98,98,99,65,167,158,0.07,1.0,65,-316,15,-2.1422206322595128,0.3356996783179731,1.0628638039062996,-3,-1,-110,-29,-4,-2,0.24641289460751792
Watkins Glen,Boot,"('Practice',)",Mercedes W12,2,4,Not Pacing,False,7,28:02.000266,True,81.521,3,3,03:10.000367,81.521,00:00.000000,0.0,46,0,0,92,3,10464,34,56,202,209,201,198,209,201,192,179,184,204,185,196,98,98,98,99,99,99,98,98,99,98,98,99,65,167,158,0.07,1.0,65,-316,15,-2.1474334685688232,0.4635957645956772,1.2372467009906982,-2,-4,-106,-28,-4,-2,0.2572799062626613
Watkins Glen,Boot,"('Practice',)",Mercedes W12,2,4,Not Pacing,False,7,28:02.000416,True,81.521,3,3,03:10.000517,81.521,00:00.000000,0.0,49,0,0,94,3,10661,30,56,202,209,201,198,209,201,192,179,184,204,185,196,98,98,98,99,99,99,98,98,99,98,98,99,65,167,158,0.07,1.0,65,-316,15,-1.794642799369664,0.5085494054080757,1.0345247056749132,-2,2,-102,-25,-4,-1,0.21765109124231807
Watkins Glen,Boot,"('Practice',)",Mercedes W12,2,4,Not Pacing,False,7,28:02.000566,True,81.521,3,3,03:10.000667,81.521,00:00.000000,0.0,51,0,0,96,3,10848,33,56,202,209,201,198,209,201,192,179,184,204,185,196,98,98,98,99,99,99,98,98,99,98,98,99,65,167,158,0.07,1.0,65,-316,15,-2.0727140094162126,0.4975066637045017,1.3161575636246396,-2,-2,-98,-26,-4,-3,0.2556306152009559
Watkins Glen,Boot,"('Practice',)",Mercedes W12,2,4,Not Pacing,False,7,28:02.000700,True,81.521,3,3,03:10.000800,81.521,00:00.000000,0.0,54,0,0,98,3,11069,32,56,202,209,201,198,209,201,192,179,184,204,185,196,98,98,98,99,99,99,98,98,99,98,98,99,65,166,158,0.07,1.0,65,-316,15,-1.9880823646724284,0.5367505562536334,1.0173783997390855,-2,1,-95,-27,-3,-3,0.23437492649707606
Watkins Glen,Boot,"('Practice',)",Mercedes W12,2,4,Not Pacing,False,8,28:02.000850,True,81.521,3,3,03:10.000950,81.521,00:00.000000,0.0,57,0,0,100,3,11192,30,56,202,209,201,198,209,201,192,179,184,204,185,196,98,98,98,99,99,99,98,98,99,98,98,99,65,166,158,0.07,1.0,65,-316,15,-2.4964259669685944,0.6170158600102384,1.602622565873172,-3,18,-90,-25,-2,-10,0.3091895713841917
Watkins Glen,Boot,"('Practice',)",Mercedes W12,2,4,Not Pacing,False,8,28:03.000000,True,81.521,3,3,03:11.000100,81.521,00:00.000000,0.0,62,0,0,102,3,11500,27,56,202,209,201,198,209,201,192,179,184,204,185,196,98,98,98,99,99,99,98,98,99,98,98,99,65,166,158,0.07,1.0,65,-316,15,-1.585809997340833,0.6719357862871114,1.3578067861201202,-5,-7,-87,-26,-2,-5,0.22379136056433632
Watkins Glen,Boot,"('Practice',)",Mercedes W12,2,4,Not Pacing,False,8,28:03.000150,True,81.521,3,3,03:11.000250,81.521,00:00.000000,0.0,67,0,0,104,3,11831,21,56,202,209,201,198,209,201,192,179,184,204,185,196,98,98,98,99,99,99,98,98,99,98,98,99,65,166,158,0.07,1.0,65,-316,15,-1.3567863254372132,0.7347253727499741,0.8714133446369695,-4,-4,-84,-19,-2,0,0.1808182764517849
Watkins Glen,Boot,"('Practice',)",Mercedes W12,2,4,Not Pacing,False,8,28:03.000283,True,81.521,3,3,03:11.000384,81.521,00:00.000000,0.0,71,0,0,106,3,12122,15,56,202,209,201,198,209,201,192,179,184,204,185,196,98,98,98,99,99,99,98,98,99,98,98,99,65,166,159,0.07,1.0,65,-316,15,-1.3752932456169167,0.7513216390036175,1.1943438002093487,-4,-1,-82,-18,-3,-2,0.2010585488983272
Watkins Glen,Boot,"('Practice',)",Mercedes W12,2,4,Not Pacing,False,8,28:03.000433,True,81.521,3,3,03:11.000534,81.521,00:00.000000,0.0,78,0,0,109,3,12438,14,56,202,209,201,198,209,201,192,179,184,204,185,196,98,98,98,99,99,99,98,98,99,98,98,99,65,166,159,0.07,1.0,65,-316,15,-0.9136582976330553,0.8311498177282428,0.7414648656815928,-4,-3,-80,-12,-3,2,0.1470008248872457
Watkins Glen,Boot,"('Practice',)",Mercedes W12,2,4,Not Pacing,False,8,28:03.000583,True,81.521,3,3,03:11.000684,81.521,00:00.000000,0.0,100,0,0,112,4,11306,3,56,202,209,201,198,209,201,192,179,184,204,185,196,98,98,98,99,99,99,98,98,99,98,98,99,65,166,159,0.07,1.0,65,-316,15,-0.7152334751825206,1.2236334618929086,1.5229148359230655,-3,0,-78,-8,-3,-8,0.21228677399294327
Watkins Glen,Boot,"('Practice',)",Mercedes W12,2,4,Not Pacing,False,8,28:03.000716,True,81.521,3,3,03:11.000817,81.521,00:00.000000,0.0,100,0,0,116,4,11622,0,56,202,209,201,198,209,201,192,179,184,204,185,196,98,98,98,99,99,99,98,98,99,98,98,99,65,166,160,0.07,1.0,65,-316,15,0.043578304646576575,1.1137606536211953,1.0382793243750397,-4,3,-78,0,-3,-5,0.15543686395353853
Watkins Glen,Boot,"('Practice',)",Mercedes W12,2,4,Not Pacing,False,8,28:03.000850,True,81.521,3,3,03:11.000950,81.521,00:00.000000,0.0,100,0,0,119,4,11876,-2,56,202,209,201,198,209,201,192,179,184,204,185,196,98,98,98,99,99,99,98,98,99,98,98,99,65,166,160,0.07,1.0,65,-316,15,0.07415867726737206,1.0493814155353074,1.0236407638689793,-4,-4,-78,-1,-3,-2,0.14977914040704912
Watkins Glen,Boot,"('Practice',)",Mercedes W12,2,4,Not Pacing,False,9,28:04.000000,True,81.521,3,3,03:12.000100,81.521,00:00.000000,0.0,100,0,0,122,4,12148,-2,56,202,209,201,198,209,201,192,179,184,204,185,196,98,98,98,99,99,99,98,98,99,98,98,99,65,166,160,0.07,1.0,65,-316,15,0.12870598033784483,0.9762420809840086,0.7330092936602328,-3,-2,-78,0,-3,-1,0.12526176068800887
Watkins Glen,Boot,"('Practice',)",Mercedes W12,2,4,Not Pacing,False,9,28:04.000133,True,81.521,3,3,03:12.000234,81.521,00:00.000000,0.0,100,0,0,126,5,10445,-5,56,202,209,201,198,209,201,192,179,184,204,185,196,98,98,98,99,99,99,98,98,99,98,98,99,65,166,160,0.07,1.0,65,-316,15,0.28892924418629246,1.8639563542015083,0.9730565560094928,-3,-7,-78,3,-3,-2,0.21657312811617502
Watkins Glen,Boot,"('Practice',)",Mercedes W12,2,4,Not Pacing,False,9,28:04.000266,True,81.521,3,3,03:12.000367,81.521,00:00.000000,0.0,100,0,0,128,5,11107,-5,56,202,209,201,198,209,201,192,179,184,204,185,196,98,98,98,99,99,99,98,98,99,98,98,99,65,166,161,0.07,1.0,65,-316,15,0.42012979738816814,0.911002008436166,0.9791705708012789,-3,-4,-79,4,-3,-2,0.14304683880448388
Watkins Glen,Boot,"('Practice',)",Mercedes W12,2,4,Not Pacing,False,9,28:04.000416,True,81.521,3,3,03:12.000517,81.521,00:00.000000,0.0,100,0,0,131,5,11346,-6,56,202,209,201,198,209,201,192,179,184,204,185,196,98,98,98,99,99,99,98,98,99,98,98,99,65,165,161,0.07,1.0,65,-316,15,0.562246470397887,0.8740520380080414,1.0897564474838832,-3,-2,-79,4,-3,-1,0.1536606349308061
Watkins Glen,Boot,"('Practice',)",Mercedes W12,2,4,Not Pacing,False,9,28:04.000566,True,81.521,3,3,03:12.000667,81.521,00:00.000000,0.0,100,0,0,134,5,11562,-8,56,202,209,201,198,209,201,192,179,184,204,185,196,98,98,98,99,99,99,98,98,99,98,98,99,65,165,162,0.07,1.0,65,-316,15,0.7817037487127243,0.8206763155720406,0.9533008182692843,-3,-4,-80,7,-3,0,0.15112216703405304
Watkins Glen,Boot,"('Practice',)",Mercedes W12,2,4,Not Pacing,False,9,28:04.000700,True,81.521,3,3,03:12.000800,81.521,00:00.000000,0.0,100,0,0,137,5,11806,-8,56,202,209,201,198,209,201,192,179,184,204,185,196,98,98,98,99,99,99,98,98,99,98,98,99,65,165,162,0.07,1.0,65,-316,15,0.8709347576176354,0.8174209905812986,1.1429758489921795,-3,0,-81,7,-3,-2,0.16869474103338195
Watkins Glen,Boot,"('Practice',)",Mercedes W12,2,4,Not Pacing,False,10,28:04.000833,True,81.521,3,3,03:12.000934,81.521,00:00.000000,0.0,100,0,0,139,5,11980,-8,56,202,209,201,198,209,201,192,179,184,204,185,196,98,98,98,99,99,99,98,98,99,98,98,99,65,165,162,0.07,1.0,65,-316,15,0.9017512703525181,0.7726039847588806,1.0963381612701881,-3,0,-82,7,-2,-1,0.16491606900406527
Watkins Glen,Boot,"('Practice',)",Mercedes W12,2,4,Not Pacing,False,10,28:04.000966,True,81.521,3,3,03:13.000067,81.521,00:00.000000,0.0,100,0,0,141,5,12193,-6,56,202,209,201,198,209,201,192,179,184,204,185,196,98,98,98,99,99,99,98,98,99,98,98,99,65,165,162,0.07,1.0,65,-316,15,0.715769321546642,0.7330822045406921,0.9547552445126843,-2,-6,-83,5,-2,0,0.14290424942021066
Watkins Glen,Boot,"('Practice',)",Mercedes W12,2,4,Not Pacing,False,10,28:05.000100,True,81.521,3,3,03:13.000200,81.521,00:00.000000,0.0,100,0,0,143,6,10844,-5,56,202,209,201,198,209,201,192,179,184,204,185,196,98,98,98,99,99,99,98,98,99,98,98,99,65,165,163,0.07,1.0,65,-316,15,0.6581284098182857,0.7380576430232274,1.166713201307011,-2,-7,-84,4,-2,-3,0.15606180569366135
Watkins Glen,Boot,"('Practice',)",Mercedes W12,2,4,Not Pacing,False,10,28:05.000266,True,81.521,3,3,03:13.000367,81.521,00:00.000000,0.0,100,0,0,146,6,10893,0,56,202,209,201,198,209,201,192,179,184,204,185,196,98,98,98,99,99,99,98,98,99,98,98,99,65,165,163,0.07,1.0,65,-316,15,-0.20572796509535668,0.6810180030223912,0.8465897174178034,-1,-7,-84,-3,-2,-3,0.11283812003850385
Watkins Glen,Boot,"('Practice',)",Mercedes W12,2,4,Not Pacing,False,10,28:05.000416,True,81.521,3,3,03:13.000517,81.521,00:00.000000,0.0,100,0,0,148,6,11106,12,56,202,209,201,198,209,201,192,179,184,204,185,196,98,98,98,99,99,99,98,98,99,98,98,99,65,165,163,0.07,1.0,65,-316,15,-1.3756433150576282,0.6565813867567025,0.9786225726237476,0,-2,-83,-15,-2,0,0.18483746215285035
Watkins Glen,Boot,"('Practice',)",Mercedes W12,2,4,Not Pacing,False,10,28:05.000550,True,81.521,3,3,03:13.000650,81.521,00:00.000000,0.0,100,0,0,150,6,11250,15,56,202,209,201,198,209,201,192,179,184,204,185,196,98,98,98,99,99,99,98,98,99,98,98,99,65,165,164,0.07,1.0,65,-316,15,-2.026945808247324,0.6090711016173757,1.0264100163233267,-1,3,-81,-18,-2,-1,0.24002365299776787
Watkins Glen,Boot,"('Practice',)",Mercedes W12,2,4,Not Pacing,False,11,28:05.000683,True,81.521,3,3,03:13.000784,81.521,00:00.000000,0.0,100,0,0,152,6,11384,16,56,202,209,201,198,209,201,192,179,184,204,185,196,98,98,98,99,99,99,98,98,99,98,98,99,65,164,164,0.07,1.0,65,-316,15,-2.119594733406401,0.587348374144139,1.1201232459080936,-1,1,-78,-19,-2,-1,0.2518638565861571
Watkins Glen,Boot,"('Practice',)",Mercedes W12,2,4,Not Pacing,False,11,28:05.000816,True,81.521,3,3,03:13.000917,81.521,00:00.000000,0.0,100,0,0,154,6,11505,16,56,202,209,201,198,209,201,192,179,184,204,185,196,98,98,98,99,99,99,98,98,99,98,98,99,65,164,164,0.07,1.0,65,-316,15,-2.2317563600374895,0.540276672254401,1.0911401987804914,-1,1,-76,-19,-2,-2,0.2594170222763705
Watkins Glen,Boot,"('Practice',)",Mercedes W12,2,4,Not Pacing,False,11,28:06.000016,True,81.521,3,3,03:14.000117,81.521,00:00.000000,0.0,100,0,0,156,6,11697,20,56,202,209,201,198,209,201,192,179,184,204,185,196,98,98,98,99,99,99,98,98,99,98,98,99,65,164,164,0.07,1.0,65,-316,15,-2.6151748486129027,0.5305535202726311,1.0698818164012724,-2,6,-72,-25,-2,-1,0.2933611113402483
Watkins Glen,Boot,"('Practice',)",Mercedes W12,2,4,Not Pacing,False,11,28:06.000150,True,81.521,3,3,03:14.000250,81.521,00:00.000000,0.0,100,0,0,157,6,11786,19,56,202,209,201,198,209,201,192,179,184,204,185,196,98,98,98,99,99,99,98,98,99,98,98,99,65,164,165,0.07,1.0,65,-316,15,-2.6936580646293242,0.48491373946785804,0.9083060557203069,-3,5,-69,-23,-3,0,0.294259159030114
Watkins Glen,Boot,"('Practice',)",Mercedes W12,2,4,Not Pacing,False,11,28:06.000283,True,81.521,3,3,03:14.000384,81.521,00:00.000000,0.0,100,0,0,159,6,11896,17,56,202,209,201,198,209,201,192,179,184,204,185,196,98,98,98,99,99,99,98,98,99,98,98,99,65,164,165,0.07,1.0,65,-316,15,-2.5522605359372013,0.49652154049499075,0.9984059192840233,-4,8,-66,-21,-3,0,0.28420486608297363
Watkins Glen,Boot,"('Practice',)",Mercedes W12,2,4,Not Pacing,False,12,28:06.000433,True,81.521,3,3,03:14.000534,81.521,00:00.000000,0.0,100,0,0,161,6,11975,16,56,202,209,201,198,209,201,192,179,184,204,185,196,98,98,98,99,99,99,98,98,99,98,98,99,65,164,165,0.07,1.0,65,-316,15,-2.408380732016218,0.46598354732346214,1.302031615215461,-4,2,-63,-18,-3,-3,0.2833856406414757
Watkins Glen,Boot,"('Practice',)",Mercedes W12,2,4,Not Pacing,False,12,28:06.000583,True,81.521,3,3,03:14.000684,81.521,00:00.000000,0.0,100,0,0,162,6,12089,19,56,202,209,201,198,209,201,192,179,184,204,185,196,98,98,98,99,99,99,98,98,99,98,98,99,65,164,165,0.07,1.0,65,-316,15,-2.7682064262491237,0.4455105123412961,1.4953319693438016,-4,0,-60,-24,-2,-5,0.32425007403389544
Watkins Glen,Boot,"('Practice',)",Mercedes W12,2,4,Not Pacing,False,12,28:06.000716,True,81.521,3,3,03:14.000817,81.521,00:00.000000,0.0,100,0,0,163,6,12181,18,56,202,209,201,198,209,201,192,179,184,204,185,196,98,98,98,99,99,99,98,98,99,98,98,99,65,164,165,0.07,1.0,65,-316,15,-2.6609621038252183,0.4203339478534539,1.4875558781210678,-5,6,-57,-21,-2,-6,0.31401761750073615
Watkins Glen,Boot,"('Practice',)",Mercedes W12,2,4,Not Pacing,False,12,28:06.000850,True,81.521,3,3,03:14.000950,81.521,00:00.000000,0.0,100,0,0,165,7,10507,19,56,202,209,201,198,209,201,192,179,184,204,185,196,98,98,98,99,99,99,98,98,99,98,98,99,65,163,166,0.07,1.0,65,-316,15,-3.041966561755881,0.4802885648550486,1.7839987829676947,-5,2,-54,-24,-2,-7,0.36316911885806763
Watkins Glen,Boot,"('Practice',)",Mercedes W12,2,4,Not Pacing,False,12,28:07.000000,True,81.521,3,3,03:15.000100,81.521,00:00.000000,0.0,100,0,0,166,7,10731,19,56,202,209,201,198,209,201,192,179,184,204,185,196,98,98,98,99,99,99,98,98,99,98,98,99,65,163,166,0.07,1.0,65,-316,15,-2.6730536442405706,0.41095114386166753,1.584159586650759,-5,-2,-51,-22,-1,-5,0.31982362876321346
Watkins Glen,Boot,"('Practice',)",Mercedes W12,2,4,Not Pacing,False,13,28:07.000150,True,81.521,3,3,03:15.000250,81.521,00:00.000000,0.0,100,0,0,167,7,10804,21,56,202,209,201,198,209,201,192,179,184,204,185,196,98,98,98,99,99,99,98,98,99,98,98,99,65,163,166,0.07,1.0,65,-316,15,-3.173667526633975,0.3841745744057751,1.670409075224679,-5,1,-47,-25,-1,-7,0.3680551867446343
Watkins Glen,Boot,"('Practice',)",Mercedes W12,2,4,Not Pacing,False,13,28:07.000300,True,81.521,3,3,03:15.000400,81.521,00:00.000000,0.0,100,0,0,168,7,10879,22,56,202,209,201,198,209,201,192,179,184,204,185,196,98,98,98,99,99,99,98,98,99,98,98,99,65,163,166,0.07,1.0,65,-316,15,-3.3234307525354785,0.37869729033303917,1.8188754595990817,-5,-1,-44,-26,0,-4,0.3885184690765377
Watkins Glen,Boot,"('Practice',)",Mercedes W12,2,4,Not Pacing,False,13,28:07.000450,True,81.521,3,3,03:15.000550,81.521,00:00.000000,0.0,100,0,0,169,7,10978,23,56,202,209,201,198,209,201,192,179,184,204,185,196,98,98,98,99,99,99,98,98,99,98,98,99,65,163,167,0.07,1.0,65,-316,15,-3.203144326244047,0.35998981662481927,1.487553156114864,-5,-1,-40,-27,0,-6,0.3622454819640347
Watkins Glen,Boot,"('Practice',)",Mercedes W12,2,4,Not Pacing,False,13,28:07.000600,True,81.521,3,3,03:15.000700,81.521,00:00.000000,0.0,100,0,0,170,7,11011,24,56,202,209,201,198,209,201,192,179,184,204,185,196,98,98,98,99,99,99,98,98,99,98,98,99,65,163,167,0.07,1.0,65,-316,15,-3.78676520453559,0.3422620221137028,1.7518639442996025,-5,0,-35,-28,1,-5,0.4271814349882046
Watkins Glen,Boot,"('Practice',)",Mercedes W12,2,4,Not Pacing,False,13,28:07.000733,True,81.521,3,3,03:15.000834,81.521,00:00.000000,0.0,100,0,0,171,7,11070,22,56,202,209,201,198,209,201,192,179,184,204,185,196,98,98,98,99,99,99,98,98,99,98,98,99,65,162,167,0.07,1.0,65,-316,15,-3.628220786620596,0.33932293591513907,1.8012442477009467,-5,-2,-32,-26,1,-6,0.4147881613249078
Watkins Glen,Boot,"('Practice',)",Mercedes W12,2,4,Not Pacing,False,14,28:07.000883,True,81.521,3,3,03:15.000984,81.521,00:00.000000,0.0,100,0,0,172,7,11123,21,56,202,209,201,198,209,201,192,179,184,204,185,196,98,98,98,99,99,99,98,98,99,98,98,99,65,162,167,0.07,1.0,65,-316,15,-3.463742784039325,0.33735925147535845,1.8873416927854827,-5,-3,-28,-26,2,-6,0.40397576437128446
Watkins Glen,Boot,"('Practice',)",Mercedes W12,2,4,Not Pacing,False,14,28:08.000033,True,81.521,3,3,03:16.000134,81.521,00:00.000000,0.0,100,0,0,173,7,11166,20,56,202,209,201,198,209,201,192,179,184,204,185,196,98,98,98,99,99,99,98,98,99,98,98,99,65,162,167,0.07,1.0,65,-316,15,-3.213933192261862,0.3193248181046574,1.74577909386,-4,-2,-24,-24,2,-7,0.37463128545968544
Watkins Glen,Boot,"('Practice',)",Mercedes W12,2,4,Not Pacing,False,14,28:08.000166,True,81.521,3,3,03:16.000267,81.521,00:00.000000,0.0,100,0,0,173,7,11204,19,56,202,209,201,198,209,201,192,179,184,204,185,196,98,98,98,99,99,99,98,98,99,98,98,99,65,162,168,0.07,1.0,65,-316,15,-2.966755586054468,0.3174476788799818,1.9223064457604644,-4,-4,-21,-22,3,-7,0.3621755295412704
Watkins Glen,Boot,"('Practice',)",Mercedes W12,2,4,Not Pacing,False,14,28:08.000316,True,81.521,3,3,03:16.000417,81.521,00:00.000000,0.0,100,0,0,174,7,11245,16,56,202,209,201,198,209,201,192,179,184,204,185,196,98,98,98,99,99,99,98,98,99,98,98,99,65,162,168,0.07,1.0,65,-316,15,-2.5548997153808095,0.32213558115361296,1.9096810032711358,-4,-5,-18,-19,4,-6,0.327138551134544
Watkins Glen,Boot,"('Practice',)",Mercedes W12,2,4,Not Pacing,False,14,28:08.000466,True,81.521,3,3,03:16.000567,81.521,00:00.000000,0.0,100,0,0,175,7,11293,18,56,202,209,201,198,209,201,192,179,184,204,185,196,98,98,98,99,99,99,98,98,99,98,98,99,65,162,168,0.07,1.0,65,-316,15,-2.758959965603796,0.2986011155154727,1.7440202889943097,-3,-6,-15,-22,4,-7,0.3344484772081728
Watkins Glen,Boot,"('Practice',)",Mercedes W12,2,4,Not Pacing,False,15,28:08.000616,True,81.521,3,3,03:16.000717,81.521,00:00.000000,0.0,100,0,0,175,7,11334,15,56,202,209,201,198,209,201,192,179,184,204,185,196,98,98,98,99,99,99,98,98,99,98,98,99,65,162,168,0.07,1.0,65,-316,15,-2.55150031849028,0.3101492268351361,1.792684704764052,-3,-3,-12,-19,5,-8,0.3197651299411731
Watkins Glen,Boot,"('Practice',)",Mercedes W12,2,4,Not Pacing,False,15,28:08.000750,True,81.521,3,3,03:16.000850,81.521,00:00.000000,0.0,100,0,0,176,7,11372,11,56,202,209,201,198,209,201,192,179,184,204,185,196,98,98,98,99,99,99,98,98,99,98,98,99,65,161,168,0.07,1.0,65,-316,15,-2.0547425467426015,0.3064933537707781,1.4040791417237573,-3,-1,-10,-16,6,-5,0.25586301490877
Watkins Glen,Boot,"('Practice',)",Mercedes W12,2,4,Not Pacing,False,15,28:08.000900,True,81.521,3,3,03:17.000000,81.521,00:00.000000,0.0,100,0,0,177,7,11401,3,56,202,209,201,198,209,201,192,179,184,204,185,196,98,98,98,99,99,99,98,98,99,98,98,99,65,161,169,0.07,1.0,65,-316,15,-0.6059894503438873,0.29543197118543335,1.1767341699318297,-2,-7,-8,-4,6,-2,0.13838505132549447
Watkins Glen,Boot,"('Practice',)",Mercedes W12,2,4,Not Pacing,False,15,28:09.000033,True,81.521,3,3,03:17.000134,81.521,00:00.000000,0.0,100,0,0,177,7,11453,-5,56,202,209,201,198,209,201,192,179,184,204,185,196,98,98,98,99,99,99,98,98,99,98,98,99,65,161,169,0.07,1.0,65,-316,15,0.2389355658512718,0.30139836574791645,0.8858132435276602,-1,-2,-8,3,6,2,0.09854186197852498
Watkins Glen,Boot,"('Practice',)",Mercedes W12,2,4,Not Pacing,False,15,28:09.000183,True,81.521,3,3,03:17.000284,81.521,00:00.000000,0.0,100,0,0,178,7,11511,-7,56,202,209,201,198,209,201,192,179,184,204,185,196,98,98,98,99,99,99,98,98,99,98,98,99,65,161,169,0.07,1.0,65,-316,15,0.8415102594124796,0.2861459928428969,0.5608214515429388,-1,-4,-9,6,6,2,0.10724192438581504
Watkins Glen,Boot,"('Practice',)",Mercedes W12,2,4,Not Pacing,False,16,28:09.000316,True,81.521,3,3,03:17.000417,81.521,00:00.000000,0.0,100,0,0,178,7,11547,-9,56,202,209,201,198,209,201,192,179,184,204,185,196,98,98,98,99,99,99,98,98,99,98,98,99,65,161,169,0.07,1.0,65,-316,15,1.3091319683980989,0.2635862484619887,0.7046285390124772,0,-8,-10,10,6,1,0.15407168500970767
Watkins Glen,Boot,"('Practice',)",Mercedes W12,2,4,Not Pacing,False,16,28:09.000450,True,81.521,3,3,03:17.000550,81.521,00:00.000000,0.0,100,0,0,179,7,11572,-12,56,202,209,201,198,209,201,192,179,184,204,185,196,98,98,98,99,99,99,98,98,99,98,98,99,65,161,169,0.07,1.0,65,-316,15,1.4496689542717889,0.2622007716078763,0.5731377032918668,1,-6,-12,10,5,4,0.16130120070370824
Watkins Glen,Boot,"('Practice',)",Mercedes W12,2,4,Not Pacing,False,16,28:09.000600,True,81.521,3,3,03:17.000700,81.521,00:00.000000,0.0,100,0,0,179,7,11630,-13,56,202,209,201,198,209,201,192,179,184,204,185,196,98,98,98,99,99,99,98,98,99,98,98,99,65,161,169,0.07,1.0,65,-316,15,1.6941852161279147,0.24558494093464298,0.4950474283138668,2,-8,-14,12,5,7,0.1818402696133773
Watkins Glen,Boot,"('Practice',)",Mercedes W12,2,4,Not Pacing,False,16,28:09.000733,True,81.521,3,3,03:17.000834,81.521,00:00.000000,0.0,100,0,0,179,7,11671,-20,56,202,209,201,198,209,201,192,179,184,204,185,196,98,98,98,99,99,99,98,98,99,98,98,99,65,160,169,0.07,1.0,65,-316,15,2.647011238743649,0.24531796559402821,0.7789700281607873,3,-3,-16,22,4,-1,0.2826667591731903
Watkins Glen,Boot,"('Practice',)",Mercedes W12,2,4,Not Pacing,False,16,28:09.000866,True,81.521,3,3,03:17.000967,81.521,00:00.000000,0.0,100,0,0,180,7,11657,-19,56,202,209,201,198,209,201,192,179,184,204,185,196,98,98,98,99,99,99,98,98,99,98,98,99,65,160,169,0.07,1.0,65,-316,15,3.043074807138861,0.2192251300714553,0.8183029205913329,3,2,-19,21,4,0,0.3223259841847345
Watkins Glen,Boot,"('Practice',)",Mercedes W12,2,4,Not Pacing,False,17,28:10.000016,True,81.521,3,3,03:18.000117,81.521,00:00.000000,0.0,100,0,0,180,7,11670,-17,56,202,209,201,198,209,201,192,179,184,204,185,196,98,98,98,99,99,99,98,98,99,98,98,99,65,160,170,0.07,1.0,65,-316,15,2.7868342812758824,0.23385805213609356,0.8853196854742051,4,-3,-22,18,4,1,0.29932810093418566
Watkins Glen,Boot,"('Practice',)",Mercedes W12,2,4,Not Pacing,False,17,28:10.000150,True,81.521,3,3,03:18.000250,81.521,00:00.000000,0.0,100,0,0,180,7,11672,-18,56,202,209,201,198,209,201,192,179,184,204,185,196,98,98,98,99,99,99,98,98,99,98,98,99,65,160,170,0.07,1.0,65,-316,15,2.902062831182606,0.21508384066862674,1.189205819070643,4,1,-24,19,4,-1,0.3207790686737635
Watkins Glen,Boot,"('Practice',)",Mercedes W12,2,4,Not Pacing,False,17,28:10.000283,True,81.521,3,3,03:18.000384,81.521,00:00.000000,0.0,100,0,0,180,8,11995,-18,56,202,209,201,198,209,201,192,179,184,204,185,196,98,98,98,99,99,99,98,98,99,98,98,99,65,160,170,0.07,1.0,65,-316,15,3.0077769972619417,-0.3180112556823046,0.9369334921802828,4,1,-27,21,3,1,0.3230957410745919
Watkins Glen,Boot,"('Practice',)",Mercedes W12,2,4,Not Pacing,False,17,28:10.000433,True,81.521,3,3,03:18.000534,81.521,00:00.000000,0.0,100,0,0,181,8,10399,-16,56,202,209,201,198,209,201,192,179,184,204,185,196,98,98,98,99,99,99,98,98,99,98,98,99,65,160,170,0.07,1.0,65,-316,15,2.8416407096155067,0.24215290427329464,0.9584749632046978,4,0,-30,17,3,0,0.30700950062225724
Watkins Glen,Boot,"('Practice',)",Mercedes W12,2,4,Not Pacing,False,17,28:10.000566,True,81.521,3,3,03:18.000667,81.521,00:00.000000,0.0,100,0,0,181,8,10378,-14,56,202,209,201,198,209,201,192,179,184,204,185,196,98,98,98,99,99,99,98,98,99,98,98,99,65,160,170,0.07,1.0,65,-316,15,2.3877438419820334,0.2415896920253742,1.1297437879774306,4,-2,-33,15,3,-2,0.27066809341304654
Watkins Glen,Boot,"('Practice',)",Mercedes W12,2,4,Not Pacing,False,18,28:10.000700,True,81.521,3,3,03:18.000800,81.521,00:00.000000,0.0,100,0,0,182,8,10377,-14,56,202,209,201,198,209,201,192,179,184,204,185,196,98,98,98,99,99,99,98,98,99,98,98,99,65,159,170,0.07,1.0,65,-316,15,2.1624894681691393,0.22680671936875088,1.2898041689189323,4,4,-35,14,3,-2,0.2579715506201044
Watkins Glen,Boot,"('Practice',)",Mercedes W12,2,4,Not Pacing,False,18,28:10.000833,True,81.521,3,3,03:18.000934,81.521,00:00.000000,0.0,100,0,0,182,8,10423,-14,56,202,209,201,198,209,201,192,179,184,204,185,196,98,98,98,99,99,99,98,98,99,98,98,99,65,159,170,0.07,1.0,65,-316,15,2.131042908212582,0.205908176488225,1.018040430533655,4,1,-37,15,3,-1,0.2419066542339233
Watkins Glen,Boot,"('Practice',)",Mercedes W12,2,4,Not Pacing,False,18,28:10.000983,True,81.521,3,3,03:19.000084,81.521,00:00.000000,0.0,100,0,0,182,8,10451,-13,56,202,209,201,198,209,201,192,179,184,204,185,196,98,98,98,99,99,99,98,98,99,98,98,99,65,159,171,0.07,1.0,65,-316,15,1.8599415894799032,0.2242980504011646,0.8520108844162126,3,5,-39,13,3,0,0.21000621951021003
