TrackName,TrackType,SessionFlag,CarName,RacePosition,Lap Nbr,PaceMode,OnPitRoad,LapDistPrct %,SessionTime,IsOnTrack,PreviousLap,LapBestLap,LapCompleted,CurrentLapTime,LapBestLapTime,LapDeltaToBestLap,LapDeltaToBestLap_DD,Throttle %,Brake %,Clutch %,Speed (MPH),currentGear,RPM,SteeringWheelAngle (deg),FuelLevelPct,LFtempCL (F),LFtempCR (F),LFtempCM (F),LRtempCL (F),LRtempCR (F),LRtempCM (F),RFtempCL (F),RFtempCR (F),RFtempCM (F),RRtempCL (F),RRtempCR (F),RRtempCM (F),LFwearL %,LFwearM %,LFwearR %,LRwearL %,LRwearM %,LRwearR %,RFwearL %,RFwearM %,RFwearR %,RRwearL %,RRwearM %,RRwearR %,TrackTemp (F),OilTemp (F),WaterTemp (F),AirDensity (lbs/ft^3),AirPressure (bar),AirTemp (F),WindDir (deg),WindVel (MPH),LatAccel (m/s),LongAccel (m/s),VertAccel (m/s),Roll (deg),RollRate (deg/s),Yaw (deg),YawRate (deg/s),Pitch (deg),PitchRate (deg/s),gForces
Darlington Raceway,,"('Practice',)",Chevrolet Silverado,0,0,Not Pacing,True,9,17:06.000183,True,0.0,0,0,00:00.000000,0.0,00:00.000000,0.0,0,65,100,0,N,1685,0,49,81,81,81,81,81,81,81,81,81,81,81,81,100,100,100,100,100,100,100,100,100,100,100,100,70,171,170,0.07,1.01,71,0,0,-0.02203679109081459,-0.011309628943541485,0.9997012053790078,1,-1,-4,0,-1,-1,0.10204163407349177
Darlington Raceway,,"('Practice',)",Chevrolet Silverado,0,0,Not Pacing,True,9,17:06.000449,True,0.0,0,0,00:00.000000,0.0,00:00.000000,0.0,0,70,100,0,N,1390,0,49,81,81,81,81,81,81,81,81,81,81,81,81,100,100,100,100,100,100,100,100,100,100,100,100,70,171,170,0.07,1.01,71,0,0,-0.0222070319207801,-0.01110401190627484,0.9995379822212864,1,0,-4,0,-1,-1,0.10202513294016943
Darlington Raceway,,"('Practice',)",Chevrolet Silverado,0,0,Not Pacing,True,9,17:06.000699,True,0.0,0,0,00:00.000000,0.0,00:00.000000,0.0,0,75,100,0,N,1269,0,49,81,81,81,81,81,81,81,81,81,81,81,81,100,100,100,100,100,100,100,100,100,100,100,100,70,171,170,0.07,1.01,71,0,0,-0.02196188123704947,-0.011159434048772222,0.9994109228602729,1,0,-4,0,-1,-1,0.10201168206167917
Darlington Raceway,,"('Practice',)",Chevrolet Silverado,0,0,Not Pacing,True,9,17:06.000966,True,0.0,0,0,00:00.000000,0.0,00:00.000000,0.0,0,81,100,0,N,1215,0,49,81,81,81,81,81,81,81,81,81,81,81,81,100,100,100,100,100,100,100,100,100,100,100,100,70,171,170,0.07,1.01,71,0,0,-0.021545677070831545,-0.011767762182441811,0.9984328477025396,1,0,-4,-1,-1,-1,0.10191169625614584
Darlington Raceway,,"('Practice',)",Chevrolet Silverado,0,0,Not Pacing,True,9,17:07.000233,True,0.0,0,0,00:00.000000,0.0,00:00.000000,0.0,5,86,100,0,N,3239,0,49,81,81,81,81,81,81,81,81,81,81,81,81,100,100,100,100,100,100,100,100,100,100,100,100,70,171,170,0.07,1.01,71,0,0,-0.014976822941067508,-0.012795182056990845,0.9934226064263983,1,-1,-4,0,-1,-1,0.10138957986976375
Darlington Raceway,,"('Practice',)",Chevrolet Silverado,0,0,Not Pacing,True,9,17:07.000499,True,0.0,0,0,00:00.000000,0.0,00:00.000000,0.0,0,91,100,0,N,2573,0,49,81,81,81,81,81,81,81,81,81,81,81,81,100,100,100,100,100,100,100,100,100,100,100,100,70,171,170,0.07,1.01,71,0,0,-0.023356838024598255,-0.014948841871714615,1.0009186226536617,1,0,-4,-1,-1,-1,0.10217374499494641
Darlington Raceway,,"('Practice',)",Chevrolet Silverado,0,0,Not Pacing,True,9,17:07.000749,True,0.0,0,0,00:00.000000,0.0,00:00.000000,0.0,0,96,100,0,N,1984,0,49,81,81,81,81,81,81,81,81,81,81,81,81,100,100,100,100,100,100,100,100,100,100,100,100,70,171,170,0.07,1.01,71,0,0,-0.02280031838791329,-0.013053073917081718,0.9991419303186321,1,0,-4,0,-1,-1,0.10198849853582212
Darlington Raceway,,"('Practice',)",Chevrolet Silverado,0,0,Not Pacing,True,9,17:08.000016,True,0.0,0,0,00:00.000000,0.0,00:00.000000,0.0,0,100,100,0,N,1523,0,49,81,81,81,81,81,81,81,81,81,81,81,81,100,100,100,100,100,100,100,100,100,100,100,100,70,171,170,0.07,1.01,71,0,0,-0.021185975799016144,-0.013782773603600706,0.9993958546116446,1,0,-4,-1,-1,-1,0.10201177569579485
Darlington Raceway,,"('Practice',)",Chevrolet Silverado,0,0,Not Pacing,True,9,17:08.000283,True,0.0,0,0,00:00.000000,0.0,00:00.000000,0.0,13,100,100,0,1,1482,0,49,81,81,81,81,81,81,81,81,81,81,81,81,100,100,100,100,100,100,100,100,100,100,100,100,70,171,170,0.07,1.01,71,0,0,-0.02273965653537124,-0.014254408266687732,0.9998396388373729,1,0,-4,-1,-1,-1,0.10206120120490066
Darlington Raceway,,"('Practice',)",Chevrolet Silverado,0,0,Not Pacing,True,9,17:08.000549,True,0.0,0,0,00:00.000000,0.0,00:00.000000,0.0,2,100,100,0,1,3796,0,49,81,81,81,81,81,81,81,81,81,81,81,81,100,100,100,100,100,100,100,100,100,100,100,100,70,171,170,0.07,1.01,71,0,0,-0.021137614619598233,-0.013389732312718661,0.9943940709976367,1,-1,-4,0,-1,0,0.10150090079669881
Darlington Raceway,,"('Practice',)",Chevrolet Silverado,0,0,Not Pacing,True,9,17:08.000799,True,0.0,0,0,00:00.000000,0.0,00:00.000000,0.0,4,100,100,0,1,4484,0,49,81,81,81,81,81,81,81,81,81,81,81,81,100,100,100,100,100,100,100,100,100,100,100,100,70,171,171,0.07,1.01,71,0,0,-0.021296443377795203,-0.01740552993846353,0.9888553716599272,1,-1,-4,0,-1,0,0.10094263327634231
Darlington Raceway,,"('Practice',)",Chevrolet Silverado,0,0,Not Pacing,True,9,17:09.000066,True,0.0,0,0,00:00.000000,0.0,00:00.000000,0.0,30,100,100,0,1,5914,1,49,81,81,81,81,81,81,81,81,81,81,81,81,100,100,100,100,100,100,100,100,100,100,100,100,70,172,171,0.07,1.01,71,0,0,-0.02137267474126864,-0.015449662152658786,0.9995497451766672,1,-1,-4,0,-1,-1,0.10203036560610783
Darlington Raceway,,"('Practice',)",Chevrolet Silverado,0,0,Not Pacing,True,9,17:09.000333,True,0.0,0,0,00:00.000000,0.0,00:00.000000,0.0,31,0,70,0,1,7082,2,49,81,81,81,81,81,81,81,81,81,81,81,81,100,100,100,100,100,100,100,100,100,100,100,100,70,172,171,0.07,1.01,71,0,0,0.008669594316064521,-0.029691555570511032,1.0361444937951945,1,0,-4,0,-1,-2,0.10577613047772699
Darlington Raceway,,"('Practice',)",Chevrolet Silverado,0,0,Not Pacing,True,9,17:09.000599,True,0.0,0,0,00:00.000000,0.0,00:00.000000,0.0,29,0,42,2,1,5598,4,49,81,81,81,81,81,81,81,81,81,81,81,81,100,100,100,100,100,100,100,100,100,100,100,100,70,173,171,0.07,1.01,71,0,0,-0.044579656602896436,0.5684923566687969,1.0023333853780918,0,0,-4,-1,-1,-1,0.11767226956219974
Darlington Raceway,,"('Practice',)",Chevrolet Silverado,0,0,Not Pacing,True,9,17:09.000866,True,0.0,0,0,00:00.000000,0.0,00:00.000000,0.0,30,0,33,6,1,3046,9,49,81,81,81,81,81,81,81,81,81,81,81,81,100,100,100,100,100,100,100,100,100,100,100,100,70,173,172,0.07,1.01,71,0,0,-0.032351116643160975,0.813679155588879,0.9928096689580047,0,1,-4,-1,-1,-1,0.13102578831236963
Darlington Raceway,,"('Practice',)",Chevrolet Silverado,0,0,Not Pacing,True,9,17:10.000133,True,0.0,0,0,00:00.000000,0.0,00:00.000000,0.0,30,0,33,11,1,1341,13,49,81,81,81,81,81,81,81,81,81,81,81,81,100,100,100,100,100,100,100,100,100,100,100,100,70,173,172,0.07,1.01,71,0,0,-0.0408582214672388,0.7383544875212036,1.006122709657317,0,-1,-3,-2,-1,0,0.1274129722501975
Darlington Raceway,,"('Practice',)",Chevrolet Silverado,0,0,Not Pacing,True,9,17:10.000399,True,0.0,0,0,00:00.000000,0.0,00:00.000000,0.0,29,0,33,14,1,1687,23,49,81,81,81,81,81,81,81,81,81,81,81,81,100,100,100,100,100,100,100,100,100,100,100,100,70,173,172,0.07,1.01,71,0,0,-0.06903409957885742,0.44522319486503326,1.041511026240513,0,1,-3,-2,-1,-1,0.11579428082596242
Darlington Raceway,,"('Practice',)",Chevrolet Silverado,0,0,Not Pacing,True,9,17:10.000649,True,0.0,0,0,00:00.000000,0.0,00:00.000000,0.0,29,0,29,17,1,2142,39,49,81,81,81,81,81,81,81,81,81,81,81,81,100,100,100,100,100,100,100,100,100,100,100,100,70,173,172,0.07,1.01,71,0,0,-0.11868122034724213,0.3676322865072983,1.0464812151396554,0,-1,-3,-4,-1,0,0.11382751002541819
Darlington Raceway,,"('Practice',)",Chevrolet Silverado,0,0,Not Pacing,True,9,17:10.000933,True,0.0,0,0,00:00.000000,0.0,00:00.000000,0.0,29,0,0,20,1,2546,55,49,81,81,81,81,81,81,81,81,81,81,81,81,100,100,100,100,100,100,100,100,100,100,100,100,70,173,172,0.07,1.01,71,0,0,-0.17832895545298413,0.3744934676984034,0.9890010962063384,0,-1,-1,-8,-1,0,0.1094346601195229
Darlington Raceway,,"('Practice',)",Chevrolet Silverado,0,0,Not Pacing,True,9,17:11.000199,True,0.0,0,0,00:00.000000,0.0,00:00.000000,0.0,29,0,0,22,1,2809,65,49,81,81,81,81,81,81,81,81,81,81,81,81,100,100,100,100,100,100,100,100,100,100,100,100,70,173,172,0.07,1.01,71,0,0,-0.20718902622887847,0.4941553393878217,0.9606121269327177,1,-1,1,-13,-1,0,0.11223990946453623
Darlington Raceway,,"('Practice',)",Chevrolet Silverado,0,0,Not Pacing,True,9,17:11.000449,True,0.0,0,0,00:00.000000,0.0,00:00.000000,0.0,24,0,0,24,1,2946,61,49,81,81,81,81,81,81,81,81,81,81,81,81,100,100,100,100,100,100,100,100,100,100,100,100,70,173,172,0.07,1.01,71,0,0,-0.35971516133812953,0.28638842152042365,0.9918217751350363,1,-3,5,-17,-1,0,0.11155277142815258
Darlington Raceway,,"('Practice',)",Chevrolet Silverado,0,0,Not Pacing,True,10,17:11.000716,True,0.0,0,0,00:00.000000,0.0,00:00.000000,0.0,25,0,0,26,1,3179,29,49,81,81,81,81,81,81,81,81,81,81,81,81,100,100,100,100,100,100,100,100,100,100,100,100,70,173,172,0.07,1.01,71,0,0,-0.15641766829106662,0.3135661952478562,0.9993498721497017,1,1,9,-10,-1,-1,0.10806167797410463
Darlington Raceway,,"('Practice',)",Chevrolet Silverado,0,0,Not Pacing,True,10,17:11.000983,True,0.0,0,0,00:00.000000,0.0,00:00.000000,0.0,25,0,0,28,1,3358,-8,49,81,81,81,81,81,81,81,81,81,81,81,81,100,100,100,100,100,100,100,100,100,100,100,100,70,173,172,0.07,1.01,71,0,0,0.08863521156933207,0.2992224377351191,1.0019624148183155,0,2,10,0,-1,1,0.10708545346031507
Darlington Raceway,,"('Practice',)",Chevrolet Silverado,0,0,Not Pacing,True,10,17:12.000233,True,0.0,0,0,00:00.000000,0.0,00:00.000000,0.0,25,0,0,29,1,3557,-26,49,81,81,81,81,81,81,81,81,81,81,81,81,100,100,100,100,100,100,100,100,100,100,100,100,70,173,172,0.07,1.01,71,0,0,0.15618160716376658,0.27934428262661964,1.0129513482921106,0,0,8,6,-1,-1,0.10839868280650922
Darlington Raceway,,"('Practice',)",Chevrolet Silverado,0,0,Not Pacing,True,10,17:12.000499,True,0.0,0,0,00:00.000000,0.0,00:00.000000,0.0,25,0,0,31,1,3749,-26,49,81,81,81,81,81,81,81,81,81,81,81,81,100,100,100,100,100,100,100,100,100,100,100,100,70,173,172,0.07,1.01,71,0,0,0.16691825683935943,0.2547487935524103,0.9925252193097066,0,-1,6,7,-1,-1,0.1059390567682332
Darlington Raceway,,"('Practice',)",Chevrolet Silverado,0,0,Not Pacing,True,10,17:12.000766,True,0.0,0,0,00:00.000000,0.0,00:00.000000,0.0,22,0,0,32,1,3881,-20,49,81,81,81,81,81,81,81,81,81,81,81,81,100,100,100,100,100,100,100,100,100,100,100,100,70,173,172,0.07,1.01,71,0,0,0.1330394506697504,0.17988309947722547,1.0031574727562953,0,0,4,6,-1,0,0.10487802260611535
Darlington Raceway,,"('Practice',)",Chevrolet Silverado,0,0,Not Pacing,True,10,17:13.000033,True,0.0,0,0,00:00.000000,0.0,00:00.000000,0.0,24,0,0,33,1,4048,-17,49,81,81,81,81,81,81,81,81,81,81,81,81,100,100,100,100,100,100,100,100,100,100,100,100,70,173,172,0.07,1.01,71,0,0,0.1264395699223976,0.22290377563414343,1.0065162339827822,0,-1,3,5,-1,-1,0.10598244234412087
Darlington Raceway,,"('Practice',)",Chevrolet Silverado,0,0,Not Pacing,True,11,17:13.000283,True,0.0,0,0,00:00.000000,0.0,00:00.000000,0.0,22,0,0,35,1,4169,-15,49,81,81,81,81,81,81,81,81,81,81,81,81,100,100,100,100,100,100,100,100,100,100,100,100,70,173,172,0.07,1.01,71,0,0,0.11739435545895077,0.17875906888862633,1.004833839719813,0,-1,1,5,-1,-1,0.10483060277173134
Darlington Raceway,,"('Practice',)",Chevrolet Silverado,0,0,Not Pacing,True,11,17:13.000549,True,0.0,0,0,00:00.000000,0.0,00:00.000000,0.0,22,0,0,36,1,4301,-12,49,81,81,81,81,81,81,81,81,81,81,81,81,100,100,100,100,100,100,100,100,100,100,100,100,70,173,172,0.07,1.01,71,0,0,0.10952601982062259,0.17445447126538258,1.0279155773975555,0,-1,0,4,-1,-1,0.1069746369327068
Darlington Raceway,,"('Practice',)",Chevrolet Silverado,0,0,Not Pacing,True,11,17:13.000816,True,0.0,0,0,00:00.000000,0.0,00:00.000000,0.0,23,0,0,37,1,4417,-8,49,81,81,81,81,81,81,81,81,81,81,81,81,100,100,100,100,100,100,100,100,100,100,100,100,70,173,172,0.07,1.01,71,0,0,0.08365633412360172,0.1773363953336663,1.0281817507184852,1,-2,-1,3,0,-1,0.10680726314454278
Darlington Raceway,,"('Practice',)",Chevrolet Silverado,0,0,Not Pacing,True,11,17:14.000066,True,0.0,0,0,00:00.000000,0.0,00:00.000000,0.0,21,0,0,38,1,4510,-6,49,81,81,81,81,81,81,81,81,81,81,81,81,100,100,100,100,100,100,100,100,100,100,100,100,70,173,172,0.07,1.01,71,0,0,0.057211612464212615,0.13002606828399876,1.0405885577809433,1,1,-2,2,0,0,0.10716736812046124
Darlington Raceway,,"('Practice',)",Chevrolet Silverado,0,0,Not Pacing,True,12,17:14.000333,True,0.0,0,0,00:00.000000,0.0,00:00.000000,0.0,17,0,0,38,1,4568,-4,49,81,81,81,81,81,81,81,81,81,81,81,81,100,100,100,100,100,100,100,100,100,100,100,100,70,173,172,0.07,1.01,71,0,0,0.03528789703513018,0.07427077774607807,0.9990885595541359,1,-1,-2,1,0,0,0.10229251273969293
Darlington Raceway,,"('Practice',)",Chevrolet Silverado,0,0,Not Pacing,True,12,17:14.000583,True,0.0,0,0,00:00.000000,0.0,00:00.000000,0.0,17,0,0,38,1,4613,-4,49,81,81,81,81,81,81,81,81,81,81,81,81,100,100,100,100,100,100,100,100,100,100,100,100,70,173,172,0.07,1.01,71,0,0,0.039462382154241124,0.05960242706944332,1.0127156031119593,1,-1,-3,1,0,-1,0.10359543411881265
Darlington Raceway,,"('Practice',)",Chevrolet Silverado,0,0,Not Pacing,True,12,17:14.000849,True,0.0,0,0,00:00.000000,0.0,00:00.000000,0.0,18,0,0,39,1,4669,-4,49,81,81,81,81,81,81,81,81,81,81,81,81,100,100,100,100,100,100,100,100,100,100,100,100,70,173,172,0.07,1.01,71,0,0,0.03286038699135503,0.07354561828084434,0.9775041197175036,1,-1,-3,2,0,-1,0.10008342350466769
Darlington Raceway,,"('Practice',)",Chevrolet Silverado,0,0,Not Pacing,True,12,17:15.000116,True,0.0,0,0,00:00.000000,0.0,00:00.000000,0.0,18,0,0,39,1,4714,-5,49,81,81,81,81,81,81,81,81,81,81,81,81,100,100,100,100,100,100,100,100,100,100,100,100,70,173,172,0.07,1.01,71,0,0,0.04814686092275606,0.08032904001793972,1.0310991580819258,1,-1,-4,2,0,-1,0.10564730506902836
Darlington Raceway,,"('Practice',)",Chevrolet Silverado,0,0,Not Pacing,True,13,17:15.000366,True,0.0,0,0,00:00.000000,0.0,00:00.000000,0.0,17,0,0,40,1,4746,-5,49,81,81,81,81,81,81,81,81,81,81,81,81,100,100,100,100,100,100,100,100,100,100,100,100,70,173,171,0.07,1.01,71,0,0,0.05099911937655294,0.06659072838062904,1.0115902479756984,1,0,-4,2,0,0,0.10357771495363502
Darlington Raceway,,"('Practice',)",Chevrolet Silverado,0,0,Not Pacing,True,13,17:15.000633,True,0.0,0,0,00:00.000000,0.0,00:00.000000,0.0,17,0,0,40,1,4792,-5,49,81,81,81,81,81,81,81,81,81,81,81,81,100,100,100,100,100,100,100,100,100,100,100,100,70,173,171,0.07,1.01,71,0,0,0.05530453117129513,0.04637556399288041,1.0142343853591778,1,-1,-5,3,0,-1,0.10375502339010989
Darlington Raceway,,"('Practice',)",Chevrolet Silverado,0,0,Not Pacing,True,13,17:15.000899,True,0.0,0,0,00:00.000000,0.0,00:00.000000,0.0,17,0,0,40,1,4808,-6,49,81,81,81,81,81,81,81,81,81,81,81,81,100,100,100,100,100,100,100,100,100,100,100,100,70,173,171,0.07,1.01,71,0,0,0.08307797464026588,0.043790101640450475,1.0246801813808055,1,-2,-6,3,0,0,0.1049974215281374
Darlington Raceway,,"('Practice',)",Chevrolet Silverado,0,0,Not Pacing,True,13,17:16.000149,True,0.0,0,0,00:00.000000,0.0,00:00.000000,0.0,17,0,0,40,1,4828,-7,49,81,81,81,81,81,81,81,81,81,81,81,81,100,100,100,100,100,100,100,100,100,100,100,100,70,173,171,0.07,1.01,71,0,0,0.08579306646224555,0.03732022706886315,0.957341247620811,2,-2,-7,3,0,1,0.09815326829730696
Darlington Raceway,,"('Practice',)",Chevrolet Silverado,0,0,Not Pacing,True,14,17:16.000416,True,0.0,0,0,00:00.000000,0.0,00:00.000000,0.0,18,0,0,41,1,4853,-13,49,81,81,81,81,81,81,81,81,81,81,81,81,100,100,100,100,100,100,100,100,100,100,100,100,70,173,171,0.07,1.01,71,0,0,0.11894955669095877,0.048278446834264785,0.9710051354768929,2,0,-8,4,0,0,0.09994431907690182
Darlington Raceway,,"('Practice',)",Chevrolet Silverado,0,0,Not Pacing,False,14,17:16.000683,True,0.0,0,0,00:00.000000,0.0,00:00.000000,0.0,20,0,0,41,1,4917,-20,49,81,81,81,81,81,81,81,81,81,81,81,81,100,100,100,100,100,100,100,100,100,100,100,100,70,173,171,0.07,1.01,71,0,0,0.23248373064669142,0.10255394118033903,1.0429879090350944,2,-5,-10,7,0,-3,0.10954022338843268
Darlington Raceway,,"('Practice',)",Chevrolet Silverado,0,0,Not Pacing,False,14,17:16.000933,True,0.0,0,0,00:00.000000,0.0,00:00.000000,0.0,32,0,0,42,1,5067,-28,49,81,81,81,81,81,81,81,81,81,81,81,81,100,100,100,100,100,100,100,100,100,100,100,100,70,173,171,0.07,1.01,71,0,0,0.30828013211093785,0.26889066083715596,0.9961479179234558,3,-2,-12,10,0,-2,0.1098847177952695
Darlington Raceway,,"('Practice',)",Chevrolet Silverado,0,0,Not Pacing,False,14,17:17.000199,True,0.0,0,0,00:00.000000,0.0,00:00.000000,0.0,38,0,0,44,1,5308,-33,49,81,81,81,81,81,81,81,81,81,81,81,81,100,100,100,100,100,100,100,100,100,100,100,100,70,173,171,0.07,1.01,71,0,0,0.35095295045718505,0.37157375149041505,0.980480050214326,3,-2,-15,12,0,-1,0.11282669973111521
Darlington Raceway,,"('Practice',)",Chevrolet Silverado,0,0,Not Pacing,False,15,17:17.000483,True,0.0,0,0,00:00.000000,0.0,00:00.000000,0.0,39,0,0,46,1,5566,-36,49,81,81,81,81,81,81,81,81,81,81,81,81,100,100,100,100,100,100,100,100,100,100,100,100,70,173,171,0.07,1.01,71,0,0,0.44416234155435197,0.3684622553631921,1.0238543441414711,3,-2,-19,14,0,-1,0.11992823487919102
Darlington Raceway,,"('Practice',)",Chevrolet Silverado,0,0,Not Pacing,False,15,17:17.000733,True,0.0,0,0,00:00.000000,0.0,00:00.000000,0.0,40,0,0,48,1,5832,-37,49,81,81,81,81,81,81,81,81,81,81,81,81,100,100,100,100,100,100,100,100,100,100,100,100,70,174,171,0.07,1.01,71,0,0,0.49079225211576094,0.37760472078935814,0.9904781734299343,3,-1,-23,14,0,0,0.11919613839365291
Darlington Raceway,,"('Practice',)",Chevrolet Silverado,0,0,Not Pacing,False,15,17:17.000999,True,0.0,0,0,00:00.000000,0.0,00:00.000000,0.0,41,0,0,50,1,6077,-36,49,81,81,81,81,81,81,81,81,81,81,81,81,100,100,100,100,100,100,100,100,100,100,100,100,70,174,171,0.07,1.01,71,0,0,0.5358836458849736,0.39206622937403685,1.0247656329327037,3,-1,-27,14,0,-1,0.12459980972761459
Darlington Raceway,,"('Practice',)",Chevrolet Silverado,0,0,Not Pacing,False,16,17:18.000249,True,0.0,0,0,00:00.000000,0.0,00:00.000000,0.0,43,0,0,52,1,6343,-32,49,81,81,81,81,81,81,81,81,81,81,81,81,100,100,100,100,100,100,100,100,100,100,100,100,70,174,171,0.07,1.01,71,0,0,0.5364066113268806,0.4035350379593875,1.0557886292810468,4,-1,-30,14,0,-1,0.12766371385979927
Darlington Raceway,,"('Practice',)",Chevrolet Silverado,0,0,Not Pacing,False,16,17:18.000516,True,0.0,0,0,00:00.000000,0.0,00:00.000000,0.0,44,0,0,55,1,6611,-32,49,81,81,81,81,81,81,81,81,81,81,81,81,100,100,100,100,100,100,100,100,100,100,100,100,70,174,172,0.07,1.01,71,0,0,0.5450312879836523,0.38441809674650884,1.0240616054709897,4,-2,-34,14,0,-1,0.12470450494924
Darlington Raceway,,"('Practice',)",Chevrolet Silverado,0,0,Not Pacing,False,16,17:18.000783,True,0.0,0,0,00:00.000000,0.0,00:00.000000,0.0,44,0,0,57,1,6865,-30,49,81,81,81,81,81,81,81,81,81,81,81,81,100,100,100,100,100,100,100,100,100,100,100,100,70,175,172,0.07,1.01,71,0,0,0.544950842978879,0.36234556717245586,1.0050203943592813,4,-1,-38,13,0,0,0.12237802895094704
Darlington Raceway,,"('Practice',)",Chevrolet Silverado,0,0,Not Pacing,False,17,17:19.000049,True,0.0,0,0,00:00.000000,0.0,00:00.000000,0.0,46,0,0,59,1,7106,-26,49,81,81,81,81,81,81,81,81,81,81,81,81,100,100,100,100,100,100,100,100,100,100,100,100,70,175,172,0.07,1.01,71,0,0,0.49249423510194673,0.3236586894464055,0.9518424062310858,4,-1,-41,13,-1,-1,0.11423602624131171
Darlington Raceway,,"('Practice',)",Chevrolet Silverado,0,0,Not Pacing,False,17,17:19.000299,True,0.0,0,0,00:00.000000,0.0,00:00.000000,0.0,50,0,0,61,1,7392,-22,49,81,81,81,81,81,81,81,81,81,81,81,81,100,100,100,100,100,100,100,100,100,100,100,100,70,176,172,0.07,1.01,71,0,0,0.45783638832644463,0.38121339621043226,1.03207898310079,4,0,-44,11,-1,-1,0.1216010111255327
Darlington Raceway,,"('Practice',)",Chevrolet Silverado,0,0,Not Pacing,False,17,17:19.000566,True,0.0,0,0,00:00.000000,0.0,00:00.000000,0.0,52,0,0,63,1,7680,-20,49,81,81,81,81,81,81,81,81,81,81,81,81,100,100,100,100,100,100,100,100,100,100,100,100,70,176,172,0.07,1.01,71,0,0,0.4487933490375981,0.43414526150982435,1.086036534362855,4,-1,-47,10,-1,-1,0.12783124044196337
Darlington Raceway,,"('Practice',)",Chevrolet Silverado,0,0,Not Pacing,False,18,17:19.000833,True,0.0,0,0,00:00.000000,0.0,00:00.000000,0.0,47,0,17,65,1,7857,-18,49,81,81,81,81,81,81,81,81,81,81,81,81,100,100,100,100,100,100,100,100,100,100,100,100,70,177,173,0.07,1.01,71,0,0,0.4017862704915738,0.29333320718778866,1.0312573260852684,4,1,-50,9,-1,0,0.11683420593463148
Darlington Raceway,,"('Practice',)",Chevrolet Silverado,0,0,Not Pacing,False,18,17:20.000083,True,0.0,0,0,00:00.000000,0.0,00:00.000000,0.0,0,0,100,66,N,6479,-15,49,81,81,81,81,81,81,81,81,81,81,81,81,100,100,100,100,100,100,100,100,100,100,100,100,70,177,172,0.07,1.01,71,0,0,0.40824036593344837,-0.05897083049155885,0.9821535979571328,4,-1,-52,9,-1,1,0.10869926134513105
Darlington Raceway,,"('Practice',)",Chevrolet Silverado,0,0,Not Pacing,False,19,17:20.000349,True,0.0,0,0,00:00.000000,0.0,00:00.000000,0.0,52,0,0,67,2,5019,-16,49,81,81,81,81,81,81,81,81,81,81,81,81,100,100,100,100,100,100,100,100,100,100,100,100,70,177,172,0.07,1.01,71,0,0,0.45045858494003244,0.2379426654811785,1.0597403017874278,4,0,-55,8,-1,-2,0.11998278180802986
Darlington Raceway,,"('Practice',)",Chevrolet Silverado,0,0,Not Pacing,False,19,17:20.000599,True,0.0,0,0,00:00.000000,0.0,00:00.000000,0.0,64,0,0,69,2,5199,-20,49,81,81,81,81,81,81,81,81,81,81,81,81,100,100,100,100,100,100,100,100,100,100,100,100,70,177,172,0.07,1.01,71,0,0,0.44880078594740497,0.48908448486639206,1.072326177972294,4,-2,-57,9,-1,-2,0.1286891755440787
Darlington Raceway,,"('Practice',)",Chevrolet Silverado,0,0,Not Pacing,False,19,17:20.000866,True,0.0,0,0,00:00.000000,0.0,00:00.000000,0.0,66,0,0,72,2,5447,-23,49,81,81,81,81,81,81,81,81,81,81,81,81,100,100,100,100,100,100,100,100,100,100,100,100,70,177,173,0.07,1.01,71,0,0,0.5399953820775893,0.47945426995358087,0.9862142479261734,4,0,-60,11,-1,-1,0.124727522785371
Darlington Raceway,,"('Practice',)",Chevrolet Silverado,0,0,Not Pacing,False,20,17:21.000133,True,0.0,0,0,00:00.000000,0.0,00:00.000000,0.0,66,0,0,75,2,5614,-19,49,81,81,81,81,81,81,81,81,81,81,81,81,100,100,100,100,100,100,100,100,100,100,100,100,70,178,173,0.07,1.01,71,0,0,0.5525998262333457,0.48020155787103397,1.0869295468267193,4,0,-63,9,-1,-2,0.13372315418357641
Darlington Raceway,,"('Practice',)",Chevrolet Silverado,0,0,Not Pacing,False,20,17:21.000399,True,0.0,0,0,00:00.000000,0.0,00:00.000000,0.0,67,0,0,77,2,5833,-19,49,81,81,81,81,81,81,81,81,81,81,81,81,100,100,100,100,100,100,100,100,100,100,100,100,70,178,173,0.07,1.01,71,0,0,0.5650917445969266,0.4774036757442929,1.0800149705674913,4,0,-66,10,-1,-2,0.133579000973192
Darlington Raceway,,"('Practice',)",Chevrolet Silverado,0,0,Not Pacing,False,21,17:21.000649,True,0.0,0,0,00:00.000000,0.0,00:00.000000,0.0,67,0,0,80,2,6041,-17,49,81,81,81,81,81,81,81,81,81,81,81,81,100,100,100,100,100,100,100,100,100,100,100,100,70,178,174,0.07,1.01,71,0,0,0.5742963543968705,0.4989414040101777,1.1005017614024373,4,-1,-68,10,-1,-2,0.1365160814908367
Darlington Raceway,,"('Practice',)",Chevrolet Silverado,0,0,Not Pacing,False,21,17:21.000916,True,0.0,0,0,00:00.000000,0.0,00:00.000000,0.0,63,0,0,83,2,6254,-22,49,81,81,81,81,81,81,81,81,81,81,81,81,100,100,100,100,100,100,100,100,100,100,100,100,70,178,174,0.07,1.01,71,0,0,0.6672082934053909,0.4359199123402011,1.0480974063231674,4,-2,-71,12,-1,-2,0.13435723430035237
Darlington Raceway,,"('Practice',)",Chevrolet Silverado,0,0,Not Pacing,False,22,17:22.000166,True,0.0,0,0,00:00.000000,0.0,00:00.000000,0.0,62,0,0,85,2,6391,-21,49,81,81,81,81,81,81,81,81,81,81,81,81,100,100,100,100,100,100,100,100,100,100,100,100,70,178,174,0.07,1.01,71,0,0,0.7559836579146856,0.4418297280594478,1.0973965356109339,4,-2,-74,12,-1,-2,0.14325760038008478
Darlington Raceway,,"('Practice',)",Chevrolet Silverado,0,0,Not Pacing,False,22,17:22.000433,True,0.0,0,0,00:00.000000,0.0,00:00.000000,0.0,60,0,0,87,2,6528,-21,49,81,81,81,81,81,81,81,81,81,81,81,81,100,100,100,100,100,100,100,100,100,100,100,100,70,178,174,0.07,1.01,71,0,0,0.7698787218690769,0.3742970943937,1.104574952042917,4,-1,-78,11,-1,-1,0.14259806631454966
Darlington Raceway,,"('Practice',)",Chevrolet Silverado,0,0,Not Pacing,False,23,17:22.000699,True,0.0,0,0,00:00.000000,0.0,00:00.000000,0.0,55,0,0,89,2,6643,-20,49,81,81,81,81,81,81,81,81,81,81,81,81,100,100,100,100,100,100,100,100,100,100,100,100,70,179,175,0.07,1.01,71,0,0,0.8896150112638171,0.33399575104164175,1.1767668340062754,4,-3,-81,13,-1,-2,0.1543398367573881
Darlington Raceway,,"('Practice',)",Chevrolet Silverado,0,0,Not Pacing,False,24,17:22.000966,True,0.0,0,0,00:00.000000,0.0,00:00.000000,0.0,55,0,0,91,2,6820,-22,49,81,81,81,81,81,81,81,81,81,81,81,81,100,100,100,100,100,100,100,100,100,100,100,100,70,179,175,0.07,1.01,71,0,0,0.858294732952215,0.3053399036419136,1.1239843144936905,4,-3,-84,12,-1,-1,0.14763310460586618
Darlington Raceway,,"('Practice',)",Chevrolet Silverado,0,0,Not Pacing,False,24,17:23.000216,True,0.0,0,0,00:00.000000,0.0,00:00.000000,0.0,55,0,0,93,2,6956,-23,49,81,81,81,81,81,81,81,81,81,81,81,81,100,100,100,100,100,100,100,100,100,100,100,100,70,179,175,0.07,1.01,71,0,0,0.9181309426839441,0.29730570790235417,1.0873292928806502,4,-1,-88,15,-2,-2,0.14835064692181707
Darlington Raceway,,"('Practice',)",Chevrolet Silverado,0,0,Not Pacing,False,25,17:23.000483,True,0.0,0,0,00:00.000000,0.0,00:00.000000,0.0,51,0,0,94,2,7020,-23,49,81,81,81,81,81,81,81,81,81,81,81,81,100,100,100,100,100,100,100,100,100,100,100,100,70,179,175,0.07,1.01,71,0,0,0.9009983439936429,0.20733783733589567,1.0145998146920394,5,0,-91,13,-2,-1,0.14006750687853634
Darlington Raceway,,"('Practice',)",Chevrolet Silverado,0,0,Not Pacing,False,25,17:23.000749,True,0.0,0,0,00:00.000000,0.0,00:00.000000,0.0,51,0,0,96,2,7099,-24,49,81,81,81,81,81,81,81,81,81,81,81,81,100,100,100,100,100,100,100,100,100,100,100,100,70,180,175,0.07,1.01,71,0,0,1.0222188072710106,0.2165451205347899,1.1672171613127449,5,0,-95,13,-2,-1,0.1598566029123572
Darlington Raceway,,"('Practice',)",Chevrolet Silverado,0,0,Not Pacing,False,26,17:24.000016,True,0.0,0,0,00:00.000000,0.0,00:00.000000,0.0,47,0,0,97,2,7171,-25,49,81,81,81,81,81,81,81,81,81,81,81,81,100,100,100,100,100,100,100,100,100,100,100,100,70,180,175,0.07,1.01,71,0,0,1.0992006424370162,0.1645484587954211,1.1475076004634939,4,0,-99,15,-2,-2,0.16301294082041673
Darlington Raceway,,"('Practice',)",Chevrolet Silverado,0,0,Not Pacing,False,27,17:24.000266,True,0.0,0,0,00:00.000000,0.0,00:00.000000,0.0,48,0,0,98,2,7243,-22,49,81,81,81,81,81,81,81,81,81,81,81,81,100,100,100,100,100,100,100,100,100,100,100,100,70,181,175,0.07,1.01,71,0,0,1.071843799587176,0.1630286436440626,1.112726096834733,4,-1,-103,13,-2,-2,0.15852778389529382
Darlington Raceway,,"('Practice',)",Chevrolet Silverado,0,0,Not Pacing,False,27,17:24.000533,True,0.0,0,0,00:00.000000,0.0,00:00.000000,0.0,49,0,0,99,2,7323,-23,49,81,81,81,81,81,81,81,81,81,81,81,81,100,100,100,100,100,100,100,100,100,100,100,100,70,181,175,0.07,1.01,71,0,0,1.0178562090423615,0.15734002738431566,1.0209159384444584,4,-4,-107,14,-2,-1,0.1479787636542546
Darlington Raceway,,"('Practice',)",Chevrolet Silverado,0,0,Not Pacing,False,28,17:24.000783,True,0.0,0,0,00:00.000000,0.0,00:00.000000,0.0,50,0,0,100,2,7399,-22,49,81,81,81,81,81,81,81,81,81,81,81,81,100,100,100,100,100,100,100,100,100,100,100,100,70,181,176,0.07,1.01,71,0,0,1.0079604527029178,0.18491498313304966,1.1018416689562627,4,-1,-110,13,-2,-2,0.15354457317049408
Darlington Raceway,,"('Practice',)",Chevrolet Silverado,0,0,Not Pacing,False,28,17:25.000049,True,0.0,0,0,00:00.000000,0.0,00:00.000000,0.0,48,0,0,101,2,7455,-24,49,81,81,81,81,81,81,81,81,81,81,81,81,100,100,100,100,100,100,100,100,100,100,100,100,70,182,176,0.07,1.01,71,0,0,1.015436539956189,0.14487326327449318,1.0593231543366939,4,1,-114,13,-2,-1,0.15046316021637118
Darlington Raceway,,"('Practice',)",Chevrolet Silverado,0,0,Not Pacing,False,29,17:25.000316,True,0.0,0,0,00:00.000000,0.0,00:00.000000,0.0,48,0,0,101,2,7537,-24,49,81,81,81,81,81,81,81,81,81,81,81,81,100,100,100,100,100,100,100,100,100,100,100,100,70,182,176,0.07,1.01,71,0,0,1.0677110164537342,0.12760684881492249,1.003952395782315,4,-1,-118,15,-2,-1,0.15011486423664877
Darlington Raceway,,"('Practice',)",Chevrolet Silverado,0,0,Not Pacing,False,30,17:25.000566,True,0.0,0,0,00:00.000000,0.0,00:00.000000,0.0,45,0,0,102,2,7538,-27,49,81,81,81,81,81,81,81,81,81,81,81,81,100,100,100,100,100,100,100,100,100,100,100,100,70,183,176,0.07,1.01,71,0,0,1.1863848484984232,0.10471108248960473,1.100352148275735,4,-4,-122,14,-2,-2,0.16545874378533393
Darlington Raceway,,"('Practice',)",Chevrolet Silverado,0,0,Not Pacing,False,30,17:25.000833,True,0.0,0,0,00:00.000000,0.0,00:00.000000,0.0,43,0,0,103,2,7574,-30,49,81,81,81,81,81,81,81,81,81,81,81,81,100,100,100,100,100,100,100,100,100,100,100,100,70,183,176,0.07,1.01,71,0,0,0.8797602794464453,0.04691268933536323,0.7218308405044975,4,-3,-126,13,-2,3,0.11621990781384832
Darlington Raceway,,"('Practice',)",Chevrolet Silverado,0,0,Not Pacing,False,31,17:26.000099,True,0.0,0,0,00:00.000000,0.0,00:00.000000,0.0,41,0,0,103,2,7616,-29,49,81,81,81,81,81,81,81,81,81,81,81,81,100,100,100,100,100,100,100,100,100,100,100,100,70,184,176,0.07,1.01,71,0,0,1.2843090216804838,0.03035920354082922,1.0555908949732415,4,-5,-131,17,-2,-2,0.16966548052186564
Darlington Raceway,,"('Practice',)",Chevrolet Silverado,0,0,Not Pacing,False,32,17:26.000366,True,0.0,0,0,00:00.000000,0.0,00:00.000000,0.0,48,0,0,103,2,7668,-27,49,81,81,81,81,81,81,81,81,81,81,81,81,100,100,100,100,100,100,100,100,100,100,100,100,70,184,176,0.07,1.01,71,0,0,1.4076652876827693,0.14648209045907892,1.2329961910889418,4,2,-135,15,-2,-2,0.19153412335761963
Darlington Raceway,,"('Practice',)",Chevrolet Silverado,0,0,Not Pacing,False,32,17:26.000633,True,0.0,0,0,00:00.000000,0.0,00:00.000000,0.0,54,0,0,104,2,7743,-21,49,81,81,81,81,81,81,81,81,81,81,81,81,100,100,100,100,100,100,100,100,100,100,100,100,70,185,176,0.07,1.01,71,0,0,0.9889078674938578,0.15592029456820083,1.0021124168030469,4,-4,-139,12,-2,-1,0.14454106682014092
Darlington Raceway,,"('Practice',)",Chevrolet Silverado,0,0,Not Pacing,False,33,17:26.000883,True,0.0,0,0,00:00.000000,0.0,00:00.000000,0.0,57,0,0,105,2,7846,-24,49,81,81,81,81,81,81,81,81,81,81,81,81,100,100,100,100,100,100,100,100,100,100,100,100,70,185,176,0.07,1.01,71,0,0,0.9033483102780963,0.1941232749324569,0.9485726934932666,4,-7,-142,11,-2,1,0.13512270059041362
Darlington Raceway,,"('Practice',)",Chevrolet Silverado,0,0,Not Pacing,False,34,17:27.000149,True,0.0,0,0,00:00.000000,0.0,00:00.000000,0.0,52,0,0,106,2,7871,-28,49,81,81,81,81,81,81,81,81,81,81,81,81,100,100,100,100,100,100,100,100,100,100,100,100,70,186,176,0.07,1.01,71,0,0,0.8817378169535132,0.139167354984264,0.8260422647303154,4,-8,-146,11,-2,1,0.12410340477874289
Darlington Raceway,,"('Practice',)",Chevrolet Silverado,0,0,Not Pacing,False,35,17:27.000416,True,0.0,0,0,00:00.000000,0.0,00:00.000000,0.0,55,0,0,107,2,7987,-29,49,81,81,81,81,81,81,81,81,81,81,81,81,100,100,100,100,100,100,100,100,100,100,100,100,70,186,176,0.07,1.01,71,0,0,1.1533288051593558,0.15777085777694902,1.0198553281700453,3,1,-150,15,-2,-1,0.15792160164277305
Darlington Raceway,,"('Practice',)",Chevrolet Silverado,0,0,Not Pacing,False,35,17:27.000683,True,0.0,0,0,00:00.000000,0.0,00:00.000000,0.0,57,0,0,107,2,7991,-31,49,81,81,81,81,81,81,81,81,81,81,81,81,100,100,100,100,100,100,100,100,100,100,100,100,70,187,176,0.07,1.01,71,0,0,1.536676132715441,-0.023234555845231455,1.325050163463472,3,8,-154,18,-2,-4,0.2070616940906641
Darlington Raceway,,"('Practice',)",Chevrolet Silverado,0,0,Not Pacing,False,36,17:27.000933,True,0.0,0,0,00:00.000000,0.0,00:00.000000,0.0,61,0,0,107,2,7917,-24,49,81,81,81,81,81,81,81,81,81,81,81,81,100,100,100,100,100,100,100,100,100,100,100,100,70,187,176,0.07,1.01,71,0,0,1.4068494635376847,-0.01573365155102402,1.3134772624444524,2,2,-158,15,-2,-3,0.19640393377970772
Darlington Raceway,,"('Practice',)",Chevrolet Silverado,0,0,Not Pacing,False,37,17:28.000199,True,0.0,0,0,00:00.000000,0.0,00:00.000000,0.0,5,0,100,107,3,6466,-20,49,81,81,81,81,81,81,81,81,81,81,81,81,100,100,100,100,100,100,100,100,100,100,100,100,70,188,175,0.07,1.01,71,0,0,0.9325161621840357,-0.12255470808614405,1.0254888116523517,3,1,-161,11,-2,-1,0.14198836968758266
Darlington Raceway,,"('Practice',)",Chevrolet Silverado,0,0,Not Pacing,False,37,17:28.000466,True,0.0,0,0,00:00.000000,0.0,00:00.000000,0.0,100,0,0,108,3,6198,-23,49,81,81,81,81,81,81,81,81,81,81,81,81,100,100,100,100,100,100,100,100,100,100,100,100,70,188,176,0.07,1.01,71,0,0,0.9888898828100112,0.37413802715616484,1.0127039373710858,2,-1,-165,13,-2,-1,0.14939318214099484
Darlington Raceway,,"('Practice',)",Chevrolet Silverado,0,0,Not Pacing,False,38,17:28.000733,True,0.0,0,0,00:00.000000,0.0,00:00.000000,0.0,100,0,0,110,3,6251,-17,49,81,81,81,81,81,81,81,81,81,81,81,81,100,100,100,100,100,100,100,100,100,100,100,100,70,188,176,0.07,1.01,71,0,0,1.056062579762559,0.3749998823704462,1.1582145146516727,3,-4,-168,13,-2,-3,0.1644521259501159
Darlington Raceway,,"('Practice',)",Chevrolet Silverado,0,0,Not Pacing,False,39,17:28.000999,True,0.0,0,0,00:00.000000,0.0,00:00.000000,0.0,100,0,0,113,3,6369,-13,49,81,81,81,81,81,81,81,81,81,81,81,81,100,100,100,100,100,100,100,100,100,100,100,100,70,188,176,0.07,1.01,71,0,0,0.9319293754181001,0.36217804227278744,1.1581416037712136,3,2,-171,10,-2,-3,0.15612435871372585
Darlington Raceway,,"('Practice',)",Chevrolet Silverado,0,0,Not Pacing,False,39,17:29.000266,True,0.0,0,0,00:00.000000,0.0,00:00.000000,0.0,100,0,0,115,3,6480,-10,49,81,81,81,81,81,81,81,81,81,81,81,81,100,100,100,100,100,100,100,100,100,100,100,100,70,188,177,0.07,1.01,71,0,0,0.6906228449488026,0.3884202235821676,1.179081997497123,4,-3,-174,6,-1,-2,0.14495775357488302
Darlington Raceway,,"('Practice',)",Chevrolet Silverado,0,0,Not Pacing,False,40,17:29.000516,True,0.0,0,0,00:00.000000,0.0,00:00.000000,0.0,100,0,0,117,3,6608,-12,49,81,81,81,81,81,81,81,81,81,81,81,81,100,100,100,100,100,100,100,100,100,100,100,100,70,188,177,0.07,1.01,71,0,0,0.6555713280260744,0.38368023863626183,1.2432614597705525,4,-11,-175,6,-1,-3,0.148667668600878
Darlington Raceway,,"('Practice',)",Chevrolet Silverado,0,0,Not Pacing,False,41,17:29.000783,True,0.0,0,0,00:00.000000,0.0,00:00.000000,0.0,100,0,0,119,3,6743,-15,49,81,81,81,81,81,81,81,81,81,81,81,81,100,100,100,100,100,100,100,100,100,100,100,100,70,188,178,0.07,1.01,71,0,0,0.7799607898117205,0.35463242234318504,1.0506686328261878,4,-3,-178,10,-1,-1,0.13833993635493289
Darlington Raceway,,"('Practice',)",Chevrolet Silverado,0,0,Not Pacing,False,41,17:30.000033,True,0.0,0,0,00:00.000000,0.0,00:00.000000,0.0,100,0,0,121,3,6848,-12,49,81,81,81,81,81,81,81,81,81,81,81,81,100,100,100,100,100,100,100,100,100,100,100,100,70,189,178,0.07,1.01,71,0,0,0.918050740715439,0.38589646206232625,1.141500035557178,4,1,-180,10,-1,-1,0.15457602711432594
Darlington Raceway,,"('Practice',)",Chevrolet Silverado,0,0,Not Pacing,False,42,17:30.000299,True,0.0,0,0,00:00.000000,0.0,00:00.000000,0.0,100,0,0,123,3,7006,-13,49,81,81,81,81,81,81,81,81,81,81,81,81,100,100,100,100,100,100,100,100,100,100,100,100,70,189,179,0.07,1.01,71,0,0,0.752017646268481,0.3597444472084473,0.9816269869712028,4,0,177,8,-1,0,0.13141249383323966
Darlington Raceway,,"('Practice',)",Chevrolet Silverado,0,0,Not Pacing,False,43,17:30.000566,True,0.0,0,0,00:00.000000,0.0,00:00.000000,0.0,100,0,0,125,3,7099,-10,49,81,81,81,81,81,81,81,81,81,81,81,81,100,100,100,100,100,100,100,100,100,100,100,100,70,189,179,0.07,1.01,71,0,0,0.7471733501562648,0.32803696351435324,0.9986238742093427,4,-2,175,7,-1,-1,0.13159412134814202
Darlington Raceway,,"('Practice',)",Chevrolet Silverado,0,0,Not Pacing,False,44,17:30.000816,True,0.0,0,0,00:00.000000,0.0,00:00.000000,0.0,100,0,0,127,3,7168,-5,49,81,81,81,81,81,81,81,81,81,81,81,81,100,100,100,100,100,100,100,100,100,100,100,100,70,189,179,0.07,1.01,71,0,0,0.5337137694752544,0.37314101947313905,1.0730586892846405,4,0,173,4,-1,0,0.1280821415062459
Darlington Raceway,,"('Practice',)",Chevrolet Silverado,0,0,Not Pacing,False,44,17:31.000099,True,0.0,0,0,00:00.000000,0.0,00:00.000000,0.0,100,0,0,129,3,7271,1,49,81,81,81,81,81,81,81,81,81,81,81,81,100,100,100,100,100,100,100,100,100,100,100,100,70,190,180,0.07,1.01,71,0,0,0.06428382812290016,0.3193305537605869,0.9934018025218407,4,1,173,-1,-1,0,0.10667788096479465
Darlington Raceway,,"('Practice',)",Chevrolet Silverado,0,0,Not Pacing,False,45,17:31.000349,True,0.0,0,0,00:00.000000,0.0,00:00.000000,0.0,100,0,0,131,3,7390,1,49,81,81,81,81,81,81,81,81,81,81,81,81,100,100,100,100,100,100,100,100,100,100,100,100,70,190,180,0.07,1.01,71,0,0,-0.2687854018293997,0.3266483028851275,0.9961938031708915,4,3,173,-3,-1,0,0.11043752672127945
Darlington Raceway,,"('Practice',)",Chevrolet Silverado,0,0,Not Pacing,False,46,17:31.000633,True,0.0,0,0,00:00.000000,0.0,00:00.000000,0.0,100,0,0,133,3,7481,0,49,81,81,81,81,81,81,81,81,81,81,81,81,100,100,100,100,100,100,100,100,100,100,100,100,70,190,181,0.07,1.01,71,0,0,-0.16685173781275384,0.2828272596897821,1.0231298044187214,4,0,174,0,-1,0,0.10964642342917842
Darlington Raceway,,"('Practice',)",Chevrolet Silverado,0,0,Not Pacing,False,47,17:31.000899,True,0.0,0,0,00:00.000000,0.0,00:00.000000,0.0,100,0,0,135,3,7602,2,49,81,81,81,81,81,81,81,81,81,81,81,81,100,100,100,100,100,100,100,100,100,100,100,100,70,191,181,0.07,1.01,71,0,0,-0.2473770417690763,0.30295875580425047,1.0172258701771648,4,-3,174,-2,-1,-1,0.11120707032055661
Darlington Raceway,,"('Practice',)",Chevrolet Silverado,0,0,Not Pacing,False,47,17:32.000166,True,0.0,0,0,00:00.000000,0.0,00:00.000000,0.0,100,0,0,137,3,7700,2,49,81,81,81,81,81,81,81,81,81,81,81,81,100,100,100,100,100,100,100,100,100,100,100,100,70,191,182,0.07,1.01,71,0,0,-0.36633260145585955,0.2737674265948032,0.9722899224050912,4,-3,175,-3,-1,-1,0.10964027508399518
Darlington Raceway,,"('Practice',)",Chevrolet Silverado,0,0,Not Pacing,False,48,17:32.000416,True,0.0,0,0,00:00.000000,0.0,00:00.000000,0.0,100,0,0,138,3,7794,2,49,81,81,81,81,81,81,81,81,81,81,81,81,100,100,100,100,100,100,100,100,100,100,100,100,70,191,182,0.07,1.01,71,0,0,-0.43767283572820104,0.2646609548399572,1.017272630355166,5,-1,175,-4,-1,-1,0.11618531244792626
Darlington Raceway,,"('Practice',)",Chevrolet Silverado,0,0,Not Pacing,False,49,17:32.000683,True,0.0,0,0,00:00.000000,0.0,00:00.000000,0.0,100,0,0,140,3,7856,0,49,81,81,81,81,81,81,81,81,81,81,81,81,100,100,100,100,100,100,100,100,100,100,100,100,70,192,182,0.07,1.01,71,0,0,-0.3347276790669448,0.2501745836450419,0.9412284291118657,5,-2,176,-1,-1,0,0.10508425137758513
Darlington Raceway,,"('Practice',)",Chevrolet Silverado,0,0,Not Pacing,False,50,17:32.000949,True,0.0,0,0,00:00.000000,0.0,00:00.000008,0.15130841732025146,100,0,0,141,3,7945,-1,49,81,81,81,81,81,81,81,81,81,81,81,81,100,100,100,100,100,100,100,100,100,100,100,100,70,192,183,0.07,1.01,71,0,0,-0.05926043250874277,0.23643078546397667,0.9335335120027096,5,-2,176,1,-1,0,0.09845199873997995
Darlington Raceway,,"('Practice',)",Chevrolet Silverado,0,0,Not Pacing,False,50,17:33.000199,True,0.0,0,0,00:00.000000,0.0,00:00.000046,0.15432482957839966,15,0,100,141,4,6902,1,49,81,81,81,81,81,81,81,81,81,81,81,81,100,100,100,100,100,100,100,100,100,100,100,100,70,193,182,0.07,1.01,71,0,0,-0.046469640294346234,-0.2004199314797933,1.0360980252607153,6,0,176,0,-1,1,0.10778846762112164
Darlington Raceway,,"('Practice',)",Chevrolet Silverado,0,0,Not Pacing,False,51,17:33.000466,True,0.0,0,0,00:00.000000,0.0,00:00.000087,0.15163195133209229,100,0,0,142,4,6134,-2,48,81,81,81,81,81,81,81,81,81,81,81,81,100,100,100,100,100,100,100,100,100,100,100,100,70,193,183,0.07,1.01,71,0,0,-0.038586108813349014,0.29541979506839666,1.0453467218397103,6,-3,176,0,-1,-1,0.1109156690044386
Darlington Raceway,,"('Practice',)",Chevrolet Silverado,0,0,Not Pacing,False,52,17:33.000733,True,0.0,0,0,00:00.000000,0.0,00:00.000127,0.14665299654006958,100,0,0,143,4,6030,-1,48,81,81,81,81,81,81,81,81,81,81,81,81,100,100,100,100,100,100,100,100,100,100,100,100,70,193,183,0.07,1.01,71,0,0,0.07372733649857546,0.1980592837513526,1.1007967102175216,6,0,175,2,-1,-1,0.11437754133672569
Darlington Raceway,,"('Practice',)",Chevrolet Silverado,0,0,Not Pacing,False,53,17:33.000999,True,0.0,0,0,00:00.000000,0.0,00:00.000165,0.1419234275817871,100,0,0,145,4,6086,-5,48,81,81,81,81,81,81,81,81,81,81,81,81,100,100,100,100,100,100,100,100,100,100,100,100,70,193,183,0.07,1.01,71,0,0,0.14136597043269755,0.2021096289826217,1.0394412321660376,6,0,175,3,-1,-1,0.10901048226742512
Darlington Raceway,,"('Practice',)",Chevrolet Silverado,0,0,Not Pacing,False,54,17:34.000249,True,0.0,0,0,00:00.000000,0.0,00:00.000200,0.13735783100128174,100,0,0,146,4,6144,-5,48,81,81,81,81,81,81,81,81,81,81,81,81,100,100,100,100,100,100,100,100,100,100,100,100,70,193,183,0.07,1.01,71,0,0,0.25713171555483133,0.17469117643879337,0.9325153844679774,6,0,174,3,-1,0,0.10030247198597496
Darlington Raceway,,"('Practice',)",Chevrolet Silverado,0,0,Not Pacing,False,54,17:34.000516,True,0.0,0,0,00:00.000000,0.0,00:00.000236,0.13293397426605225,100,0,0,147,4,6191,0,48,81,81,81,81,81,81,81,81,81,81,81,81,100,100,100,100,100,100,100,100,100,100,100,100,70,193,184,0.07,1.01,71,0,0,0.1519283144967393,0.19760881602824887,1.0771455871706466,7,-2,173,1,-1,-1,0.11281737466282946
Darlington Raceway,,"('Practice',)",Chevrolet Silverado,0,0,Not Pacing,False,55,17:34.000783,True,0.0,0,0,00:00.000000,0.0,00:00.000271,0.12864714860916138,100,0,0,148,4,6240,0,48,81,81,81,81,81,81,81,81,81,81,81,81,100,100,100,100,100,100,100,100,100,100,100,100,70,193,184,0.07,1.01,71,0,0,-0.08221515943272519,0.18949865930306437,1.0086489258434672,7,0,173,-1,-1,-1,0.1050595183409755
Darlington Raceway,,"('Practice',)",Chevrolet Silverado,0,0,Not Pacing,False,56,17:35.000033,True,0.0,0,0,00:00.000000,0.0,00:00.000302,0.12467300891876221,100,0,0,149,4,6276,0,48,81,81,81,81,81,81,81,81,81,81,81,81,100,100,100,100,100,100,100,100,100,100,100,100,70,193,184,0.07,1.01,71,0,0,-0.09552762899680725,0.1772142088498301,0.9925581750276742,7,-1,173,0,-1,-1,0.10334383027887324
Darlington Raceway,,"('Practice',)",Chevrolet Silverado,0,0,Not Pacing,False,57,17:35.000299,True,0.0,0,0,00:00.000000,0.0,00:00.000335,0.12068164348602295,100,0,0,150,4,6326,1,48,81,81,81,81,81,81,81,81,81,81,81,81,100,100,100,100,100,100,100,100,100,100,100,100,70,193,185,0.07,1.01,71,0,0,-0.047226266880404814,0.17055016652767324,1.0273070145819894,7,0,173,0,-1,-1,0.10637124396687064
Darlington Raceway,,"('Practice',)",Chevrolet Silverado,0,0,Not Pacing,False,58,17:35.000566,True,0.0,0,0,00:00.000000,0.0,00:00.000367,0.11669754981994629,100,0,0,151,4,6378,-1,48,81,81,81,81,81,81,81,81,81,81,81,81,100,100,100,100,100,100,100,100,100,100,100,100,70,193,185,0.07,1.01,71,0,0,-0.007036945020265414,0.16386308436729127,0.9945598217325472,7,-1,173,1,-1,-1,0.10285642755755574
Darlington Raceway,,"('Practice',)",Chevrolet Silverado,0,0,Not Pacing,False,59,17:35.000816,True,0.0,0,0,00:00.000000,0.0,00:00.000396,0.11292135715484619,100,0,0,152,4,6417,1,48,81,81,81,81,81,81,81,81,81,81,81,81,100,100,100,100,100,100,100,100,100,100,100,100,70,193,185,0.07,1.01,71,0,0,0.020824635551367085,0.1759835704021862,1.0420404564471542,7,-1,172,1,-1,-1,0.1078572970945715
Darlington Raceway,,"('Practice',)",Chevrolet Silverado,0,0,Not Pacing,False,59,17:36.000083,True,0.0,0,0,00:00.000000,0.0,00:00.000426,0.11279791593551636,100,0,0,153,4,6440,4,48,81,81,81,81,81,81,81,81,81,81,81,81,100,100,100,100,100,100,100,100,100,100,100,100,70,193,185,0.07,1.01,71,0,0,-0.20886566053229125,0.032370158534774235,1.1975830848063898,7,-4,172,-2,-1,-1,0.12409094421322762
Darlington Raceway,,"('Practice',)",Chevrolet Silverado,0,0,Not Pacing,False,60,17:36.000349,True,0.0,0,0,00:00.000000,0.0,00:00.000455,0.11128729581832886,100,0,0,153,4,6441,-6,48,81,81,81,81,81,81,81,81,81,81,81,81,100,100,100,100,100,100,100,100,100,100,100,100,70,193,186,0.07,1.01,71,0,0,-0.17270537569860678,0.19271348229971136,1.1787935620540264,8,-3,172,5,-1,-2,0.12314935311054707
Darlington Raceway,,"('Practice',)",Chevrolet Silverado,0,0,Not Pacing,False,61,17:36.000616,True,0.0,0,0,00:00.000000,0.0,00:00.000485,0.10788112878799438,100,0,0,154,4,6495,-2,48,81,81,81,81,81,81,81,81,81,81,81,81,100,100,100,100,100,100,100,100,100,100,100,100,70,193,186,0.07,1.01,71,0,0,0.30457144726550056,0.1526539235790692,1.0911405876385205,9,-6,171,3,-1,-1,0.1166418376615417
Darlington Raceway,,"('Practice',)",Chevrolet Silverado,0,0,Not Pacing,False,62,17:36.000883,True,0.0,0,0,00:00.000000,0.0,00:00.000512,0.09599870443344116,100,0,0,155,4,6544,-3,48,81,81,81,81,81,81,81,81,81,81,81,81,100,100,100,100,100,100,100,100,100,100,100,100,70,193,186,0.07,1.01,71,0,0,0.3102712796490248,0.1668967724332508,1.0899441686974387,11,-7,170,3,-1,-1,0.11688467470714697
Darlington Raceway,,"('Practice',)",Chevrolet Silverado,0,0,Not Pacing,False,63,17:37.000149,True,0.0,0,0,00:00.000000,0.0,00:00.000538,0.10360956192016602,0,54,0,152,4,6158,-10,48,81,81,81,81,81,81,81,81,81,81,81,81,100,100,100,100,100,100,100,100,100,100,100,100,70,193,186,0.07,1.01,71,0,0,0.8842493537490642,-1.1704791941044892,1.3759800661108423,12,-3,168,11,-1,-3,0.2052324594432282
Darlington Raceway,,"('Practice',)",Chevrolet Silverado,0,0,Not Pacing,False,64,17:37.000416,True,0.0,0,0,00:00.000000,0.0,00:00.000568,0.12536746263504028,0,39,0,146,4,5930,-10,48,81,81,81,81,81,81,81,81,81,81,81,81,100,100,100,100,100,100,100,100,100,100,100,100,70,193,185,0.07,1.01,71,0,0,1.1572431472949416,-0.8922842299901745,1.1831501329832241,14,-7,165,12,-2,-3,0.19185917927289012
Darlington Raceway,,"('Practice',)",Chevrolet Silverado,0,0,Not Pacing,False,65,17:37.000666,True,0.0,0,0,00:00.000000,0.0,00:00.000601,0.13881772756576538,0,23,0,141,4,5771,-13,48,81,81,81,81,81,81,81,81,81,81,81,81,100,100,100,100,100,100,100,100,100,100,100,100,70,193,184,0.07,1.01,71,0,0,1.258679291766961,-0.6836210186692917,1.1922849913741955,16,-6,162,13,-2,-3,0.1901673663145491
Darlington Raceway,,"('Practice',)",Chevrolet Silverado,0,0,Not Pacing,False,65,17:37.000949,True,0.0,0,0,00:00.000000,0.0,00:00.000642,0.14345782995224,0,0,0,138,4,5684,-23,48,81,81,81,81,81,81,81,81,81,81,81,81,100,100,100,100,100,100,100,100,100,100,100,100,70,193,184,0.07,1.01,71,0,0,1.4577923929290304,-0.3160043593940385,1.3322715487076722,17,-6,158,15,-3,-5,0.20408073712899755
Darlington Raceway,,"('Practice',)",Chevrolet Silverado,0,0,Not Pacing,False,66,17:38.000216,True,0.0,0,0,00:00.000000,0.0,00:00.000680,0.14023137092590332,19,0,0,137,4,5670,-23,48,81,81,81,81,81,81,81,81,81,81,81,81,100,100,100,100,100,100,100,100,100,100,100,100,70,192,183,0.07,1.01,71,0,0,1.584781759497344,-0.22295444869606257,1.5923502977470374,18,-2,153,15,-2,-7,0.230368784757097
Darlington Raceway,,"('Practice',)",Chevrolet Silverado,0,0,Not Pacing,False,67,17:38.000483,True,0.0,0,0,00:00.000000,0.0,00:00.000716,0.1285204291343689,54,0,0,136,4,5687,-29,48,81,81,81,81,81,81,81,81,81,81,81,81,100,100,100,100,100,100,100,100,100,100,100,100,70,192,183,0.07,1.01,71,0,0,1.658242485209707,0.048265073763607225,1.5849018194138333,19,-2,148,19,-2,-6,0.23411666895868435
Darlington Raceway,,"('Practice',)",Chevrolet Silverado,0,0,Not Pacing,False,68,17:38.000749,True,0.0,0,0,00:00.000000,0.0,00:00.000747,0.10941028594970703,47,0,0,136,4,5669,-24,48,81,81,81,81,81,81,81,81,81,81,81,81,100,100,100,100,100,100,100,100,100,100,100,100,70,192,183,0.07,1.01,71,0,0,1.85311829764301,-0.0022291651073459698,1.617907797281652,19,-3,142,20,-2,-7,0.2510220265988387
Darlington Raceway,,"('Practice',)",Chevrolet Silverado,0,0,Not Pacing,False,68,17:38.000999,True,0.0,0,0,00:00.000000,0.0,00:00.000772,0.08763730525970459,58,0,0,136,4,5678,-22,48,81,81,81,81,81,81,81,81,81,81,81,81,100,100,100,100,100,100,100,100,100,100,100,100,70,192,183,0.07,1.01,71,0,0,1.7130547464197685,0.07416380533263102,1.7567546117317907,20,0,137,17,-2,-8,0.2504939643120036
Darlington Raceway,,"('Practice',)",Chevrolet Silverado,0,0,Not Pacing,False,69,17:39.000266,True,0.0,0,0,00:00.000000,0.0,00:00.000792,0.06302791833877563,60,0,0,137,4,5696,-29,48,81,81,81,81,81,81,81,81,81,81,81,81,100,100,100,100,100,100,100,100,100,100,100,100,70,192,183,0.07,1.01,71,0,0,1.7659789074694587,0.07522688242516629,1.8623478429640712,20,-1,131,20,-2,-8,0.2620021920175971
Darlington Raceway,,"('Practice',)",Chevrolet Silverado,0,0,Not Pacing,False,70,17:39.000533,True,0.0,0,0,00:00.000000,0.0,00:00.000805,0.03395736217498779,60,0,0,137,4,5707,-27,48,81,81,81,81,81,81,81,81,81,81,81,81,100,100,100,100,100,100,100,100,100,100,100,100,70,192,183,0.07,1.01,71,0,0,1.854695700238118,0.08864604491098697,1.8258381570394129,20,-2,126,19,-2,-8,0.2657264965818115
Darlington Raceway,,"('Practice',)",Chevrolet Silverado,0,0,Not Pacing,False,71,17:39.000783,True,0.0,0,0,00:00.000000,0.0,00:00.000811,0.008806884288787842,57,0,0,137,4,5724,-23,48,81,81,81,81,81,81,81,81,81,81,81,81,100,100,100,100,100,100,100,100,100,100,100,100,70,192,183,0.07,1.01,71,0,0,1.7342076510585898,0.05636929736589437,1.7234479493929582,20,-3,120,19,-2,-8,0.2495503350644172
Darlington Raceway,,"('Practice',)",Chevrolet Silverado,0,0,Not Pacing,False,72,17:40.000049,True,0.0,0,0,00:00.000000,0.0,00:00.000809,-0.015742897987365723,60,0,0,137,4,5731,-29,48,81,81,81,81,81,81,81,81,81,81,81,81,100,100,100,100,100,100,100,100,100,100,100,100,70,192,183,0.07,1.01,71,0,0,1.814068591072168,0.0747855650175602,1.7092307165614447,19,-2,115,20,-2,-8,0.25444624638194685
Darlington Raceway,,"('Practice',)",Chevrolet Silverado,0,0,Not Pacing,False,72,17:40.000316,True,0.0,0,0,00:00.000000,0.0,00:00.000802,-0.03944063186645508,49,0,0,138,4,5718,-31,48,81,81,81,81,81,81,81,81,81,81,81,81,100,100,100,100,100,100,100,100,100,100,100,100,70,192,183,0.07,1.01,71,0,0,1.9144649291743316,0.024631788059841234,1.706676113739169,20,1,109,19,-2,-7,0.2617207906405857
Darlington Raceway,,"('Practice',)",Chevrolet Silverado,0,0,Not Pacing,False,73,17:40.000583,True,0.0,0,0,00:00.000000,0.0,00:00.000791,-0.03811180591583252,49,0,0,137,4,5711,-22,48,81,81,81,81,81,81,81,81,81,81,81,81,100,100,100,100,100,100,100,100,100,100,100,100,70,192,183,0.07,1.01,71,0,0,1.97939469301494,0.0020224050401304594,1.8721387048501608,19,1,103,19,-2,-9,0.2780104011043435
Darlington Raceway,,"('Practice',)",Chevrolet Silverado,0,0,Not Pacing,False,74,17:40.000849,True,0.0,0,0,00:00.000000,0.0,00:00.000781,-0.035613179206848145,59,0,0,137,4,5720,-32,48,81,81,81,81,81,81,81,81,81,81,81,81,100,100,100,100,100,100,100,100,100,100,100,100,70,192,183,0.07,1.01,71,0,0,1.8916202976798426,0.0721822698789513,1.776836212500398,20,-1,97,21,-2,-8,0.26492485470699895
Darlington Raceway,,"('Practice',)",Chevrolet Silverado,0,0,Not Pacing,False,75,17:41.000099,True,0.0,0,0,00:00.000000,0.0,00:00.000773,-0.028086543083190918,52,0,0,137,4,5720,-32,48,81,81,81,81,81,81,81,81,81,81,81,81,100,100,100,100,100,100,100,100,100,100,100,100,70,191,183,0.07,1.01,71,0,0,1.8757840544441058,0.018278066596732104,1.6613150469267646,19,0,92,20,-2,-7,0.25569049663296994
Darlington Raceway,,"('Practice',)",Chevrolet Silverado,0,0,Not Pacing,False,75,17:41.000366,True,0.0,0,0,00:00.000000,0.0,00:00.000768,-0.014721393585205078,54,0,0,137,4,5724,-26,48,81,81,81,81,81,81,81,81,81,81,81,81,100,100,100,100,100,100,100,100,100,100,100,100,70,191,183,0.07,1.01,71,0,0,1.9887033709449262,0.02650283770702179,1.6823437114252835,19,-1,86,22,-2,-9,0.26581434566590134
Darlington Raceway,,"('Practice',)",Chevrolet Silverado,0,0,Not Pacing,False,76,17:41.000633,True,0.0,0,0,00:00.000000,0.0,00:00.000764,-0.01030266284942627,59,0,0,137,4,5728,-32,48,81,81,81,81,81,81,81,81,81,81,81,81,100,100,100,100,100,100,100,100,100,100,100,100,70,191,183,0.07,1.01,71,0,0,2.0025768532787014,0.06180217871243071,1.854425638336897,19,-2,80,21,-2,-8,0.278573820926829
Darlington Raceway,,"('Practice',)",Chevrolet Silverado,0,0,Not Pacing,False,77,17:41.000883,True,0.0,0,0,00:00.000000,0.0,00:00.000763,-0.003283858299255371,55,0,0,137,4,5722,-31,48,81,81,81,81,81,81,81,81,81,81,81,81,100,100,100,100,100,100,100,100,100,100,100,100,70,191,183,0.07,1.01,71,0,0,2.011609247579001,0.04871651666973709,1.8354573381056478,19,0,74,19,-2,-7,0.277915590095471
Darlington Raceway,,"('Practice',)",Chevrolet Silverado,0,0,Not Pacing,False,78,17:42.000149,True,0.0,0,0,00:00.000000,0.0,00:00.000762,-0.0006073713302612305,50,0,0,137,4,5725,-29,48,81,81,81,81,81,81,81,81,81,81,81,81,100,100,100,100,100,100,100,100,100,100,100,100,70,191,183,0.07,1.01,71,0,0,2.0956084147384284,0.015974995679204008,1.8671846535592267,19,-2,68,23,-2,-8,0.28640965597184087
Darlington Raceway,,"('Practice',)",Chevrolet Silverado,0,0,Not Pacing,False,78,17:42.000416,True,0.0,0,0,00:00.000000,0.0,00:00.000763,0.0030367374420166016,59,0,0,137,4,5731,-31,48,81,81,81,81,81,81,81,81,81,81,81,81,100,100,100,100,100,100,100,100,100,100,100,100,70,191,183,0.07,1.01,71,0,0,1.9821765833552336,0.06881525757115915,1.7589114127902807,19,-2,62,19,-2,-8,0.2705049673724701
Darlington Raceway,,"('Practice',)",Chevrolet Silverado,0,0,Not Pacing,False,79,17:42.000666,True,0.0,0,0,00:00.000000,0.0,00:00.000764,0.006609201431274414,62,0,0,138,4,5742,-29,48,81,81,81,81,81,81,81,81,81,81,81,81,100,100,100,100,100,100,100,100,100,100,100,100,70,191,183,0.07,1.01,71,0,0,1.9425647825033048,0.08287918312469389,1.8274425852675442,19,-1,57,19,-2,-8,0.27227834784536664
Darlington Raceway,,"('Practice',)",Chevrolet Silverado,0,0,Not Pacing,False,80,17:42.000933,True,0.0,0,0,00:00.000000,0.0,00:00.000765,0.006783902645111084,58,0,0,138,4,5747,-30,48,81,81,81,81,81,81,81,81,81,81,81,81,100,100,100,100,100,100,100,100,100,100,100,100,70,191,183,0.07,1.01,71,0,0,2.0500807222605477,0.06173456602261822,1.8454793760900468,20,-1,51,22,-2,-8,0.2815371816144432
Darlington Raceway,,"('Practice',)",Chevrolet Silverado,0,0,Not Pacing,False,81,17:43.000199,True,0.0,0,0,00:00.000000,0.0,00:00.000768,0.013140261173248291,64,0,0,138,4,5764,-30,48,81,81,81,81,81,81,81,81,81,81,81,81,100,100,100,100,100,100,100,100,100,100,100,100,70,191,183,0.07,1.01,71,0,0,1.8653212458837043,0.0809210885190818,1.7259459733719975,20,0,45,19,-2,-8,0.2594499089761144
Darlington Raceway,,"('Practice',)",Chevrolet Silverado,0,0,Not Pacing,False,82,17:43.000466,True,0.0,0,0,00:00.000000,0.0,00:00.000772,0.015203773975372314,65,0,0,138,4,5776,-28,48,81,81,81,81,81,81,81,81,81,81,81,81,100,100,100,100,100,100,100,100,100,100,100,100,70,191,183,0.07,1.01,71,0,0,1.831694942244939,0.10346180316019009,1.7616217532532172,20,0,40,18,-2,-7,0.25953539343724236
Darlington Raceway,,"('Practice',)",Chevrolet Silverado,0,0,Not Pacing,False,82,17:43.000716,True,0.0,0,0,00:00.000000,0.0,00:00.000776,0.016475319862365723,68,0,0,139,4,5812,-24,48,81,81,81,81,81,81,81,81,81,81,81,81,100,100,100,100,100,100,100,100,100,100,100,100,70,191,183,0.07,1.01,71,0,0,1.8592612823579653,0.09924585301577132,1.7366477351912906,19,-1,34,21,-2,-8,0.2598065713456495
Darlington Raceway,,"('Practice',)",Chevrolet Silverado,0,0,Not Pacing,False,83,17:43.000983,True,0.0,0,0,00:00.000000,0.0,00:00.000781,0.019350528717041016,70,0,0,139,4,5830,-30,48,81,81,81,81,81,81,81,81,81,81,81,81,100,100,100,100,100,100,100,100,100,100,100,100,70,191,183,0.07,1.01,71,0,0,1.8635033345975884,0.1017889906020947,1.705452377521542,19,-2,28,21,-2,-8,0.25797511673899354
Darlington Raceway,,"('Practice',)",Chevrolet Silverado,0,0,Not Pacing,False,84,17:44.000249,True,0.0,0,0,00:00.000000,0.0,00:00.000785,0.016272664070129395,76,0,0,140,4,5858,-26,48,81,81,81,81,81,81,81,81,81,81,81,81,100,100,100,100,100,100,100,100,100,100,100,100,70,190,184,0.07,1.01,71,0,0,1.781703742879854,0.14525752791813995,1.6347113248648142,19,0,23,18,-2,-7,0.24718003673157743
Darlington Raceway,,"('Practice',)",Chevrolet Silverado,0,0,Not Pacing,False,85,17:44.000499,True,0.0,0,0,00:00.000000,0.0,00:00.000790,0.016664624214172363,83,0,0,141,4,5875,-21,48,81,81,81,81,81,81,81,81,81,81,81,81,100,100,100,100,100,100,100,100,100,100,100,100,70,190,184,0.07,1.01,71,0,0,1.7338213206066633,0.16792215460058865,1.7185166462967276,19,3,18,16,-2,-7,0.24969022218192263
Darlington Raceway,,"('Practice',)",Chevrolet Silverado,0,0,Not Pacing,False,85,17:44.000766,True,0.0,0,0,00:00.000000,0.0,00:00.000794,0.016719818115234375,99,0,0,142,4,5934,-20,48,81,81,81,81,81,81,81,81,81,81,81,81,100,100,100,100,100,100,100,100,100,100,100,100,70,190,184,0.07,1.01,71,0,0,1.5028640521532655,0.17855279185599385,1.5965972107120245,17,3,13,16,-2,-7,0.22448061465426178
Darlington Raceway,,"('Practice',)",Chevrolet Silverado,0,0,Not Pacing,False,86,17:45.000033,True,0.0,0,0,00:00.000000,0.0,00:00.000798,0.016471266746520996,100,0,0,142,4,5984,-18,48,81,81,81,81,81,81,81,81,81,81,81,81,100,100,100,100,100,100,100,100,100,100,100,100,70,190,184,0.07,1.01,71,0,0,1.4206819213493882,0.19356692845911302,1.5028190418363954,16,4,9,15,-2,-6,0.21194716042555195
Darlington Raceway,,"('Practice',)",Chevrolet Silverado,0,0,Not Pacing,False,87,17:45.000299,True,0.0,0,0,00:00.000000,0.0,00:00.000803,0.018177330493927002,100,0,0,143,4,6073,-14,48,81,81,81,81,81,81,81,81,81,81,81,81,100,100,100,100,100,100,100,100,100,100,100,100,70,190,185,0.07,1.01,71,0,0,0.9287805975273358,0.1578677806407061,0.877170582187042,15,3,5,11,-2,0,0.13135090337088462
Darlington Raceway,,"('Practice',)",Chevrolet Silverado,0,0,Not Pacing,False,88,17:45.000549,True,0.0,0,0,00:00.000000,0.0,00:00.000808,0.01713484525680542,100,0,0,144,4,6120,-5,48,81,81,81,81,81,81,81,81,81,81,81,81,100,100,100,100,100,100,100,100,100,100,100,100,70,190,185,0.07,1.01,71,0,0,0.9131216735528757,0.17416977858081625,1.0149093456832154,13,6,2,7,-3,-1,0.14043749999191027
Darlington Raceway,,"('Practice',)",Chevrolet Silverado,0,0,Not Pacing,False,89,17:45.000816,True,0.0,0,0,00:00.000000,0.0,00:00.000812,0.015515565872192383,100,0,0,146,4,6119,-3,48,81,81,81,81,81,81,81,81,81,81,81,81,100,100,100,100,100,100,100,100,100,100,100,100,70,190,185,0.07,1.01,71,0,0,0.3559643826110404,0.20582240898917817,1.1790863721499505,12,7,1,1,-3,-3,0.12742108396858123
Darlington Raceway,,"('Practice',)",Chevrolet Silverado,0,0,Not Pacing,False,90,17:46.000083,True,0.0,0,0,00:00.000000,0.0,00:00.000816,0.014822900295257568,100,0,0,147,4,6185,-5,48,81,81,81,81,81,81,81,81,81,81,81,81,100,100,100,100,100,100,100,100,100,100,100,100,70,190,185,0.07,1.01,71,0,0,0.20255703444874612,0.19628308964067276,1.1895722205485773,9,8,0,4,-2,-2,0.12475041602855061
Darlington Raceway,,"('Practice',)",Chevrolet Silverado,0,0,Not Pacing,False,90,17:46.000333,True,0.0,0,0,00:00.000000,0.0,00:00.000820,0.015222251415252686,100,0,0,148,4,6222,0,48,81,81,81,81,81,81,81,81,81,81,81,81,100,100,100,100,100,100,100,100,100,100,100,100,70,190,186,0.07,1.01,71,0,0,0.0007008558384139968,0.17674003293876375,1.0394990747978685,8,6,0,0,-2,-1,0.10759360273800168
Darlington Raceway,,"('Practice',)",Chevrolet Silverado,0,0,Not Pacing,False,91,17:46.000599,True,0.0,0,0,00:00.000000,0.0,00:00.000824,0.015733957290649414,100,0,0,149,4,6263,0,48,81,81,81,81,81,81,81,81,81,81,81,81,100,100,100,100,100,100,100,100,100,100,100,100,70,190,186,0.07,1.01,71,0,0,-0.05806623734951505,0.185140824585272,1.223707150489426,7,3,0,1,-2,-3,0.1264280362281747
Darlington Raceway,,"('Practice',)",Chevrolet Silverado,0,0,Not Pacing,False,92,17:46.000866,True,0.0,0,0,00:00.000000,0.0,00:00.000828,0.01408374309539795,100,0,0,150,4,6318,0,48,81,81,81,81,81,81,81,81,81,81,81,81,100,100,100,100,100,100,100,100,100,100,100,100,70,190,186,0.07,1.01,71,0,0,-0.06245815182801537,0.18525338683288758,1.0399085423025272,6,2,-1,0,-2,-1,0.10797199175675706
Darlington Raceway,,"('Practice',)",Chevrolet Silverado,0,0,Not Pacing,False,93,17:47.000133,True,0.0,0,0,00:00.000000,0.0,00:00.000831,0.012801051139831543,100,0,0,151,4,6372,1,48,81,81,81,81,81,81,81,81,81,81,81,81,100,100,100,100,100,100,100,100,100,100,100,100,70,190,186,0.07,1.01,71,0,0,-0.07912795478050862,0.15096467569333696,0.9740985983130156,6,-1,-1,0,-1,-1,0.10090797937551076
