TrackName,TrackType,SessionFlag,CarName,RacePosition,Lap Nbr,PaceMode,OnPitRoad,LpDistance,LapDistPrct %,SessionTime,IsOnTrack,PreviousLap,LapBestLap,LapCompleted,CurrentLapTime,LapBestLapTime,LapDeltaToBestLap,LapDeltaToBestLap_DD,Throttle %,Brake %,Clutch %,Speed (MPH),currentGear,GearDisplay,RPM,SteeringWheelAngle (deg),FuelLevelPct,LFtempCL (F),LFtempCR (F),LFtempCM (F),LRtempCL (F),LRtempCR (F),LRtempCM (F),RFtempCL (F),RFtempCR (F),RFtempCM (F),RRtempCL (F),RRtempCR (F),RRtempCM (F),LFwearL %,LFwearM %,LFwearR %,LRwearL %,LRwearM %,LRwearR %,RFwearL %,RFwearM %,RFwearR %,RRwearL %,RRwearM %,RRwearR %,TrackTemp (F),OilTemp (F),WaterTemp (F),AirDensity (lbs/ft^3),AirPressure (bar),AirTemp (F),WindDir (deg),WindVel (MPH),LatAccel (m/s),LongAccel (m/s),VertAccel (m/s),Roll (deg),RollRate (deg/s),Yaw (deg),YawRate (deg/s),Pitch (deg),PitchRate (deg/s),gForces
Martinsville Speedway,,"('Practice',)",NASCAR Chevrolet Camaro ZL1,0,0,Not Pacing,True,760.6856521966553,29.5,08:48.000266,True,0.0,0,0,00:00.000000,0.0,00:00.000000,0.0,0,100.0,100,0.01,0,N,2000,3.053,99.99,102,102,102,102,102,102,102,102,102,102,102,102,100.0,100.0,100.0,100.0,100.0,100.0,100.0,100.0,100.0,100.0,100.0,100.0,112,171,170,0.07,0.99,78,-0.0,0.0,-0.03727376157233717,0.007369228003586468,0.9989005466970585,2.138,0,-133.832,-1,0.421,-1,0.10200233667397672
Martinsville Speedway,,"('Practice',)",NASCAR Chevrolet Camaro ZL1,0,0,Not Pacing,True,760.6856521966553,29.5,08:48.000366,True,0.0,0,0,00:00.000000,0.0,00:00.000000,0.0,0,100.0,100,0.01,0,N,2000,3.07,99.99,102,102,102,102,102,102,102,102,102,102,102,102,100.0,100.0,100.0,100.0,100.0,100.0,100.0,100.0,100.0,100.0,100.0,100.0,112,171,170,0.07,0.99,78,-0.0,0.0,-0.03726170697343459,0.0074093965823011166,0.9989571255402948,2.138,-1,-133.832,0,0.421,0,0.10200809029458328
Martinsville Speedway,,"('Practice',)",NASCAR Chevrolet Camaro ZL1,0,0,Not Pacing,True,760.6856521966553,29.5,08:48.000450,True,0.0,0,0,00:00.000000,0.0,00:00.000000,0.0,0,100.0,100,0.01,0,N,2000,2.891,99.99,102,102,102,102,102,102,102,102,102,102,102,102,100.0,100.0,100.0,100.0,100.0,100.0,100.0,100.0,100.0,100.0,100.0,100.0,112,171,170,0.07,0.99,78,-0.0,0.0,-0.03726815351044852,0.00747253284784875,0.9990094269452109,2.138,0,-133.832,-1,0.421,-1,0.1020134957884311
Martinsville Speedway,,"('Practice',)",NASCAR Chevrolet Camaro ZL1,0,0,Not Pacing,True,760.6856521966553,29.5,08:48.000550,True,0.0,0,0,00:00.000000,0.0,00:00.000000,0.0,0,100.0,100,0.01,0,N,2000,2.679,99.99,102,102,102,102,102,102,102,102,102,102,102,102,100.0,100.0,100.0,100.0,100.0,100.0,100.0,100.0,100.0,100.0,100.0,100.0,112,171,170,0.07,0.99,78,-0.0,0.0,-0.037257383965814024,0.007409464936251548,0.9988918946059107,2.138,0,-133.832,-1,0.421,-1,0.10200142249479725
Martinsville Speedway,,"('Practice',)",NASCAR Chevrolet Camaro ZL1,0,0,Not Pacing,True,760.6856521966553,29.5,08:48.000650,True,0.0,0,0,00:00.000000,0.0,00:00.000000,0.0,0,100.0,100,0.0,0,N,2000,2.623,99.99,102,102,102,102,102,102,102,102,102,102,102,102,100.0,100.0,100.0,100.0,100.0,100.0,100.0,100.0,100.0,100.0,100.0,100.0,112,171,170,0.07,0.99,78,-0.0,0.0,-0.03732352324825057,0.007273375258897786,0.9989254336109219,2.137,-1,-133.832,0,0.421,-1,0.1020049921446449
Martinsville Speedway,,"('Practice',)",NASCAR Chevrolet Camaro ZL1,0,0,Not Pacing,True,760.6856521966553,29.5,08:48.000750,True,0.0,0,0,00:00.000000,0.0,00:00.000000,0.0,0,100.0,100,0.0,0,N,2000,2.696,99.99,102,102,102,102,102,102,102,102,102,102,102,102,100.0,100.0,100.0,100.0,100.0,100.0,100.0,100.0,100.0,100.0,100.0,100.0,112,171,170,0.07,0.99,78,-0.0,0.0,-0.03728040253836566,0.007347963089607542,0.998918142522876,2.138,0,-133.832,-1,0.421,0,0.10200414016576644
Martinsville Speedway,,"('Practice',)",NASCAR Chevrolet Camaro ZL1,0,0,Not Pacing,True,760.6856521966553,29.5,08:48.000850,True,0.0,0,0,00:00.000000,0.0,00:00.000000,0.0,0,100.0,100,0.0,0,N,2000,2.64,99.99,102,102,102,102,102,102,102,102,102,102,102,102,100.0,100.0,100.0,100.0,100.0,100.0,100.0,100.0,100.0,100.0,100.0,100.0,112,171,170,0.07,0.99,78,-0.0,0.0,-0.03728867488534443,0.007345621587061128,0.9989600419755132,2.137,0,-133.832,0,0.421,-1,0.10200844225700433
Martinsville Speedway,,"('Practice',)",NASCAR Chevrolet Camaro ZL1,0,0,Not Pacing,True,760.6856521966553,29.5,08:48.000933,True,0.0,0,0,00:00.000000,0.0,00:00.000000,0.0,0,100.0,100,0.0,0,N,2000,2.573,99.99,102,102,102,102,102,102,102,102,102,102,102,102,100.0,100.0,100.0,100.0,100.0,100.0,100.0,100.0,100.0,100.0,100.0,100.0,112,171,170,0.07,0.99,78,-0.0,0.0,-0.037214108320308144,0.007535647088234577,0.998898602406913,2.138,-1,-133.832,-1,0.421,-1,0.10200203822991498
Martinsville Speedway,,"('Practice',)",NASCAR Chevrolet Camaro ZL1,0,0,Not Pacing,True,760.6856521966553,29.5,08:49.000033,True,0.0,0,0,00:00.000000,0.0,00:00.000000,0.0,0,100.0,100,0.0,0,N,2000,2.143,99.99,102,102,102,102,102,102,102,102,102,102,102,102,100.0,100.0,100.0,100.0,100.0,100.0,100.0,100.0,100.0,100.0,100.0,100.0,112,171,170,0.07,0.99,78,-0.0,0.0,-0.037230473775017876,0.007517930503771331,0.9989988305639175,2.137,0,-133.832,-1,0.421,-1,0.10201230677876941
Martinsville Speedway,,"('Practice',)",NASCAR Chevrolet Camaro ZL1,0,0,Not Pacing,True,760.6856521966553,29.5,08:49.000116,True,0.0,0,0,00:00.000000,0.0,00:00.000000,0.0,0,100.0,100,0.0,0,N,2000,2.322,99.99,102,102,102,102,102,102,102,102,102,102,102,102,100.0,100.0,100.0,100.0,100.0,100.0,100.0,100.0,100.0,100.0,100.0,100.0,112,171,170,0.07,0.99,78,-0.0,0.0,-0.037388732916961265,0.007055184892193622,0.9988430929232567,2.137,-1,-133.832,0,0.421,0,0.10199668521532226
Martinsville Speedway,,"('Practice',)",NASCAR Chevrolet Camaro ZL1,0,0,Not Pacing,True,760.6856521966553,29.5,08:49.000216,True,0.0,0,0,00:00.000000,0.0,00:00.000000,0.0,0,100.0,100,0.0,0,N,2000,2.623,99.99,102,102,102,102,102,102,102,102,102,102,102,102,100.0,100.0,100.0,100.0,100.0,100.0,100.0,100.0,100.0,100.0,100.0,100.0,112,171,170,0.07,0.99,78,-0.0,0.0,-0.03728924602057469,0.007313244599207218,0.9989638333412971,2.138,0,-133.832,0,0.421,0,0.10200880680284606
Martinsville Speedway,,"('Practice',)",NASCAR Chevrolet Camaro ZL1,0,0,Not Pacing,True,760.6856521966553,29.5,08:49.000300,True,0.0,0,0,00:00.000000,0.0,00:00.000000,0.0,0,100.0,100,0.0,0,N,2000,2.534,99.99,102,102,102,102,102,102,102,102,102,102,102,102,100.0,100.0,100.0,100.0,100.0,100.0,100.0,100.0,100.0,100.0,100.0,100.0,112,171,170,0.07,0.99,78,-0.0,0.0,-0.03718673332264907,0.007558446928144838,0.9991242372783073,2.137,0,-133.832,-1,0.421,-1,0.10202495921546283
Martinsville Speedway,,"('Practice',)",NASCAR Chevrolet Camaro ZL1,0,0,Not Pacing,True,760.6856521966553,29.5,08:49.000400,True,0.0,0,0,00:00.000000,0.0,00:00.000000,0.0,0,100.0,100,0.01,0,N,2000,2.858,99.99,102,102,102,102,102,102,102,102,102,102,102,102,100.0,100.0,100.0,100.0,100.0,100.0,100.0,100.0,100.0,100.0,100.0,100.0,112,171,170,0.07,0.99,78,-0.0,0.0,-0.037265905424967695,0.007256434112027758,0.9987928330229935,2.138,-1,-133.832,-1,0.421,0,0.10199123932584506
Martinsville Speedway,,"('Practice',)",NASCAR Chevrolet Camaro ZL1,0,0,Not Pacing,True,760.6856521966553,29.5,08:49.000500,True,0.0,0,0,00:00.000000,0.0,00:00.000000,0.0,0,100.0,100,0.01,0,N,2000,2.696,99.99,102,102,102,102,102,102,102,102,102,102,102,102,100.0,100.0,100.0,100.0,100.0,100.0,100.0,100.0,100.0,100.0,100.0,100.0,112,171,170,0.07,0.99,78,-0.0,0.0,-0.037299900122981795,0.007389594442861403,0.9990737829490296,2.138,0,-133.832,-1,0.421,-1,0.10202011588149744
Martinsville Speedway,,"('Practice',)",NASCAR Chevrolet Camaro ZL1,0,0,Not Pacing,True,760.6856521966553,29.5,08:49.000583,True,0.0,0,0,00:00.000000,0.0,00:00.000000,0.0,0,100.0,100,0.01,0,N,2000,2.947,99.99,102,102,102,102,102,102,102,102,102,102,102,102,100.0,100.0,100.0,100.0,100.0,100.0,100.0,100.0,100.0,100.0,100.0,100.0,112,171,170,0.07,0.99,78,-0.0,0.0,-0.03735991792941312,0.0070910372986827536,0.9988212196591189,2.138,-1,-133.832,0,0.421,-1,0.10199437081341224
Martinsville Speedway,,"('Practice',)",NASCAR Chevrolet Camaro ZL1,0,0,Not Pacing,True,760.6856521966553,29.5,08:49.000683,True,0.0,0,0,00:00.000000,0.0,00:00.000000,0.0,0,100.0,100,0.01,0,N,2000,3.176,99.99,102,102,102,102,102,102,102,102,102,102,102,102,100.0,100.0,100.0,100.0,100.0,100.0,100.0,100.0,100.0,100.0,100.0,100.0,112,171,170,0.07,0.99,78,-0.0,0.0,-0.0373437620934847,0.007264479371993427,0.9988521338724335,2.138,-1,-133.832,0,0.421,0,0.10199758852576041
Martinsville Speedway,,"('Practice',)",NASCAR Chevrolet Camaro ZL1,0,0,Not Pacing,True,760.6856521966553,29.5,08:49.000766,True,0.0,0,0,00:00.000000,0.0,00:00.000000,0.0,0,100.0,100,0.01,0,N,2000,3.394,99.99,102,102,102,102,102,102,102,102,102,102,102,102,100.0,100.0,100.0,100.0,100.0,100.0,100.0,100.0,100.0,100.0,100.0,100.0,112,171,170,0.07,0.99,78,-0.0,0.0,-0.037344123609933645,0.00723336693222248,0.9989756935111851,2.138,-1,-133.832,-1,0.421,-1,0.10201016587585374
Martinsville Speedway,,"('Practice',)",NASCAR Chevrolet Camaro ZL1,0,0,Not Pacing,True,760.6856521966553,29.5,08:49.000850,True,0.0,0,0,00:00.000000,0.0,00:00.000000,0.0,0,100.0,100,0.01,0,N,2000,3.394,99.99,102,102,102,102,102,102,102,102,102,102,102,102,100.0,100.0,100.0,100.0,100.0,100.0,100.0,100.0,100.0,100.0,100.0,100.0,112,171,170,0.07,0.99,78,-0.0,0.0,-0.03729922265938419,0.007265085443687244,0.9989625695527025,2.138,0,-133.832,0,0.421,-1,0.10200868008472831
Martinsville Speedway,,"('Practice',)",NASCAR Chevrolet Camaro ZL1,0,0,Not Pacing,True,760.6856521966553,29.5,08:49.000950,True,0.0,0,0,00:00.000000,0.0,00:00.000000,0.0,0,100.0,100,0.01,0,N,2000,2.964,99.99,102,102,102,102,102,102,102,102,102,102,102,102,100.0,100.0,100.0,100.0,100.0,100.0,100.0,100.0,100.0,100.0,100.0,100.0,112,171,170,0.07,0.99,78,-0.0,0.0,-0.03715732593419719,0.007498919751179935,0.9989397241434919,2.138,0,-133.832,-1,0.421,-1,0.10200598758364289
Martinsville Speedway,,"('Practice',)",NASCAR Chevrolet Camaro ZL1,0,0,Not Pacing,True,760.6856521966553,29.5,08:50.000050,True,0.0,0,0,00:00.000000,0.0,00:00.000000,0.0,0,100.0,100,0.01,1,1,2000,3.265,99.99,102,102,102,102,102,102,102,102,102,102,102,102,100.0,100.0,100.0,100.0,100.0,100.0,100.0,100.0,100.0,100.0,100.0,100.0,112,171,170,0.07,0.99,78,-0.0,0.0,-0.037472677643996616,0.007037166790860144,0.9988155812176968,2.138,-1,-133.832,0,0.421,0,0.10199418774270132
Martinsville Speedway,,"('Practice',)",NASCAR Chevrolet Camaro ZL1,0,0,Not Pacing,True,760.6856521966553,29.5,08:50.000150,True,0.0,0,0,00:00.000000,0.0,00:00.000000,0.0,0,100.0,100,0.01,1,1,2000,3.858,99.99,102,102,102,102,102,102,102,102,102,102,102,102,100.0,100.0,100.0,100.0,100.0,100.0,100.0,100.0,100.0,100.0,100.0,100.0,112,171,170,0.07,0.99,78,-0.0,0.0,-0.03712646944199619,0.007369926732857536,0.9988392043429655,2.139,-1,-133.833,-1,0.421,0,0.1019955229418672
Martinsville Speedway,,"('Practice',)",NASCAR Chevrolet Camaro ZL1,0,0,Not Pacing,True,760.6856521966553,29.5,08:50.000233,True,0.0,0,0,00:00.000000,0.0,00:00.000000,0.0,0,100.0,100,0.01,1,1,2000,3.606,99.99,102,102,102,102,102,102,102,102,102,102,102,102,100.0,100.0,100.0,100.0,100.0,100.0,100.0,100.0,100.0,100.0,100.0,100.0,112,171,170,0.07,0.99,78,-0.0,0.0,-0.0374179701800254,0.007298610018420049,0.9993162359301831,2.138,0,-133.832,0,0.421,-1,0.1020452199863181
Martinsville Speedway,,"('Practice',)",NASCAR Chevrolet Camaro ZL1,0,0,Not Pacing,True,760.6856521966553,29.5,08:50.000333,True,0.0,0,0,00:00.000000,0.0,00:00.000000,0.0,0,100.0,100,0.01,1,1,2000,3.483,99.99,102,102,102,102,102,102,102,102,102,102,102,102,100.0,100.0,100.0,100.0,100.0,100.0,100.0,100.0,100.0,100.0,100.0,100.0,112,171,170,0.07,0.99,78,-0.0,0.0,-0.03723412539494755,0.007341208959816671,0.9986980488783965,2.138,0,-133.832,-1,0.421,-1,0.10198151676314837
Martinsville Speedway,,"('Practice',)",NASCAR Chevrolet Camaro ZL1,0,0,Not Pacing,True,760.6856521966553,29.5,08:50.000433,True,0.0,0,0,00:00.000000,0.0,00:00.000000,0.0,0,100.0,100,0.01,1,1,2000,3.534,99.99,102,102,102,102,102,102,102,102,102,102,102,102,100.0,100.0,100.0,100.0,100.0,100.0,100.0,100.0,100.0,100.0,100.0,100.0,112,171,170,0.07,0.99,78,-0.0,0.0,-0.0373063740015759,0.007381878041346138,0.9990009692830776,2.138,-1,-133.832,0,0.421,0,0.10201271012374816
Martinsville Speedway,,"('Practice',)",NASCAR Chevrolet Camaro ZL1,0,0,Not Pacing,True,760.6856521966553,29.5,08:50.000516,True,0.0,0,0,00:00.000000,0.0,00:00.000000,0.0,13.65,100.0,100,0.01,1,1,2169,3.662,99.99,102,102,102,102,102,102,102,102,102,102,102,102,100.0,100.0,100.0,100.0,100.0,100.0,100.0,100.0,100.0,100.0,100.0,100.0,112,171,170,0.07,0.99,78,-0.0,0.0,-0.036631437981165145,0.007507354628663057,0.9969136765972918,2.136,0,-133.832,-1,0.421,0,0.10179741895818116
Martinsville Speedway,,"('Practice',)",NASCAR Chevrolet Camaro ZL1,0,0,Not Pacing,True,760.6856521966553,29.5,08:50.000616,True,0.0,0,0,00:00.000000,0.0,00:00.000000,0.0,32.75,100.0,100,0.0,1,1,3950,3.483,99.99,102,102,102,102,102,102,102,102,102,102,102,102,100.0,100.0,100.0,100.0,100.0,100.0,100.0,100.0,100.0,100.0,100.0,100.0,112,171,171,0.07,0.99,78,-0.0,0.0,-0.03405237963440221,0.0045796220212658365,1.0042453030927465,2.089,-1,-133.833,0,0.42,0,0.10253396986291052
Martinsville Speedway,,"('Practice',)",NASCAR Chevrolet Camaro ZL1,0,0,Not Pacing,True,760.6855520733643,29.5,08:50.000733,True,0.0,0,0,00:00.000000,0.0,00:00.000000,0.0,0,100.0,100,0.0,1,1,4258,3.338,99.99,102,102,102,102,102,102,102,102,102,102,102,102,100.0,100.0,100.0,100.0,100.0,100.0,100.0,100.0,100.0,100.0,100.0,100.0,112,171,171,0.07,0.99,78,-0.0,0.0,-0.04092848021442129,0.005272619433845341,0.9935253621605922,2.162,0,-133.832,0,0.418,0,0.10146755226929646
Martinsville Speedway,,"('Practice',)",NASCAR Chevrolet Camaro ZL1,0,0,Not Pacing,True,760.6856521966553,29.5,08:50.000850,True,0.0,0,0,00:00.000000,0.0,00:00.000000,0.0,0,100.0,100,0.0,1,1,3956,2.64,99.99,102,102,102,102,102,102,102,102,102,102,102,102,100.0,100.0,100.0,100.0,100.0,100.0,100.0,100.0,100.0,100.0,100.0,100.0,112,171,171,0.07,0.99,78,-0.0,0.0,-0.03511529875336315,0.005652457019969228,1.0030885476706346,2.139,-1,-133.832,-1,0.419,-1,0.10242029788694808
Martinsville Speedway,,"('Practice',)",NASCAR Chevrolet Camaro ZL1,0,0,Not Pacing,True,760.6856521966553,29.5,08:50.000950,True,0.0,0,0,00:00.000000,0.0,00:00.000000,0.0,48.1,100.0,100,0.01,1,1,4658,1.535,99.98,102,102,102,102,102,102,102,102,102,102,102,102,100.0,100.0,100.0,100.0,100.0,100.0,100.0,100.0,100.0,100.0,100.0,100.0,112,171,171,0.07,0.99,78,-0.0,0.0,-0.04207723366740282,0.005696360762330734,0.998657802072383,2.109,0,-133.831,0,0.422,0,0.10199592623606799
Martinsville Speedway,,"('Practice',)",NASCAR Chevrolet Camaro ZL1,0,0,Not Pacing,True,760.6856021350097,29.5,08:51.000050,True,0.0,0,0,00:00.000000,0.0,00:00.000000,0.0,13.94,100.0,100,0.0,1,1,6144,2.015,99.98,102,102,102,102,102,102,102,102,102,102,102,102,100.0,100.0,100.0,100.0,100.0,100.0,100.0,100.0,100.0,100.0,100.0,100.0,112,172,171,0.07,0.99,78,-0.0,0.0,-0.027939209393648076,0.010329401395858001,0.9890332742082476,2.117,-2,-133.833,-1,0.418,0,0.1009675244718726
Martinsville Speedway,,"('Practice',)",NASCAR Chevrolet Camaro ZL1,0,0,Not Pacing,True,760.6856521966553,29.5,08:51.000133,True,0.0,0,0,00:00.000000,0.0,00:00.000000,0.0,0,100.0,100,0.0,1,1,5914,1.607,99.98,102,102,102,102,102,102,102,102,102,102,102,102,100.0,100.0,100.0,100.0,100.0,100.0,100.0,100.0,100.0,100.0,100.0,100.0,112,172,171,0.07,0.99,78,-0.0,0.0,-0.04450159335355146,0.0033336369725177773,0.9987129226980102,2.171,0,-133.83,0,0.418,0,0.10201116951518903
Martinsville Speedway,,"('Practice',)",NASCAR Chevrolet Camaro ZL1,0,0,Not Pacing,True,760.6856521966553,29.5,08:51.000233,True,0.0,0,0,00:00.000000,0.0,00:00.000000,0.0,0,100.0,100,0.0,1,1,5671,1.322,99.98,102,102,102,102,102,102,102,102,102,102,102,102,100.0,100.0,100.0,100.0,100.0,100.0,100.0,100.0,100.0,100.0,100.0,100.0,112,172,171,0.07,0.99,78,-0.0,0.0,-0.03193044516653825,0.006371110708098649,1.0050625854554405,2.129,-1,-133.832,-1,0.42,-1,0.10261120911464809
Martinsville Speedway,,"('Practice',)",NASCAR Chevrolet Camaro ZL1,0,0,Not Pacing,True,760.6855020117188,29.5,08:51.000316,True,0.0,0,0,00:00.000000,0.0,00:00.000000,0.0,0,100.0,100,0.0,1,1,5414,1.322,99.98,102,102,102,102,102,102,102,102,102,102,102,102,100.0,100.0,100.0,100.0,100.0,100.0,100.0,100.0,100.0,100.0,100.0,100.0,112,172,171,0.07,0.99,78,-0.0,0.0,-0.03929408865237455,0.009878905571685775,0.987778332133784,2.149,0,-133.831,0,0.422,0,0.10087846405818433
Martinsville Speedway,,"('Practice',)",NASCAR Chevrolet Camaro ZL1,0,0,Not Pacing,True,760.6856021350097,29.5,08:51.000416,True,0.0,0,0,00:00.000000,0.0,00:00.000000,0.0,0,100.0,100,0.0,1,1,5160,0.748,99.98,102,102,102,102,102,102,102,102,102,102,102,102,100.0,100.0,100.0,100.0,100.0,100.0,100.0,100.0,100.0,100.0,100.0,100.0,112,172,171,0.07,0.99,78,-0.0,0.0,-0.03437216371814288,0.00743902650083606,1.0016113732325314,2.135,-1,-133.831,-1,0.417,-1,0.10226822250873864
Martinsville Speedway,,"('Practice',)",NASCAR Chevrolet Camaro ZL1,0,0,Not Pacing,True,760.6855520733643,29.5,08:51.000516,True,0.0,0,0,00:00.000000,0.0,00:00.000000,0.0,8.66,100.0,100,0.01,1,1,4999,0.0,99.98,102,102,102,102,102,102,102,102,102,102,102,102,100.0,100.0,100.0,100.0,100.0,100.0,100.0,100.0,100.0,100.0,100.0,100.0,112,172,171,0.07,0.99,78,-0.0,0.0,-0.04026485145638842,0.007894864565978599,1.0004414938519368,2.14,0,-133.831,-1,0.423,-1,0.10217169004100511
Martinsville Speedway,,"('Practice',)",NASCAR Chevrolet Camaro ZL1,0,0,Not Pacing,True,760.6856521966553,29.5,08:51.000600,True,0.0,0,0,00:00.000000,0.0,00:00.000000,0.0,40.04,100.0,100,0.0,1,1,6388,-0.697,99.98,102,102,102,102,102,102,102,102,102,102,102,102,100.0,100.0,100.0,100.0,100.0,100.0,100.0,100.0,100.0,100.0,100.0,100.0,112,172,171,0.07,0.99,78,-0.0,0.0,-0.03890149697858866,0.0032441669678226277,1.0053389662996344,2.087,0,-133.831,0,0.422,0,0.10266291429601242
Martinsville Speedway,,"('Practice',)",NASCAR Chevrolet Camaro ZL1,0,0,Not Pacing,True,760.6855020117188,29.5,08:51.000700,True,0.0,0,0,00:00.000000,0.0,00:00.000000,0.0,0,100.0,100,0.0,1,1,6759,-0.837,99.98,102,102,102,102,102,102,102,102,102,102,102,102,100.0,100.0,100.0,100.0,100.0,100.0,100.0,100.0,100.0,100.0,100.0,100.0,112,172,171,0.07,0.99,78,-0.0,0.0,-0.03396606226579858,0.01780503143714959,0.9788225428652204,2.163,-1,-133.831,-1,0.419,0,0.09995648172985631
Martinsville Speedway,,"('Practice',)",NASCAR Chevrolet Camaro ZL1,0,0,Not Pacing,True,760.6857523199462,29.5,08:51.000783,True,0.0,0,0,00:00.000000,0.0,00:00.000000,0.0,0,100.0,100,0.01,1,1,6329,-0.876,99.98,102,102,102,102,102,102,102,102,102,102,102,102,100.0,100.0,100.0,100.0,100.0,100.0,100.0,100.0,100.0,100.0,100.0,100.0,112,172,171,0.07,0.99,78,-0.0,0.0,-0.04403398853558648,0.0013661091420021018,1.0174439223169915,2.137,0,-133.83,0,0.418,0,0.10391808847075319
Martinsville Speedway,,"('Practice',)",NASCAR Chevrolet Camaro ZL1,0,0,Not Pacing,True,760.6855520733643,29.5,08:51.000883,True,0.0,0,0,00:00.000000,0.0,00:00.000000,0.0,0,100.0,100,0.0,1,1,5977,-1.267,99.98,102,102,102,102,102,102,102,102,102,102,102,102,100.0,100.0,100.0,100.0,100.0,100.0,100.0,100.0,100.0,100.0,100.0,100.0,112,173,171,0.07,0.99,78,-0.0,0.0,-0.03555640654218792,0.01191342596978587,0.989827322303702,2.147,-1,-133.83,-1,0.423,-1,0.101075243607415
Martinsville Speedway,,"('Practice',)",NASCAR Chevrolet Camaro ZL1,0,0,Not Pacing,True,760.6856021350097,29.5,08:51.000966,True,0.0,0,0,00:00.000000,0.0,00:00.000000,0.0,0,100.0,100,0.0,1,1,5727,-1.59,99.97,102,102,102,102,102,102,102,102,102,102,102,102,100.0,100.0,100.0,100.0,100.0,100.0,100.0,100.0,100.0,100.0,100.0,100.0,112,173,171,0.07,0.99,78,-0.0,0.0,-0.03812899708626345,0.004688480244256427,0.9986022925887268,2.131,0,-133.831,0,0.422,0,0.10197356666769236
Martinsville Speedway,,"('Practice',)",NASCAR Chevrolet Camaro ZL1,0,0,Not Pacing,True,760.6856021350097,29.5,08:52.000066,True,0.0,0,0,00:00.000000,0.0,00:00.000000,0.0,17.39,100.0,100,0.01,1,1,5640,-1.641,99.97,102,102,102,102,102,102,102,102,102,102,102,102,100.0,100.0,100.0,100.0,100.0,100.0,100.0,100.0,100.0,100.0,100.0,100.0,112,173,171,0.07,0.99,78,-0.0,0.0,-0.03544248329147043,0.008690507586942899,0.9963871628258691,2.141,0,-133.83,-1,0.42,-1,0.10174032657877088
Martinsville Speedway,,"('Practice',)",NASCAR Chevrolet Camaro ZL1,0,0,Not Pacing,True,760.6856521966553,29.5,08:52.000150,True,0.0,0,0,00:00.000000,0.0,00:00.000000,0.0,37.84,100.0,100,0.0,1,1,6960,-1.73,99.97,102,102,102,102,102,102,102,102,102,102,102,102,100.0,100.0,100.0,100.0,100.0,100.0,100.0,100.0,100.0,100.0,100.0,100.0,112,173,171,0.07,0.99,78,-0.0,0.0,-0.04172512272203856,0.0028733786852474,1.0097012728847616,2.089,0,-133.83,0,0.424,-1,0.10311909380743739
Martinsville Speedway,,"('Practice',)",NASCAR Chevrolet Camaro ZL1,0,0,Not Pacing,True,760.6855020117188,29.5,08:52.000250,True,0.0,0,0,00:00.000000,0.0,00:00.000000,0.0,0,100.0,100,0.01,1,1,7059,-1.908,99.97,102,102,102,102,102,102,102,102,102,102,102,102,100.0,100.0,100.0,100.0,100.0,100.0,100.0,100.0,100.0,100.0,100.0,100.0,112,173,171,0.07,0.99,78,-0.0,0.0,-0.03183080029657735,0.016861327683646135,0.976928123761876,2.167,-1,-133.83,-1,0.42,0,0.09975428283088228
Martinsville Speedway,,"('Practice',)",NASCAR Chevrolet Camaro ZL1,0,0,Not Pacing,True,760.6856521966553,29.5,08:52.000350,True,0.0,0,0,00:00.000000,0.0,00:00.000000,0.0,0,100.0,100,0.01,1,1,6571,-1.908,99.97,102,102,102,102,102,102,102,102,102,102,102,102,100.0,100.0,100.0,100.0,100.0,100.0,100.0,100.0,100.0,100.0,100.0,100.0,112,173,171,0.07,0.99,78,-0.0,0.0,-0.032864187470998965,0.012409038439195576,1.0207809074938479,2.124,0,-133.83,0,0.417,-1,0.10422297826201192
Martinsville Speedway,,"('Practice',)",NASCAR Chevrolet Camaro ZL1,0,0,Not Pacing,True,760.6855520733643,29.5,08:52.000450,True,0.0,0,0,00:00.000000,0.0,00:00.000000,0.0,2.13,100.0,100,0.0,1,1,6238,-1.998,99.97,102,102,102,102,102,102,102,102,102,102,102,102,100.0,100.0,100.0,100.0,100.0,100.0,100.0,100.0,100.0,100.0,100.0,100.0,112,173,171,0.07,0.99,78,-0.0,0.0,-0.035577003865917646,0.013164130858811155,0.9856817068552994,2.152,-1,-133.829,-1,0.424,-1,0.10065422421693297
Martinsville Speedway,,"('Practice',)",NASCAR Chevrolet Camaro ZL1,0,0,Not Pacing,True,760.6856521966553,29.5,08:52.000550,True,0.0,0,0,00:00.000000,0.0,00:00.000000,0.0,19.6,100.0,100,0.0,1,1,6647,-1.964,99.97,102,102,102,102,102,102,102,102,102,102,102,102,100.0,100.0,100.0,100.0,100.0,100.0,100.0,100.0,100.0,100.0,100.0,100.0,112,174,171,0.07,0.99,78,-0.0,0.0,-0.0402898295088524,0.005322565665424902,1.0068209042485943,2.104,0,-133.83,0,0.419,0,0.10282048733889766
Martinsville Speedway,,"('Practice',)",NASCAR Chevrolet Camaro ZL1,0,0,Not Pacing,True,760.6856521966553,29.5,08:52.000716,True,0.0,0,0,00:00.000000,0.0,00:00.000000,0.0,6.74,100.0,100,0.0,1,1,6553,-2.232,99.97,102,102,102,102,102,102,102,102,102,102,102,102,100.0,100.0,100.0,100.0,100.0,100.0,100.0,100.0,100.0,100.0,100.0,100.0,112,174,172,0.07,0.99,78,-0.0,0.0,-0.03953875022561543,0.0045263583446253815,1.0076259375833712,2.134,0,-133.83,0,0.423,0,0.10289913657151865
Martinsville Speedway,,"('Practice',)",NASCAR Chevrolet Camaro ZL1,0,0,Not Pacing,True,760.6856521966553,29.5,08:52.000816,True,0.0,0,0,00:00.000000,0.0,00:00.000000,0.0,9.72,100.0,100,0.0,1,1,6494,-2.517,99.96,102,102,102,102,102,102,102,102,102,102,102,102,100.0,100.0,100.0,100.0,100.0,100.0,100.0,100.0,100.0,100.0,100.0,100.0,112,174,172,0.07,0.99,78,-0.0,0.0,-0.033712265566826834,0.006392269293710239,0.9934610061567736,2.137,-1,-133.83,-1,0.422,-1,0.10143401972341995
Martinsville Speedway,,"('Practice',)",NASCAR Chevrolet Camaro ZL1,0,0,Not Pacing,True,760.6856021350097,29.5,08:52.000916,True,0.0,0,0,00:00.000000,0.0,00:00.000000,0.0,12.02,82.36,88,0.01,1,1,6604,-2.662,99.96,102,102,102,102,102,102,102,102,102,102,102,102,100.0,100.0,100.0,100.0,100.0,100.0,100.0,100.0,100.0,100.0,100.0,100.0,112,174,172,0.07,0.99,78,-0.0,0.0,-0.014054583846975903,0.007738824648959191,1.0013558935074023,2.124,0,-133.83,-1,0.422,0,0.10219228789231317
Martinsville Speedway,,"('Practice',)",NASCAR Chevrolet Camaro ZL1,0,0,Not Pacing,True,760.6891064501953,29.5,08:53.000016,True,0.0,0,0,00:00.000000,0.0,00:00.000000,0.0,15.57,0.0,76,0.07,1,1,6678,-3.427,99.96,102,102,102,102,102,102,102,102,102,102,102,102,100.0,100.0,100.0,100.0,100.0,100.0,100.0,100.0,100.0,100.0,100.0,100.0,112,174,172,0.07,0.99,78,-0.0,0.0,-0.038482447769056155,0.1030681451647775,0.9923124167532731,2.154,-1,-133.83,0,0.431,-1,0.10187680051974142
Martinsville Speedway,,"('Practice',)",NASCAR Chevrolet Camaro ZL1,0,0,Not Pacing,True,760.7238492321777,29.5,08:53.000100,True,0.0,0,0,00:00.000000,0.0,00:00.000000,0.0,17.97,0.0,68,0.37,1,1,6545,-4.948,99.96,102,102,102,102,102,102,102,102,102,102,102,102,100.0,100.0,100.0,100.0,100.0,100.0,100.0,100.0,100.0,100.0,100.0,100.0,112,174,172,0.07,0.99,78,-0.0,0.0,-0.05628905894194903,0.22208688212947864,0.9983605201091241,2.176,0,-133.889,0,0.482,-1,0.10452161751791975
Martinsville Speedway,,"('Practice',)",NASCAR Chevrolet Camaro ZL1,0,0,Not Pacing,True,760.8527079077148,29.51,08:53.000200,True,0.0,0,0,00:00.000000,0.0,00:00.000000,0.0,20.37,0.0,63,0.9,1,1,6269,-6.472,99.96,102,102,102,102,102,102,102,102,102,102,102,102,100.0,100.0,100.0,100.0,100.0,100.0,100.0,100.0,100.0,100.0,100.0,100.0,112,175,172,0.07,0.99,78,-0.0,0.0,-0.035540238554446095,0.2863490253413489,1.001567335060734,2.15,0,-133.915,-1,0.527,-1,0.10635747128704513
Martinsville Speedway,,"('Practice',)",NASCAR Chevrolet Camaro ZL1,0,0,Not Pacing,True,761.1093239025879,29.52,08:53.000300,True,0.0,0,0,00:00.000000,0.0,00:00.000000,0.0,21.62,0.0,59,1.6,1,1,5923,-7.622,99.96,102,102,102,102,102,102,102,102,102,102,102,102,100.0,100.0,100.0,100.0,100.0,100.0,100.0,100.0,100.0,100.0,100.0,100.0,112,175,172,0.07,0.99,78,-0.0,0.0,-0.020917903757241157,0.358379847169773,0.9930438587060397,2.12,0,-133.944,0,0.548,-1,0.10774900352199747
Martinsville Speedway,,"('Practice',)",NASCAR Chevrolet Camaro ZL1,0,0,Not Pacing,True,761.4426343383789,29.53,08:53.000383,True,0.0,0,0,00:00.000000,0.0,00:00.000000,0.0,23.44,0.0,57,2.28,1,1,5603,-8.578,99.96,102,102,102,102,102,102,102,102,102,102,102,102,100.0,100.0,100.0,100.0,100.0,100.0,100.0,100.0,100.0,100.0,100.0,100.0,112,175,172,0.07,0.99,78,-0.0,0.0,-0.03181252093125556,0.4085968515316402,0.9918584250042805,2.116,-1,-134.015,0,0.569,-1,0.10950964875177442
Martinsville Speedway,,"('Practice',)",NASCAR Chevrolet Camaro ZL1,0,0,Not Pacing,True,762.007129453125,29.55,08:53.000483,True,0.0,0,0,00:00.000000,0.0,00:00.000000,0.0,25.93,0.0,55,3.2,1,1,5190,-9.513,99.95,102,102,102,102,102,102,102,102,102,102,102,102,100.0,100.0,100.0,100.0,100.0,100.0,100.0,100.0,100.0,100.0,100.0,100.0,112,175,172,0.07,0.99,78,-0.0,0.0,-0.03717367316118681,0.4522512690615095,0.9951334845400002,2.123,-1,-134.089,0,0.585,-1,0.11160316293296836
Martinsville Speedway,,"('Practice',)",NASCAR Chevrolet Camaro ZL1,0,0,Not Pacing,True,762.7704193621826,29.58,08:53.000583,True,0.0,0,0,00:00.000000,0.0,00:00.000000,0.0,28.24,0.0,53,4.21,1,1,4742,-11.666,99.95,102,102,102,102,102,102,102,102,102,102,102,102,100.0,100.0,100.0,100.0,100.0,100.0,100.0,100.0,100.0,100.0,100.0,100.0,112,175,172,0.07,0.99,78,-0.0,0.0,-0.025161058773931256,0.47379803827657124,0.995253641670997,2.11,0,-134.21,1,0.583,0,0.11250653510625638
Martinsville Speedway,,"('Practice',)",NASCAR Chevrolet Camaro ZL1,0,0,Not Pacing,True,763.7488742236328,29.62,08:53.000683,True,0.0,0,0,00:00.000000,0.0,00:00.000000,0.0,29.39,0.0,51,5.29,1,1,4127,-11.847,99.95,102,102,102,102,102,102,102,102,102,102,102,102,100.0,100.0,100.0,100.0,100.0,100.0,100.0,100.0,100.0,100.0,100.0,100.0,112,175,172,0.07,0.99,78,-0.0,0.0,-0.00398170875117684,0.519453908082299,0.9924094368315375,2.092,0,-134.377,1,0.572,0,0.11430050500768074
Martinsville Speedway,,"('Practice',)",NASCAR Chevrolet Camaro ZL1,0,0,Not Pacing,True,764.7414464691162,29.66,08:53.000766,True,0.0,0,0,00:00.000000,0.0,00:00.000000,0.0,30.54,0.0,51,6.26,1,1,3527,-12.045,99.95,102,102,102,102,102,102,102,102,102,102,102,102,100.0,100.0,100.0,100.0,100.0,100.0,100.0,100.0,100.0,100.0,100.0,100.0,112,175,172,0.07,0.99,78,-0.0,0.0,-0.018265940605925735,0.5442920688703033,0.998678022689897,2.098,-1,-134.521,1,0.57,-1,0.11607317979504833
Martinsville Speedway,,"('Practice',)",NASCAR Chevrolet Camaro ZL1,0,0,Not Pacing,True,766.1547367834472,29.71,08:53.000866,True,0.0,0,0,00:00.000000,0.0,00:00.000000,0.0,31.79,0.0,50,7.45,1,1,3019,-11.881,99.95,102,102,102,102,102,102,102,102,102,102,102,102,100.0,100.0,100.0,100.0,100.0,100.0,100.0,100.0,100.0,100.0,100.0,100.0,112,175,172,0.07,0.99,78,-0.0,0.0,-0.010148772284403732,0.5645482182867301,1.004616662510552,2.051,0,-134.743,2,0.563,0,0.1175938983831097
Martinsville Speedway,,"('Practice',)",NASCAR Chevrolet Camaro ZL1,0,0,Not Pacing,True,767.5232719866943,29.76,08:53.000950,True,0.0,0,0,00:00.000000,0.0,00:00.000000,0.0,32.36,0.0,49,8.48,1,1,2804,-11.501,99.95,102,102,102,102,102,102,102,102,102,102,102,102,100.0,100.0,100.0,100.0,100.0,100.0,100.0,100.0,100.0,100.0,100.0,100.0,112,175,172,0.07,0.99,78,-0.0,0.0,-0.02345023230553645,0.583219819841764,0.9868980547703734,1.991,0,-134.951,2,0.547,0,0.11699873103115593
Martinsville Speedway,,"('Practice',)",NASCAR Chevrolet Camaro ZL1,0,0,Not Pacing,True,769.3793074938965,29.84,08:54.000050,True,0.0,0,0,00:00.000000,0.0,00:00.000000,0.0,34.09,0.0,47,9.81,1,1,2625,-10.324,99.95,102,102,102,102,102,102,102,102,102,102,102,102,100.0,100.0,100.0,100.0,100.0,100.0,100.0,100.0,100.0,100.0,100.0,100.0,112,175,172,0.07,0.99,78,-0.0,0.0,-0.009288396553405076,0.6408905764238549,0.9967242055226052,1.966,0,-135.219,2,0.522,0,0.12092100002016933
Martinsville Speedway,,"('Practice',)",NASCAR Chevrolet Camaro ZL1,0,0,Not Pacing,True,771.5098810650635,29.92,08:54.000150,True,0.0,0,0,00:00.000000,0.0,00:00.000000,0.0,35.91,0.0,46,11.23,1,1,2498,-8.504,99.94,102,102,102,102,102,102,102,102,102,102,102,102,100.0,100.0,100.0,100.0,100.0,100.0,100.0,100.0,100.0,100.0,100.0,100.0,112,175,172,0.07,0.99,78,-0.0,0.0,-0.017445516999465366,0.6710399546025361,0.9884181980206939,1.946,0,-135.511,2,0.485,0,0.121919326470252
Martinsville Speedway,,"('Practice',)",NASCAR Chevrolet Camaro ZL1,0,0,Not Pacing,True,773.9314129199219,30.01,08:54.000250,True,0.0,0,0,00:00.000000,0.0,00:00.000000,0.0,37.64,0.0,45,12.69,1,1,2436,-6.976,99.94,102,102,102,102,102,102,102,102,102,102,102,102,100.0,100.0,100.0,100.0,100.0,100.0,100.0,100.0,100.0,100.0,100.0,100.0,112,175,173,0.07,0.99,78,-0.0,0.0,0.0026701665678034014,0.6587397432473092,0.9531859107216806,1.939,-1,-135.787,2,0.366,1,0.1182312975842714
Martinsville Speedway,,"('Practice',)",NASCAR Chevrolet Camaro ZL1,0,0,Not Pacing,True,782.3620443316651,30.34,08:54.000533,True,0.0,0,0,00:00.000000,0.0,00:00.000000,0.0,37.64,0.0,44,16.9,1,1,2482,-4.143,99.94,102,102,102,102,102,102,102,102,102,102,102,102,100.0,100.0,100.0,100.0,100.0,100.0,100.0,100.0,100.0,100.0,100.0,100.0,112,175,173,0.07,0.99,78,-0.0,0.0,0.007600196761579445,0.5799705221504732,1.0467593458449804,1.956,-1,-136.696,3,0.498,-3,0.12211385678893265
Martinsville Speedway,,"('Practice',)",NASCAR Chevrolet Camaro ZL1,0,0,Not Pacing,True,785.8469856604004,30.48,08:54.000633,True,0.0,0,0,00:00.000000,0.0,00:00.000000,0.0,37.64,0.0,42,18.15,1,1,2701,-5.524,99.94,102,102,102,102,102,102,102,102,102,102,102,102,100.0,100.0,100.0,100.0,100.0,100.0,100.0,100.0,100.0,100.0,100.0,100.0,112,175,173,0.07,0.99,78,-0.0,0.0,0.02750031019691055,0.6114517876861292,0.8614187211436233,2.175,-5,-137.041,2,0.752,-3,0.10782927684656941
Martinsville Speedway,,"('Practice',)",NASCAR Chevrolet Camaro ZL1,0,0,Not Pacing,True,789.5597575378418,30.62,08:54.000733,True,0.0,0,0,00:00.000000,0.0,00:00.000000,0.0,37.64,0.0,42,19.33,1,1,2888,-7.031,99.94,102,102,102,102,102,102,102,102,102,102,102,102,100.0,100.0,100.0,100.0,100.0,100.0,100.0,100.0,100.0,100.0,100.0,100.0,112,175,173,0.07,0.99,78,-0.0,0.0,0.00622592691738428,0.5044590564070612,1.0546761064597467,2.66,-3,-137.299,2,1.015,-2,0.11929873671057462
Martinsville Speedway,,"('Practice',)",NASCAR Chevrolet Camaro ZL1,0,0,Not Pacing,True,793.4643155792236,30.77,08:54.000833,True,0.0,0,0,00:00.000000,0.0,00:00.000000,0.0,37.64,0.0,41,20.37,1,1,3080,-8.377,99.94,102,102,102,102,102,102,102,102,102,102,102,102,100.0,100.0,100.0,100.0,100.0,100.0,100.0,100.0,100.0,100.0,100.0,100.0,112,175,173,0.07,0.99,78,-0.0,0.0,0.0005480528606916421,0.4731580265679004,1.1508480853626122,3.016,-3,-137.621,3,1.039,0,0.126971341303439
Martinsville Speedway,,"('Practice',)",NASCAR Chevrolet Camaro ZL1,0,0,Not Pacing,True,798.2525117254638,30.96,08:54.000950,True,0.0,0,0,00:00.000000,0.0,00:00.000000,0.0,37.07,0.0,40,21.56,1,1,3219,-7.995,99.93,102,102,102,102,102,102,102,102,102,102,102,102,100.0,100.0,100.0,100.0,100.0,100.0,100.0,100.0,100.0,100.0,100.0,100.0,112,175,173,0.07,0.99,78,-0.0,0.0,-0.0010330681893196067,0.501104815655163,0.9515542624315112,3.4,-4,-137.967,2,0.814,0,0.10973836866383493
Martinsville Speedway,,"('Practice',)",NASCAR Chevrolet Camaro ZL1,0,0,Not Pacing,True,802.5548095404052,31.12,08:55.000050,True,0.0,0,0,00:00.000000,0.0,00:00.000000,0.0,35.24,0.0,33,22.63,1,1,3224,-7.422,99.93,102,102,102,102,102,102,102,102,102,102,102,102,100.0,100.0,100.0,100.0,100.0,100.0,100.0,100.0,100.0,100.0,100.0,100.0,112,175,173,0.07,0.99,78,-0.0,0.0,-0.005291330948031519,0.5451705477653294,0.9508260285574848,3.806,-5,-138.206,2,0.851,-2,0.11184106673218056
Martinsville Speedway,,"('Practice',)",NASCAR Chevrolet Camaro ZL1,0,0,Not Pacing,True,807.0305709570313,31.3,08:55.000150,True,0.0,0,0,00:00.000000,0.0,00:00.000000,0.0,35.24,0.0,23,23.6,1,1,3284,-8.336,99.93,102,102,102,102,102,102,102,102,102,102,102,102,100.0,100.0,100.0,100.0,100.0,100.0,100.0,100.0,100.0,100.0,100.0,100.0,112,175,173,0.07,0.99,78,-0.0,0.0,-0.04096561008029514,0.5494027327324637,1.0336997433661441,4.097,-2,-138.488,2,0.979,-2,0.1195253307876613
Martinsville Speedway,,"('Practice',)",NASCAR Chevrolet Camaro ZL1,0,0,Not Pacing,True,811.6689325982666,31.48,08:55.000250,True,0.0,0,0,00:00.000000,0.0,00:00.000000,0.0,35.24,0.0,16,24.42,1,1,3312,-9.431,99.93,102,102,102,102,102,102,102,102,102,102,102,102,100.0,100.0,100.0,100.0,100.0,100.0,100.0,100.0,100.0,100.0,100.0,100.0,112,175,173,0.07,0.99,78,-0.0,0.0,-0.04454399710644519,0.4099915880675709,1.0555575503972447,4.126,0,-138.68,0,1.131,-2,0.11563881083203792
Martinsville Speedway,,"('Practice',)",NASCAR Chevrolet Camaro ZL1,0,0,Not Pacing,True,816.4397072918701,31.66,08:55.000350,True,0.0,0,0,00:00.000000,0.0,00:00.000000,0.0,35.24,0.0,2,25.42,1,1,3452,-11.723,99.93,102,102,102,102,102,102,102,102,102,102,102,102,100.0,100.0,100.0,100.0,100.0,100.0,100.0,100.0,100.0,100.0,100.0,100.0,112,175,173,0.07,0.99,78,-0.0,0.0,-0.006575157882970407,0.39448584985295565,0.9626589783834755,4.123,-1,-138.824,2,1.13,0,0.10616044389977564
Martinsville Speedway,,"('Practice',)",NASCAR Chevrolet Camaro ZL1,0,0,Not Pacing,True,821.2148874102783,31.85,08:55.000450,True,0.0,0,0,00:00.000000,0.0,00:00.000000,0.0,35.24,0.0,0,26.24,1,1,3558,-13.621,99.93,102,102,102,102,102,102,102,102,102,102,102,102,100.0,100.0,100.0,100.0,100.0,100.0,100.0,100.0,100.0,100.0,100.0,100.0,112,175,173,0.07,0.99,78,-0.0,0.0,-0.02187866561881871,0.3912786217396898,1.0368418134559063,3.982,2,-139.058,2,1.153,-1,0.11310517187068578
Martinsville Speedway,,"('Practice',)",NASCAR Chevrolet Camaro ZL1,0,0,Not Pacing,True,826.0864862579346,32.04,08:55.000550,True,0.0,0,0,00:00.000000,0.0,00:00.000000,0.0,35.24,0.0,0,27.03,1,1,3672,-16.145,99.93,102,102,102,102,102,102,102,102,102,102,102,102,100.0,100.0,100.0,100.0,100.0,100.0,100.0,100.0,100.0,100.0,100.0,100.0,112,175,173,0.07,0.99,78,-0.0,0.0,0.05033474935790207,0.3778616587320963,0.9938266299186496,3.879,-1,-139.331,3,1.184,-1,0.10861497853300846
Martinsville Speedway,,"('Practice',)",NASCAR Chevrolet Camaro ZL1,0,0,Not Pacing,True,830.9863699353027,32.23,08:55.000650,True,0.0,0,0,00:00.000000,0.0,00:00.000000,0.0,30.73,0.0,0,27.8,1,1,3747,-18.975,99.92,102,102,102,102,102,102,102,102,102,102,102,102,100.0,100.0,100.0,100.0,100.0,100.0,100.0,100.0,100.0,100.0,100.0,100.0,112,175,173,0.07,0.99,78,-0.0,0.0,0.016441998982405198,0.34106088826901804,1.0113985409673443,3.924,1,-139.675,3,1.234,-1,0.10892683301715918
Martinsville Speedway,,"('Practice',)",NASCAR Chevrolet Camaro ZL1,0,0,Not Pacing,True,835.121561977539,32.39,08:55.000733,True,0.0,0,0,00:00.000000,0.0,00:00.000000,0.0,19.7,0.0,0,28.26,1,1,3800,-22.288,99.92,102,102,102,102,102,102,102,102,102,102,102,102,100.0,100.0,100.0,100.0,100.0,100.0,100.0,100.0,100.0,100.0,100.0,100.0,112,175,173,0.07,0.99,78,-0.0,0.0,0.047565594118061896,0.19498549470114052,1.1013296401464245,3.81,-1,-140.003,4,1.263,-2,0.11423143778356205
Martinsville Speedway,,"('Practice',)",NASCAR Chevrolet Camaro ZL1,0,0,Not Pacing,True,840.0443238269042,32.58,08:55.000833,True,0.0,0,0,00:00.000000,0.0,00:00.000000,0.0,4.15,0.0,0,28.37,1,1,3775,-26.25,99.92,102,102,102,102,102,102,102,102,102,102,102,102,100.0,100.0,100.0,100.0,100.0,100.0,100.0,100.0,100.0,100.0,100.0,100.0,112,175,173,0.07,0.99,78,-0.0,0.0,0.10417952571561698,-0.0015563070470283034,0.987085775983929,4.161,-3,-140.593,6,1.484,-4,0.10128259754257062
Martinsville Speedway,,"('Practice',)",NASCAR Chevrolet Camaro ZL1,0,0,Not Pacing,True,844.9048089892578,32.77,08:55.000933,True,0.0,0,0,00:00.000000,0.0,00:00.000000,0.0,0,0.0,0,28.14,1,1,3739,-32.0,99.92,102,102,102,102,102,102,102,102,102,102,102,102,100.0,100.0,100.0,100.0,100.0,100.0,100.0,100.0,100.0,100.0,100.0,100.0,112,175,173,0.07,0.99,78,-0.0,0.0,0.0536122028008635,-0.36818978740291614,1.075619513835382,4.06,1,-141.305,6,1.751,-2,0.11613819906729675
Martinsville Speedway,,"('Practice',)",NASCAR Chevrolet Camaro ZL1,0,0,Not Pacing,True,848.8396543261719,32.92,08:56.000016,True,0.0,0,0,00:00.000000,0.0,00:00.000000,0.0,0,0.0,0,27.86,1,1,3787,-36.603,99.92,102,102,102,102,102,102,102,102,102,102,102,102,100.0,100.0,100.0,100.0,100.0,100.0,100.0,100.0,100.0,100.0,100.0,100.0,112,175,173,0.07,0.99,78,-0.0,0.0,0.20312120668992598,-0.004305864449791709,1.0426812944791368,4.217,-4,-141.928,8,1.731,-1,0.10839698694024216
Martinsville Speedway,,"('Practice',)",NASCAR Chevrolet Camaro ZL1,0,0,Not Pacing,True,853.4913824267578,33.1,08:56.000116,True,0.0,0,0,00:00.000000,0.0,00:00.000000,0.0,0,0.0,0,27.62,1,1,3738,-37.118,99.92,102,102,102,102,102,102,102,102,102,102,102,102,100.0,100.0,100.0,100.0,100.0,100.0,100.0,100.0,100.0,100.0,100.0,100.0,112,175,173,0.07,0.99,78,-0.0,0.0,0.060210910898222225,-0.25069210507454126,1.0080895535685843,4.378,0,-142.772,7,1.697,0,0.10617720493541337
Martinsville Speedway,,"('Practice',)",NASCAR Chevrolet Camaro ZL1,0,0,Not Pacing,True,857.2936645263671,33.25,08:56.000200,True,0.0,0,0,00:00.000000,0.0,00:00.000000,0.0,0,0.0,0,27.44,1,1,3653,-37.449,99.92,102,102,102,102,102,102,102,102,102,102,102,102,100.0,100.0,100.0,100.0,100.0,100.0,100.0,100.0,100.0,100.0,100.0,100.0,112,175,173,0.07,0.99,78,-0.0,0.0,0.1008132121370959,-0.004577205329373949,1.0188584906124072,4.359,0,-143.441,8,1.671,-2,0.10447389459896747
Martinsville Speedway,,"('Practice',)",NASCAR Chevrolet Camaro ZL1,0,0,Not Pacing,True,861.7578617028809,33.42,08:56.000316,True,0.0,0,0,00:00.000000,0.0,00:00.000000,0.0,0,0.0,0,27.13,1,1,3683,-37.32,99.92,102,102,102,102,102,102,102,102,102,102,102,102,100.0,100.0,100.0,100.0,100.0,100.0,100.0,100.0,100.0,100.0,100.0,100.0,112,175,173,0.07,0.99,78,-0.0,0.0,0.11404459872620064,-0.044711318463238975,0.9892658113096588,4.348,0,-144.296,8,1.74,-2,0.10171642917961192
Martinsville Speedway,,"('Practice',)",NASCAR Chevrolet Camaro ZL1,0,0,Not Pacing,True,866.1638872473144,33.59,08:56.000416,True,0.0,0,0,00:00.000000,0.0,00:00.000000,0.0,0,0.0,0,26.93,1,1,3639,-37.444,99.92,102,102,102,102,102,102,102,102,102,102,102,102,100.0,100.0,100.0,100.0,100.0,100.0,100.0,100.0,100.0,100.0,100.0,100.0,112,175,173,0.07,0.99,78,-0.0,0.0,0.08587001782066353,-0.1048650216618809,0.9864344387851601,4.384,-1,-145.121,8,1.762,0,0.10160228394055586
Martinsville Speedway,,"('Practice',)",NASCAR Chevrolet Camaro ZL1,0,0,Not Pacing,True,869.7468993395996,33.73,08:56.000500,True,0.0,0,0,00:00.000000,0.0,00:00.000000,0.0,0,0.0,0,26.69,1,1,3583,-37.912,99.92,102,102,102,102,102,102,102,102,102,102,102,102,100.0,100.0,100.0,100.0,100.0,100.0,100.0,100.0,100.0,100.0,100.0,100.0,112,175,173,0.07,0.99,78,-0.0,0.0,0.1001868529907911,-0.10535218786148241,1.0759421687850408,4.415,0,-145.8,8,1.652,0,0.11078776079605471
Martinsville Speedway,,"('Practice',)",NASCAR Chevrolet Camaro ZL1,0,0,Not Pacing,True,873.9957313171386,33.89,08:56.000600,True,0.0,0,0,00:00.000000,0.0,00:00.000000,0.0,0,0.0,0,26.46,1,1,3572,-38.697,99.92,102,102,102,102,102,102,102,102,102,102,102,102,100.0,100.0,100.0,100.0,100.0,100.0,100.0,100.0,100.0,100.0,100.0,100.0,112,175,173,0.07,0.99,78,-0.0,0.0,0.1052658127717651,-0.08009506900254618,1.0206511261266304,4.38,0,-146.637,8,1.69,-3,0.10501902966530775
Martinsville Speedway,,"('Practice',)",NASCAR Chevrolet Camaro ZL1,0,0,Not Pacing,False,878.1706723059082,34.06,08:56.000700,True,0.0,0,0,00:00.000000,0.0,00:00.000000,0.0,0,0.0,0,26.16,1,1,3536,-40.365,99.92,102,102,102,102,102,102,102,102,102,102,102,102,100.0,100.0,100.0,100.0,100.0,100.0,100.0,100.0,100.0,100.0,100.0,100.0,112,175,173,0.07,0.99,78,-0.0,0.0,0.1352776445744599,-0.08343710933378104,0.9565634343480723,4.45,-2,-147.515,8,1.88,-3,0.09894673325132892
Martinsville Speedway,,"('Practice',)",NASCAR Chevrolet Camaro ZL1,0,0,Not Pacing,False,882.2777297033691,34.22,08:56.000800,True,0.0,0,0,00:00.000000,0.0,00:00.000000,0.0,0.79,0.0,0,25.9,1,1,3495,-42.598,99.92,102,102,102,102,102,102,102,102,102,102,102,102,100.0,100.0,100.0,100.0,100.0,100.0,100.0,100.0,100.0,100.0,100.0,100.0,112,175,173,0.07,0.99,78,-0.0,0.0,0.10404754487017243,-0.0929459701619746,1.0933329692066749,4.553,0,-148.404,9,1.964,-1,0.11246924826206936
Martinsville Speedway,,"('Practice',)",NASCAR Chevrolet Camaro ZL1,0,0,Not Pacing,False,886.3324226196289,34.37,08:56.000900,True,0.0,0,0,00:00.000000,0.0,00:00.000000,0.0,2.71,0.0,0,25.66,1,1,3461,-44.888,99.92,102,102,102,102,102,102,102,102,102,102,102,102,100.0,100.0,100.0,100.0,100.0,100.0,100.0,100.0,100.0,100.0,100.0,100.0,112,175,173,0.07,0.99,78,-0.0,0.0,0.09256057539968073,-0.07208905939419091,0.9638823257430734,4.414,1,-149.324,9,1.954,0,0.09908123491810161
Martinsville Speedway,,"('Practice',)",NASCAR Chevrolet Camaro ZL1,0,0,Not Pacing,False,890.319131821289,34.53,08:57.000000,True,0.0,0,0,00:00.000000,0.0,00:00.000000,0.0,4.44,0.0,0,25.47,1,1,3435,-47.199,99.92,102,102,102,102,102,102,102,102,102,102,102,102,100.0,100.0,100.0,100.0,100.0,100.0,100.0,100.0,100.0,100.0,100.0,100.0,112,175,173,0.07,0.99,78,-0.0,0.0,0.15336103760138928,-0.04157939817562745,0.9626221340852167,4.34,0,-150.262,9,1.758,1,0.099555960585935
Martinsville Speedway,,"('Practice',)",NASCAR Chevrolet Camaro ZL1,0,0,Not Pacing,False,894.2820116796875,34.68,08:57.000100,True,0.0,0,0,00:00.000000,0.0,00:00.000000,0.0,6.16,0.0,0,25.36,1,1,3422,-49.642,99.92,102,102,102,102,102,102,102,102,102,102,102,102,100.0,100.0,100.0,100.0,100.0,100.0,100.0,100.0,100.0,100.0,100.0,100.0,112,175,173,0.07,0.99,78,-0.0,0.0,0.1387506936060665,-0.014070493608682769,0.9854664739361839,4.325,0,-151.23,10,1.444,2,0.10155977967971357
Martinsville Speedway,,"('Practice',)",NASCAR Chevrolet Camaro ZL1,0,0,Not Pacing,False,897.5624511865234,34.81,08:57.000183,True,0.0,0,0,00:00.000000,0.0,00:00.000000,0.0,10.87,0.0,0,25.31,1,1,3535,-51.093,99.92,102,102,102,102,102,102,102,102,102,102,102,102,100.0,100.0,100.0,100.0,100.0,100.0,100.0,100.0,100.0,100.0,100.0,100.0,112,175,173,0.07,0.99,78,-0.0,0.0,0.1411654776632482,-0.00995961867584244,0.977985234314027,4.236,0,-152.089,10,1.204,1,0.10083377960885652
Martinsville Speedway,,"('Practice',)",NASCAR Chevrolet Camaro ZL1,0,0,Not Pacing,False,901.4976970166016,34.96,08:57.000283,True,0.0,0,0,00:00.000000,0.0,00:00.000000,0.0,19.02,0.0,0,25.68,1,1,3367,-52.304,99.92,102,102,102,102,102,102,102,102,102,102,102,102,100.0,100.0,100.0,100.0,100.0,100.0,100.0,100.0,100.0,100.0,100.0,100.0,112,175,173,0.07,0.99,78,-0.0,0.0,0.1486582979635847,0.3360086017184787,0.9989611113350932,4.219,-1,-153.166,9,1.178,-4,0.10861114299449486
Martinsville Speedway,,"('Practice',)",NASCAR Chevrolet Camaro ZL1,0,0,Not Pacing,False,905.505832602539,35.12,08:57.000383,True,0.0,0,0,00:00.000000,0.0,00:00.000000,0.0,23.25,0.0,0,25.91,1,1,3609,-53.286,99.92,102,102,102,102,102,102,102,102,102,102,102,102,100.0,100.0,100.0,100.0,100.0,100.0,100.0,100.0,100.0,100.0,100.0,100.0,112,175,173,0.07,0.99,78,-0.0,0.0,0.054151117497870924,0.26684512178224645,0.9833523500463891,4.219,-4,-153.886,8,1.339,-2,0.10411766617583296
Martinsville Speedway,,"('Practice',)",NASCAR Chevrolet Camaro ZL1,0,0,Not Pacing,False,908.8919021813965,35.25,08:57.000466,True,0.0,0,0,00:00.000000,0.0,00:00.000000,0.0,26.99,0.0,0,26.53,1,1,3604,-53.921,99.92,102,102,102,102,102,102,102,102,102,102,102,102,100.0,100.0,100.0,100.0,100.0,100.0,100.0,100.0,100.0,100.0,100.0,100.0,112,175,173,0.07,0.99,78,-0.0,0.0,0.06819361940436407,0.21713533411210706,1.0515705890247216,4.595,0,-154.86,10,1.52,-3,0.10978751706862934
Martinsville Speedway,,"('Practice',)",NASCAR Chevrolet Camaro ZL1,0,0,Not Pacing,False,913.0308989086914,35.41,08:57.000566,True,0.0,0,0,00:00.000000,0.0,00:00.000000,0.0,29.39,0.0,0,27.16,1,1,3646,-51.764,99.92,102,102,102,102,102,102,102,102,102,102,102,102,100.0,100.0,100.0,100.0,100.0,100.0,100.0,100.0,100.0,100.0,100.0,100.0,112,175,173,0.07,0.99,78,-0.0,0.0,0.1405408744539811,0.2610670560239895,1.0124043222596522,4.416,1,-155.99,10,1.572,-1,0.10764557749707492
Martinsville Speedway,,"('Practice',)",NASCAR Chevrolet Camaro ZL1,0,0,Not Pacing,False,916.5390187792968,35.54,08:57.000650,True,0.0,0,0,00:00.000000,0.0,00:00.000000,0.0,31.79,0.0,0,27.65,1,1,3773,-51.29,99.92,102,102,102,102,102,102,102,102,102,102,102,102,100.0,100.0,100.0,100.0,100.0,100.0,100.0,100.0,100.0,100.0,100.0,100.0,112,175,173,0.07,0.99,78,-0.0,0.0,0.18307930589572854,0.35542391855782324,0.9589421761266803,4.361,0,-156.863,10,1.408,1,0.10601516807014748
Martinsville Speedway,,"('Practice',)",NASCAR Chevrolet Camaro ZL1,0,0,Not Pacing,False,920.8164860180664,35.71,08:57.000750,True,0.0,0,0,00:00.000000,0.0,00:00.000000,0.0,35.24,0.0,0,28.39,1,1,3863,-50.14,99.91,102,102,102,102,102,102,102,102,102,102,102,102,100.0,100.0,100.0,100.0,100.0,100.0,100.0,100.0,100.0,100.0,100.0,100.0,112,175,173,0.07,0.99,78,-0.0,0.0,0.16484615392033597,0.3482084390949401,0.9576197671841651,4.274,1,-157.919,10,1.142,1,0.10532762545553556
Martinsville Speedway,,"('Practice',)",NASCAR Chevrolet Camaro ZL1,0,0,Not Pacing,False,924.4697846606446,35.85,08:57.000833,True,0.0,0,0,00:00.000000,0.0,00:00.000000,0.0,36.49,0.0,0,29.05,1,1,3940,-47.78,99.91,102,102,102,102,102,102,102,102,102,102,102,102,100.0,100.0,100.0,100.0,100.0,100.0,100.0,100.0,100.0,100.0,100.0,100.0,112,175,173,0.07,0.99,78,-0.0,0.0,0.17665846996715673,0.38205041311810384,0.9491111646490845,4.208,0,-158.811,10,0.936,1,0.10594484431940664
Martinsville Speedway,,"('Practice',)",NASCAR Chevrolet Camaro ZL1,0,0,Not Pacing,False,928.9569100708007,36.03,08:57.000933,True,0.0,0,0,00:00.000000,0.0,00:00.000000,0.0,38.22,0.0,0,29.87,1,1,4059,-44.173,99.91,102,102,102,102,102,102,102,102,102,102,102,102,100.0,100.0,100.0,100.0,100.0,100.0,100.0,100.0,100.0,100.0,100.0,100.0,112,175,173,0.07,0.99,78,-0.0,0.0,0.1600480711545176,0.402842676238547,0.9899596312481085,4.28,-2,-159.83,9,0.732,0,0.11027575514993328
Martinsville Speedway,,"('Practice',)",NASCAR Chevrolet Camaro ZL1,0,0,Not Pacing,False,933.5728941564942,36.2,08:58.000033,True,0.0,0,0,00:00.000000,0.0,00:00.000000,0.0,39.37,0.0,0,30.61,1,1,4153,-42.823,99.91,102,102,102,102,102,102,102,102,102,102,102,102,100.0,100.0,100.0,100.0,100.0,100.0,100.0,100.0,100.0,100.0,100.0,100.0,112,174,173,0.07,0.99,78,-0.0,0.0,0.14830068224674578,0.40665418972905865,1.0213617641748394,4.341,-1,-160.814,9,0.677,-2,0.11319360553218344
Martinsville Speedway,,"('Practice',)",NASCAR Chevrolet Camaro ZL1,0,0,Not Pacing,False,937.5145478771973,36.36,08:58.000116,True,0.0,0,0,00:00.000000,0.0,00:00.000000,0.0,39.95,0.0,0,31.5,1,1,4282,-40.16,99.91,102,102,102,102,102,102,102,102,102,102,102,102,100.0,100.0,100.0,100.0,100.0,100.0,100.0,100.0,100.0,100.0,100.0,100.0,112,174,173,0.07,0.99,78,-0.0,0.0,0.15055421173997852,0.41852400815693486,1.0011248146236003,4.338,0,-161.627,9,0.756,-2,0.1117838308940499
Martinsville Speedway,,"('Practice',)",NASCAR Chevrolet Camaro ZL1,0,0,Not Pacing,False,942.3656214501954,36.55,08:58.000216,True,0.0,0,0,00:00.000000,0.0,00:00.000000,0.0,42.34,0.0,0,32.44,1,1,4415,-37.615,99.91,102,102,102,102,102,102,102,102,102,102,102,102,100.0,100.0,100.0,100.0,100.0,100.0,100.0,100.0,100.0,100.0,100.0,100.0,112,174,173,0.07,0.99,78,-0.0,0.0,0.14756787929087725,0.46362133201109157,1.0106196583350255,4.407,-1,-162.546,8,0.851,-2,0.11445291669784109
Martinsville Speedway,,"('Practice',)",NASCAR Chevrolet Camaro ZL1,0,0,Not Pacing,False,946.516332602539,36.71,08:58.000300,True,0.0,0,0,00:00.000000,0.0,00:00.000000,0.0,42.92,0.0,0,33.28,1,1,4521,-36.714,99.9,102,102,102,102,102,102,102,102,102,102,102,102,100.0,100.0,100.0,100.0,100.0,100.0,100.0,100.0,100.0,100.0,100.0,100.0,112,174,173,0.07,0.99,78,-0.0,0.0,0.11984876657966201,0.47588528235510336,0.9983759772157814,4.362,1,-163.261,8,0.844,0,0.11351714605239313
Martinsville Speedway,,"('Practice',)",NASCAR Chevrolet Camaro ZL1,0,0,Not Pacing,False,951.62892821167,36.9,08:58.000400,True,0.0,0,0,00:00.000000,0.0,00:00.000000,0.0,43.5,0.0,0,34.33,1,1,4669,-35.203,99.9,102,102,102,102,102,102,102,102,102,102,102,102,100.0,100.0,100.0,100.0,100.0,100.0,100.0,100.0,100.0,100.0,100.0,100.0,112,174,173,0.07,0.99,78,-0.0,0.0,0.18148335963335727,0.49754836872812436,0.9910322961214242,4.245,0,-164.136,9,0.695,1,0.11466026456598116
Martinsville Speedway,,"('Practice',)",NASCAR Chevrolet Camaro ZL1,0,0,Not Pacing,False,956.896614798584,37.11,08:58.000500,True,0.0,0,0,00:00.000000,0.0,00:00.000000,0.0,43.5,0.0,0,35.23,1,1,4807,-31.723,99.9,102,102,102,102,102,102,102,102,102,102,102,102,100.0,100.0,100.0,100.0,100.0,100.0,100.0,100.0,100.0,100.0,100.0,100.0,112,174,173,0.07,0.99,78,-0.0,0.0,0.18155419255372338,0.5111066816293014,0.9849523064071857,4.173,1,-164.901,8,0.607,-1,0.11473685604148981
Martinsville Speedway,,"('Practice',)",NASCAR Chevrolet Camaro ZL1,0,0,Not Pacing,False,962.3232971716309,37.32,08:58.000600,True,0.0,0,0,00:00.000000,0.0,00:00.000000,0.0,44.65,0.0,0,36.37,1,1,4963,-30.456,99.9,102,102,102,102,102,102,102,102,102,102,102,102,100.0,100.0,100.0,100.0,100.0,100.0,100.0,100.0,100.0,100.0,100.0,100.0,112,174,173,0.07,0.99,78,-0.0,0.0,0.14987095172738202,0.5529131971975593,0.9871898927212247,3.978,1,-165.905,8,0.654,-1,0.11646600080263601
Martinsville Speedway,,"('Practice',)",NASCAR Chevrolet Camaro ZL1,0,0,Not Pacing,False,967.918086550293,37.54,08:58.000700,True,0.0,0,0,00:00.000000,0.0,00:00.000000,0.0,45.22,0.0,0,37.76,1,1,5148,-29.201,99.9,102,102,102,102,102,102,102,102,102,102,102,102,100.0,100.0,100.0,100.0,100.0,100.0,100.0,100.0,100.0,100.0,100.0,100.0,112,174,173,0.07,0.99,78,-0.0,0.0,0.18219908929138492,0.5502620603695557,1.0459144545622192,3.83,2,-166.732,8,0.537,0,0.12201973614451474
Martinsville Speedway,,"('Practice',)",NASCAR Chevrolet Camaro ZL1,0,0,Not Pacing,False,974.6653951318359,37.8,08:58.000816,True,0.0,0,0,00:00.000000,0.0,00:00.000000,0.0,45.22,0.0,0,39.18,1,1,5351,-24.318,99.89,102,102,102,102,102,102,102,102,102,102,102,102,100.0,100.0,100.0,100.0,100.0,100.0,100.0,100.0,100.0,100.0,100.0,100.0,112,174,173,0.07,0.99,78,-0.0,0.0,0.1844324467743573,0.5652734871182845,0.9403867459078447,3.547,0,-167.719,8,0.501,-1,0.11353051661214164
Martinsville Speedway,,"('Practice',)",NASCAR Chevrolet Camaro ZL1,0,0,Not Pacing,False,980.6343452490235,38.03,08:58.000916,True,0.0,0,0,00:00.000000,0.0,00:00.000000,0.0,45.22,0.0,0,40.44,1,1,5501,-20.483,99.89,102,102,102,102,102,102,102,102,102,102,102,102,100.0,100.0,100.0,100.0,100.0,100.0,100.0,100.0,100.0,100.0,100.0,100.0,112,174,173,0.07,0.99,78,-0.0,0.0,0.11785548032241494,0.5690607212856031,1.027622670087124,3.414,1,-168.436,6,0.466,0,0.12046558518499821
Martinsville Speedway,,"('Practice',)",NASCAR Chevrolet Camaro ZL1,0,0,Not Pacing,False,986.783016673584,38.27,08:59.000016,True,0.0,0,0,00:00.000000,0.0,00:00.000000,0.0,45.9,0.0,0,41.7,1,1,5683,-17.984,99.89,102,102,102,102,102,102,102,102,102,102,102,102,100.0,100.0,100.0,100.0,100.0,100.0,100.0,100.0,100.0,100.0,100.0,100.0,112,174,173,0.07,0.99,78,-0.0,0.0,0.12833539863609755,0.5986217086589786,0.9792765346142129,3.373,0,-169.053,5,0.457,-1,0.11784722353640985
Martinsville Speedway,,"('Practice',)",NASCAR Chevrolet Camaro ZL1,0,0,Not Pacing,False,993.1133117480468,38.51,08:59.000116,True,0.0,0,0,00:00.000000,0.0,00:00.000000,0.0,46.47,0.0,0,42.79,1,1,5826,-16.013,99.88,102,102,102,102,102,102,102,102,102,102,102,102,100.0,100.0,100.0,100.0,100.0,100.0,100.0,100.0,100.0,100.0,100.0,100.0,112,174,173,0.07,0.99,78,-0.0,0.0,0.09056699749891181,0.6046878939131834,1.0144343556006505,3.211,2,-169.592,5,0.367,1,0.12086246412480349
Martinsville Speedway,,"('Practice',)",NASCAR Chevrolet Camaro ZL1,0,0,Not Pacing,False,998.5252759973145,38.72,08:59.000200,True,0.0,0,0,00:00.000000,0.0,00:00.000000,0.0,45.32,0.0,0,44.07,1,1,6010,-13.88,99.88,102,102,102,102,102,102,102,102,102,102,102,102,100.0,100.0,100.0,100.0,100.0,100.0,100.0,100.0,100.0,100.0,100.0,100.0,112,174,173,0.07,0.99,78,-0.0,0.0,0.12284417643338046,0.576699983089342,0.8947290776337322,3.131,1,-170.024,5,0.294,0,0.1093415644815032
Martinsville Speedway,,"('Practice',)",NASCAR Chevrolet Camaro ZL1,0,0,Not Pacing,False,1005.1847764526367,38.98,08:59.000300,True,0.0,0,0,00:00.000000,0.0,00:00.000000,0.0,44.74,0.0,0,45.33,1,1,6159,-14.493,99.88,102,102,102,102,102,102,102,102,102,102,102,102,100.0,100.0,100.0,100.0,100.0,100.0,100.0,100.0,100.0,100.0,100.0,100.0,112,175,174,0.07,0.99,78,-0.0,0.0,0.1622303181102881,0.5650395404065177,1.1692207523077633,3.025,-3,-170.496,4,0.184,-1,0.13353964035938812
Martinsville Speedway,,"('Practice',)",NASCAR Chevrolet Camaro ZL1,0,0,Not Pacing,False,1013.1720118701172,39.29,08:59.000416,True,0.0,0,0,00:00.000000,0.0,00:00.000000,0.0,45.32,0.0,0,46.74,1,1,6368,-15.987,99.87,102,102,102,102,102,102,102,102,102,102,102,102,100.0,100.0,100.0,100.0,100.0,100.0,100.0,100.0,100.0,100.0,100.0,100.0,112,175,174,0.07,0.99,78,-0.0,0.0,0.08226548009205545,0.5981517251235386,0.9702092403058004,2.935,0,-171.072,4,0.522,-2,0.11660631701598359
Martinsville Speedway,,"('Practice',)",NASCAR Chevrolet Camaro ZL1,0,0,Not Pacing,False,1019.021615024414,39.52,08:59.000500,True,0.0,0,0,00:00.000000,0.0,00:00.000000,0.0,45.32,0.0,0,47.77,1,1,6482,-17.705,99.87,102,102,102,102,102,102,102,102,102,102,102,102,100.0,100.0,100.0,100.0,100.0,100.0,100.0,100.0,100.0,100.0,100.0,100.0,112,175,174,0.07,0.99,78,-0.0,0.0,0.21433001507555915,0.5210990205817266,0.9975856232716037,3.065,0,-171.508,5,0.285,4,0.1169095050258382
Martinsville Speedway,,"('Practice',)",NASCAR Chevrolet Camaro ZL1,0,0,Not Pacing,False,1026.1898419213867,39.8,08:59.000600,True,0.0,0,0,00:00.000000,0.0,00:00.000000,0.0,45.32,0.0,0,48.93,1,1,6690,-12.276,99.87,102,102,102,102,102,102,102,102,102,102,102,102,100.0,100.0,100.0,100.0,100.0,100.0,100.0,100.0,100.0,100.0,100.0,100.0,112,175,174,0.07,0.99,78,-0.0,0.0,0.13119445299154392,0.5431632140117805,0.9503904103503679,2.916,-1,-172.071,5,0.109,-2,0.11249879418287086
Martinsville Speedway,,"('Practice',)",NASCAR Chevrolet Camaro ZL1,0,0,Not Pacing,False,1032.2835456591797,40.03,08:59.000683,True,0.0,0,0,00:00.000000,0.0,00:00.000000,0.0,45.32,0.0,0,49.94,1,1,6787,-10.928,99.87,102,102,102,102,102,102,102,102,102,102,102,102,100.0,100.0,100.0,100.0,100.0,100.0,100.0,100.0,100.0,100.0,100.0,100.0,112,175,174,0.07,0.99,78,-0.0,0.0,0.13602125049244979,0.5447074178526525,0.9700317266155091,2.963,0,-172.497,4,0.2,-1,0.11436629367249322
Martinsville Speedway,,"('Practice',)",NASCAR Chevrolet Camaro ZL1,0,0,Not Pacing,False,1039.737324182129,40.32,08:59.000783,True,0.0,0,0,00:00.000000,0.0,00:00.000000,0.0,44.17,0.0,0,51.07,1,1,6942,-11.916,99.86,102,102,102,102,102,102,102,102,102,102,102,102,100.0,100.0,100.0,100.0,100.0,100.0,100.0,100.0,100.0,100.0,100.0,100.0,112,175,174,0.07,0.99,78,-0.0,0.0,0.10979084429026378,0.5086409328666788,1.0250144048568306,2.902,0,-172.892,4,0.169,0,0.11729919872917202
Martinsville Speedway,,"('Practice',)",NASCAR Chevrolet Camaro ZL1,0,0,Not Pacing,False,1046.0696217224122,40.57,08:59.000866,True,0.0,0,0,00:00.000000,0.0,00:00.000000,0.0,43.59,0.0,0,51.98,1,1,7068,-12.635,99.86,102,102,102,102,102,102,102,102,102,102,102,102,100.0,100.0,100.0,100.0,100.0,100.0,100.0,100.0,100.0,100.0,100.0,100.0,112,175,174,0.07,0.99,78,-0.0,0.0,0.13617458207405547,0.48893715628061085,1.015697269264711,2.818,1,-173.264,4,0.119,-1,0.11586212357076765
Martinsville Speedway,,"('Practice',)",NASCAR Chevrolet Camaro ZL1,0,0,Not Pacing,False,1053.8115550769044,40.87,08:59.000966,True,0.0,0,0,00:00.000000,0.0,00:00.000000,0.0,44.17,0.0,0,53.06,1,1,7218,-11.646,99.86,102,102,102,102,102,102,102,102,102,102,102,102,100.0,100.0,100.0,100.0,100.0,100.0,100.0,100.0,100.0,100.0,100.0,100.0,112,175,174,0.07,0.99,78,-0.0,0.0,0.15458839505941252,0.49332916189771175,0.9907321949374541,2.716,0,-173.755,4,0.157,-1,0.11403130922269437
Martinsville Speedway,,"('Practice',)",NASCAR Chevrolet Camaro ZL1,0,0,Not Pacing,False,1061.7083791625976,41.17,09:00.000066,True,0.0,0,0,00:00.000000,0.0,00:00.000000,0.0,44.17,0.0,0,53.95,1,1,7327,-10.518,99.85,102,102,102,102,102,102,102,102,102,102,102,102,100.0,100.0,100.0,100.0,100.0,100.0,100.0,100.0,100.0,100.0,100.0,100.0,112,175,174,0.07,0.99,78,-0.0,0.0,0.14464612157823598,0.479548227774866,1.0052924977651552,2.63,1,-174.224,4,0.152,0,0.11460878213127183
Martinsville Speedway,,"('Practice',)",NASCAR Chevrolet Camaro ZL1,0,0,Not Pacing,False,1068.4043244958496,41.43,09:00.000150,True,0.0,0,0,00:00.000000,0.0,00:00.000000,0.0,44.17,0.0,0,54.98,1,1,7475,-9.655,99.85,102,102,102,102,102,102,102,102,102,102,102,102,100.0,100.0,100.0,100.0,100.0,100.0,100.0,100.0,100.0,100.0,100.0,100.0,112,175,174,0.07,0.99,78,-0.0,0.0,0.13427211847023374,0.4707086584497543,1.0272951544121014,2.544,1,-174.578,4,0.124,-1,0.11611738167347652
Martinsville Speedway,,"('Practice',)",NASCAR Chevrolet Camaro ZL1,0,0,Not Pacing,False,1076.5747855358886,41.75,09:00.000250,True,0.0,0,0,00:00.000000,0.0,00:00.000000,0.0,44.17,0.0,0,55.82,1,1,7590,-8.098,99.85,102,102,102,102,102,102,102,102,102,102,102,102,100.0,100.0,100.0,100.0,100.0,100.0,100.0,100.0,100.0,100.0,100.0,100.0,112,175,174,0.07,0.99,78,-0.0,0.0,0.11248621371907924,0.46037986008763676,1.0080543619169493,2.464,0,-174.979,3,0.192,-1,0.11366340960648255
Martinsville Speedway,,"('Practice',)",NASCAR Chevrolet Camaro ZL1,0,0,Not Pacing,False,1083.4938055615235,42.02,09:00.000333,True,0.0,0,0,00:00.000000,0.0,00:00.000000,0.0,44.84,0.0,0,56.81,1,1,7726,-7.522,99.84,102,102,102,102,102,102,102,102,102,102,102,102,100.0,100.0,100.0,100.0,100.0,100.0,100.0,100.0,100.0,100.0,100.0,100.0,112,175,175,0.07,0.99,78,-0.0,0.0,0.10621832051408399,0.44309706498358953,0.9883955470404979,2.416,0,-175.256,3,0.186,-1,0.11105787455006126
Martinsville Speedway,,"('Practice',)",NASCAR Chevrolet Camaro ZL1,0,0,Not Pacing,False,1091.9252880212402,42.35,09:00.000433,True,0.0,0,0,00:00.000000,0.0,00:00.000000,0.0,45.99,0.0,0,57.8,1,1,7863,-7.237,99.84,102,102,102,102,102,102,102,102,102,102,102,102,100.0,100.0,100.0,100.0,100.0,100.0,100.0,100.0,100.0,100.0,100.0,100.0,112,175,175,0.07,0.99,78,-0.0,0.0,0.10277934516727863,0.46239638061212346,1.0111086473066386,2.31,0,-175.571,3,0.203,-1,0.11393508089167831
