TrackName,TrackType,SessionFlag,CarName,RacePosition,Lap Nbr,PaceMode,OnPitRoad,LapDistPrct %,SessionTime,IsOnTrack,PreviousLap,LapBestLap,LapCompleted,CurrentLapTime,LapBestLapTime,LapDeltaToBestLap,LapDeltaToBestLap_DD,Throttle %,Brake %,Clutch %,Speed (MPH),currentGear,RPM,SteeringWheelAngle (deg),FuelLevelPct,LFtempCL (F),LFtempCR (F),LFtempCM (F),LRtempCL (F),LRtempCR (F),LRtempCM (F),RFtempCL (F),RFtempCR (F),RFtempCM (F),RRtempCL (F),RRtempCR (F),RRtempCM (F),LFwearL %,LFwearM %,LFwearR %,LRwearL %,LRwearM %,LRwearR %,RFwearL %,RFwearM %,RFwearR %,RRwearL %,RRwearM %,RRwearR %,TrackTemp (F),OilTemp (F),WaterTemp (F),AirDensity (lbs/ft^3),AirPressure (bar),AirTemp (F),WindDir (deg),WindVel (MPH),LatAccel (m/s),LongAccel (m/s),VertAccel (m/s),Roll (deg),RollRate (deg/s),Yaw (deg),YawRate (deg/s),Pitch (deg),PitchRate (deg/s),gForces
Daytona International Speedway,Road Course,"('Practice',)",Cadillac V-Series.R,0,0,Not Pacing,True,4,03:58.000883,True,0.0,0,0,00:00.000000,0.0,00:00.000000,0.0,0,100,100,0,N,1550,-1,99,120,120,120,120,120,120,120,120,120,120,120,120,100,100,100,100,100,100,100,100,100,100,100,100,78,170,170,0.07,1.01,78,0,0,0.011802421432751762,-3.601223131628454e-05,1.0007563716410133,-1,0,0,0,0,0,0.10212509855148635
Daytona International Speedway,Road Course,"('Practice',)",Cadillac V-Series.R,0,0,Not Pacing,True,4,03:59.000016,True,0.0,0,0,00:00.000000,0.0,00:00.000000,0.0,0,100,100,0,N,1550,-1,99,120,120,120,120,120,120,120,120,120,120,120,120,100,100,100,100,100,100,100,100,100,100,100,100,78,170,170,0.07,1.01,78,0,0,0.0114719156521419,0.0001210947905521874,0.9988896586722432,-1,-1,0,0,0,0,0.10193423871515825
Daytona International Speedway,Road Course,"('Practice',)",Cadillac V-Series.R,0,0,Not Pacing,True,4,03:59.000149,True,0.0,0,0,00:00.000000,0.0,00:00.000000,0.0,0,100,100,0,N,1550,-1,99,120,120,120,120,120,120,120,120,120,120,120,120,100,100,100,100,100,100,100,100,100,100,100,100,78,170,170,0.07,1.01,78,0,0,0.011594342893781282,0.00013462028102560023,0.9983522568760054,-1,-1,0,0,0,-1,0.10187954989899363
Daytona International Speedway,Road Course,"('Practice',)",Cadillac V-Series.R,0,0,Not Pacing,True,4,03:59.000283,True,0.0,0,0,00:00.000000,0.0,00:00.000000,0.0,0,100,100,0,N,1550,-1,99,120,120,120,120,120,120,120,120,120,120,120,120,100,100,100,100,100,100,100,100,100,100,100,100,78,170,170,0.07,1.01,78,0,0,0.011855816500874711,0.0004776180071507511,1.0003686801859848,-1,0,0,0,0,0,0.10208561694079107
Daytona International Speedway,Road Course,"('Practice',)",Cadillac V-Series.R,0,0,Not Pacing,True,4,03:59.000416,True,0.0,0,0,00:00.000000,0.0,00:00.000000,0.0,0,100,100,0,N,1550,-1,99,120,120,120,120,120,120,120,120,120,120,120,120,100,100,100,100,100,100,100,100,100,100,100,100,78,170,170,0.07,1.01,78,0,0,0.01169772596534239,0.0004933209981575654,1.0002454121907551,-1,-1,0,-1,0,0,0.1020728503169911
Daytona International Speedway,Road Course,"('Practice',)",Cadillac V-Series.R,0,0,Not Pacing,True,4,03:59.000549,True,0.0,0,0,00:00.000000,0.0,00:00.000000,0.0,0,100,100,0,N,1550,-1,99,120,120,120,120,120,120,120,120,120,120,120,120,100,100,100,100,100,100,100,100,100,100,100,100,78,170,169,0.07,1.01,78,0,0,0.011497322056028577,0.0005505908333775222,0.9986977572348746,-1,-1,0,0,0,0,0.10191470277501188
Daytona International Speedway,Road Course,"('Practice',)",Cadillac V-Series.R,0,0,Not Pacing,True,4,03:59.000683,True,0.0,0,0,00:00.000000,0.0,00:00.000000,0.0,0,100,100,0,N,1550,-1,99,120,120,120,120,120,120,120,120,120,120,120,120,100,100,100,100,100,100,100,100,100,100,100,100,78,170,169,0.07,1.01,78,0,0,0.01152108492715157,0.0017304467103775366,0.9991411526025739,-1,0,0,-1,0,-1,0.10196010954607494
Daytona International Speedway,Road Course,"('Practice',)",Cadillac V-Series.R,0,0,Not Pacing,True,4,03:59.000816,True,0.0,0,0,00:00.000000,0.0,00:00.000000,0.0,0,100,100,0,N,1550,-1,99,120,120,120,120,120,120,120,120,120,120,120,120,100,100,100,100,100,100,100,100,100,100,100,100,78,170,169,0.07,1.01,78,0,0,0.01196971241001203,-0.000564564516906466,1.000997852477094,-1,-1,0,0,0,-1,0.10214995660316141
Daytona International Speedway,Road Course,"('Practice',)",Cadillac V-Series.R,0,0,Not Pacing,True,4,03:59.000949,True,0.0,0,0,00:00.000000,0.0,00:00.000000,0.0,0,100,100,0,1,1550,-1,99,120,120,120,120,120,120,120,120,120,120,120,120,100,100,100,100,100,100,100,100,100,100,100,100,78,170,169,0.07,1.01,78,0,0,0.011401043238382213,-0.00015978419452632238,1.0014405673432423,-1,0,0,0,0,-1,0.10219443636630138
Daytona International Speedway,Road Course,"('Practice',)",Cadillac V-Series.R,0,0,Not Pacing,True,4,04:00.000083,True,0.0,0,0,00:00.000000,0.0,00:00.000000,0.0,0,100,100,0,1,1550,-1,99,120,120,120,120,120,120,120,120,120,120,120,120,100,100,100,100,100,100,100,100,100,100,100,100,78,170,169,0.07,1.01,78,0,0,0.01167400638505467,0.0004974336275084668,0.9983822961587545,-1,0,0,0,0,-1,0.10188272136342305
Daytona International Speedway,Road Course,"('Practice',)",Cadillac V-Series.R,0,0,Not Pacing,True,4,04:00.000216,True,0.0,0,0,00:00.000000,0.0,00:00.000000,0.0,0,100,100,0,1,1550,-1,99,120,120,120,120,120,120,120,120,120,120,120,120,100,100,100,100,100,100,100,100,100,100,100,100,78,170,169,0.07,1.01,78,0,0,0.011889104874734362,0.0004388602729601962,0.9985794471795162,-1,0,0,-1,0,-1,0.101903093576446
Daytona International Speedway,Road Course,"('Practice',)",Cadillac V-Series.R,0,0,Not Pacing,True,4,04:00.000349,True,0.0,0,0,00:00.000000,0.0,00:00.000000,0.0,0,100,100,0,1,1550,-1,99,120,120,120,120,120,120,120,120,120,120,120,120,100,100,100,100,100,100,100,100,100,100,100,100,78,170,169,0.07,1.01,78,0,0,0.01178981240736235,0.00046692388920183695,1.0004787270082245,-1,0,0,0,0,-1,0.10209676531925946
Daytona International Speedway,Road Course,"('Practice',)",Cadillac V-Series.R,0,0,Not Pacing,True,4,04:00.000483,True,0.0,0,0,00:00.000000,0.0,00:00.000000,0.0,0,100,100,0,1,1550,-1,99,120,120,120,120,120,120,120,120,120,120,120,120,100,100,100,100,100,100,100,100,100,100,100,100,78,170,169,0.07,1.01,78,0,0,0.011456044624340278,0.0005231685101013786,1.0002786595522446,-1,-1,0,-1,0,0,0.10207595881686102
Daytona International Speedway,Road Course,"('Practice',)",Cadillac V-Series.R,0,0,Not Pacing,True,4,04:00.000616,True,0.0,0,0,00:00.000000,0.0,00:00.000000,0.0,0,100,100,0,1,1550,-1,99,120,120,120,120,120,120,120,120,120,120,120,120,100,100,100,100,100,100,100,100,100,100,100,100,78,170,169,0.07,1.01,78,0,0,0.01183290425669041,0.0004888455707211499,0.9983725747080266,-1,0,0,0,0,-1,0.10188191988248355
Daytona International Speedway,Road Course,"('Practice',)",Cadillac V-Series.R,0,0,Not Pacing,True,4,04:00.000766,True,0.0,0,0,00:00.000000,0.0,00:00.000000,0.0,0,100,100,0,1,1550,-1,99,120,120,120,120,120,120,120,120,120,120,120,120,100,100,100,100,100,100,100,100,100,100,100,100,78,170,169,0.07,1.01,78,0,0,0.011885157054352832,0.00046544511793950277,0.9987104923353282,-1,0,0,-1,0,-1,0.10191646101592418
Daytona International Speedway,Road Course,"('Practice',)",Cadillac V-Series.R,0,0,Not Pacing,True,4,04:00.000899,True,0.0,0,0,00:00.000000,0.0,00:00.000000,0.0,0,100,100,0,1,1550,-1,99,120,120,120,120,120,120,120,120,120,120,120,120,100,100,100,100,100,100,100,100,100,100,100,100,78,170,169,0.07,1.01,78,0,0,0.0118955255891448,0.0003384623703120559,1.0008396844737513,-1,0,0,0,0,-1,0.10213371751110314
Daytona International Speedway,Road Course,"('Practice',)",Cadillac V-Series.R,0,0,Not Pacing,True,4,04:01.000033,True,0.0,0,0,00:00.000000,0.0,00:00.000000,0.0,0,100,100,0,1,1550,-1,99,120,120,120,120,120,120,120,120,120,120,120,120,100,100,100,100,100,100,100,100,100,100,100,100,78,170,169,0.07,1.01,78,0,0,0.011585876877276297,0.00045857701742989325,1.0007512192721273,-1,-1,0,-1,0,-1,0.10212432530365646
Daytona International Speedway,Road Course,"('Practice',)",Cadillac V-Series.R,0,0,Not Pacing,True,4,04:01.000166,True,0.0,0,0,00:00.000000,0.0,00:00.000000,0.0,0,100,100,0,1,1550,-1,99,120,120,120,120,120,120,120,120,120,120,120,120,100,100,100,100,100,100,100,100,100,100,100,100,78,170,169,0.07,1.01,78,0,0,0.011247426089161397,0.0002877721249692666,0.9980634325748797,-1,-1,0,-1,0,-1,0.10184967827284151
Daytona International Speedway,Road Course,"('Practice',)",Cadillac V-Series.R,0,0,Not Pacing,True,4,04:01.000299,True,0.0,0,0,00:00.000000,0.0,00:00.000000,0.0,0,100,100,0,1,1550,-1,99,120,120,120,120,120,120,120,120,120,120,120,120,100,100,100,100,100,100,100,100,100,100,100,100,78,170,169,0.07,1.01,78,0,0,0.011428958991738026,0.0006028231248548149,1.0004296336820486,-1,0,0,0,0,-1,0.10209133629228753
Daytona International Speedway,Road Course,"('Practice',)",Cadillac V-Series.R,0,0,Not Pacing,True,4,04:01.000433,True,0.0,0,0,00:00.000000,0.0,00:00.000000,0.0,0,100,100,0,1,1550,-1,99,120,120,120,120,120,120,120,120,120,120,120,120,100,100,100,100,100,100,100,100,100,100,100,100,78,170,169,0.07,1.01,78,0,0,0.011430433918090649,0.0006346820941941089,1.000411260140173,-1,0,0,0,0,-1,0.10208946529368285
Daytona International Speedway,Road Course,"('Practice',)",Cadillac V-Series.R,0,0,Not Pacing,True,4,04:01.000583,True,0.0,0,0,00:00.000000,0.0,00:00.000000,0.0,0,100,100,0,1,1550,-1,99,120,120,120,120,120,120,120,120,120,120,120,120,100,100,100,100,100,100,100,100,100,100,100,100,78,170,169,0.07,1.01,78,0,0,0.011513673839948228,0.0007956869288838481,1.0003044213966734,-1,-1,0,-1,0,0,0.1020786732463947
Daytona International Speedway,Road Course,"('Practice',)",Cadillac V-Series.R,0,0,Not Pacing,True,4,04:01.000716,True,0.0,0,0,00:00.000000,0.0,00:00.000000,0.0,0,100,100,0,1,1550,-1,99,120,120,120,120,120,120,120,120,120,120,120,120,100,100,100,100,100,100,100,100,100,100,100,100,78,170,169,0.07,1.01,78,0,0,0.011518113808772858,0.0007534499311483598,0.998023088554359,-1,0,0,0,0,-1,0.10184590159143071
Daytona International Speedway,Road Course,"('Practice',)",Cadillac V-Series.R,0,0,Not Pacing,True,4,04:01.000833,True,0.0,0,0,00:00.000000,0.0,00:00.000000,0.0,100,100,100,0,1,4978,-1,99,120,120,120,120,120,120,120,120,120,120,120,120,100,100,100,100,100,100,100,100,100,100,100,100,78,170,169,0.07,1.01,78,0,0,0.013231760257367086,0.0002234471889704496,1.0022855558405106,-1,-1,0,-1,0,-1,0.10228295072037265
Daytona International Speedway,Road Course,"('Practice',)",Cadillac V-Series.R,0,0,Not Pacing,True,4,04:01.000966,True,0.0,0,0,00:00.000000,0.0,00:00.000000,0.0,0,100,100,0,1,6384,-1,99,120,120,120,120,120,120,120,120,120,120,120,120,100,100,100,100,100,100,100,100,100,100,100,100,78,170,169,0.07,1.01,78,0,0,0.015145300239111911,-7.913047286409363e-05,1.0007839805610803,-1,0,0,0,0,0,0.10213250789221441
Daytona International Speedway,Road Course,"('Practice',)",Cadillac V-Series.R,0,0,Not Pacing,True,4,04:02.000099,True,0.0,0,0,00:00.000000,0.0,00:00.000000,0.0,11,100,100,0,1,4979,-1,99,120,120,120,120,120,120,120,120,120,120,120,120,100,100,100,100,100,100,100,100,100,100,100,100,78,170,169,0.07,1.01,78,0,0,0.010482902343363085,0.00023944132508487876,0.9980908470659323,-1,0,0,-1,0,0,0.1018516249987923
Daytona International Speedway,Road Course,"('Practice',)",Cadillac V-Series.R,0,0,Not Pacing,True,4,04:02.000233,True,0.0,0,0,00:00.000000,0.0,00:00.000000,0.0,100,100,100,0,1,8840,-1,99,120,120,120,120,120,120,120,120,120,120,120,120,100,100,100,100,100,100,100,100,100,100,100,100,78,171,170,0.07,1.01,78,0,0,0.026959542348358123,0.0011650689713330322,1.0030711462738315,-1,-3,0,-1,0,0,0.10239122990184545
Daytona International Speedway,Road Course,"('Practice',)",Cadillac V-Series.R,0,0,Not Pacing,True,4,04:02.000366,True,0.0,0,0,00:00.000000,0.0,00:00.000000,0.0,0,100,100,0,1,7917,-1,99,120,120,120,120,120,120,120,120,120,120,120,120,100,100,100,100,100,100,100,100,100,100,100,100,78,171,169,0.07,1.01,78,0,0,0.012620270373745917,0.0016899944627686012,0.9997999753184031,-1,0,0,0,0,0,0.10202867876549082
Daytona International Speedway,Road Course,"('Practice',)",Cadillac V-Series.R,0,0,Not Pacing,True,4,04:02.000516,True,0.0,0,0,00:00.000000,0.0,00:00.000000,0.0,0,100,100,0,1,5770,-1,99,120,120,120,120,120,120,120,120,120,120,120,120,100,100,100,100,100,100,100,100,100,100,100,100,78,171,169,0.07,1.01,78,0,0,0.011373517102543853,0.00016454134466815796,1.0003696523310577,-1,-1,0,-1,0,0,0.10208513452233138
Daytona International Speedway,Road Course,"('Practice',)",Cadillac V-Series.R,0,0,Not Pacing,True,4,04:02.000649,True,0.0,0,0,00:00.000000,0.0,00:00.000000,0.0,0,100,100,0,1,4628,-1,99,120,120,120,120,120,120,120,120,120,120,120,120,100,100,100,100,100,100,100,100,100,100,100,100,78,171,169,0.07,1.01,78,0,0,0.01164075826407694,0.0004979913767567711,0.9989720965744158,-1,0,0,0,0,-1,0.10194286140116225
Daytona International Speedway,Road Course,"('Practice',)",Cadillac V-Series.R,0,0,Not Pacing,True,4,04:02.000783,True,0.0,0,0,00:00.000000,0.0,00:00.000000,0.0,0,100,100,0,1,3632,-2,99,120,120,120,120,120,120,120,120,120,120,120,120,100,100,100,100,100,100,100,100,100,100,100,100,78,171,169,0.07,1.01,78,0,0,0.01156440614195774,0.0002890888404074551,0.999004955077876,-1,0,0,-1,0,0,0.10194611520490596
Daytona International Speedway,Road Course,"('Practice',)",Cadillac V-Series.R,0,0,Not Pacing,True,4,04:02.000916,True,0.0,0,0,00:00.000000,0.0,00:00.000000,0.0,0,100,100,0,1,2842,-1,99,120,120,120,120,120,120,120,120,120,120,120,120,100,100,100,100,100,100,100,100,100,100,100,100,78,171,169,0.07,1.01,78,0,0,0.011234025676923668,-3.4008178932100504e-05,1.0004103852096076,-1,0,0,-1,0,-1,0.10208912852860853
Daytona International Speedway,Road Course,"('Practice',)",Cadillac V-Series.R,0,0,Not Pacing,True,4,04:03.000049,True,0.0,0,0,00:00.000000,0.0,00:00.000000,0.0,0,100,100,0,1,2184,-2,99,120,120,120,120,120,120,120,120,120,120,120,120,100,100,100,100,100,100,100,100,100,100,100,100,78,171,169,0.07,1.01,78,0,0,0.011731512563551845,0.0003965613769251515,1.0004451880032132,-1,0,0,0,0,-1,0.102093270183755
Daytona International Speedway,Road Course,"('Practice',)",Cadillac V-Series.R,0,0,Not Pacing,True,4,04:03.000183,True,0.0,0,0,00:00.000000,0.0,00:00.000000,0.0,0,100,100,0,1,1785,-1,99,120,120,120,120,120,120,120,120,120,120,120,120,100,100,100,100,100,100,100,100,100,100,100,100,78,171,169,0.07,1.01,78,0,0,0.011049224696028122,0.0003334736948971476,0.9987808756385982,-1,0,0,-1,0,0,0.10192265781920827
Daytona International Speedway,Road Course,"('Practice',)",Cadillac V-Series.R,0,0,Not Pacing,True,4,04:03.000316,True,0.0,0,0,00:00.000000,0.0,00:00.000000,0.0,0,100,100,0,1,1648,-2,99,120,120,120,120,120,120,120,120,120,120,120,120,100,100,100,100,100,100,100,100,100,100,100,100,78,171,169,0.07,1.01,78,0,0,0.011853011710442047,0.00041141972196393785,0.9988063458395052,-1,0,0,-1,0,-1,0.10192619989651454
Daytona International Speedway,Road Course,"('Practice',)",Cadillac V-Series.R,0,0,Not Pacing,True,4,04:03.000449,True,0.0,0,0,00:00.000000,0.0,00:00.000000,0.0,0,100,100,0,1,1591,-1,99,120,120,120,120,120,120,120,120,120,120,120,120,100,100,100,100,100,100,100,100,100,100,100,100,78,171,169,0.07,1.01,78,0,0,0.011318779259039112,0.001111787351780589,0.9985814886841691,-1,0,0,0,0,-1,0.10190267896679335
Daytona International Speedway,Road Course,"('Practice',)",Cadillac V-Series.R,0,0,Not Pacing,True,4,04:03.000583,True,0.0,0,0,00:00.000000,0.0,00:00.000000,0.0,0,100,100,0,1,1567,-1,99,120,120,120,120,120,120,120,120,120,120,120,120,100,100,100,100,100,100,100,100,100,100,100,100,78,171,169,0.07,1.01,78,0,0,0.011683497710816114,0.0007059868941582914,1.000384040078135,-1,-1,0,0,0,0,0.10208699109242632
Daytona International Speedway,Road Course,"('Practice',)",Cadillac V-Series.R,0,0,Not Pacing,True,4,04:03.000716,True,0.0,0,0,00:00.000000,0.0,00:00.000000,0.0,0,100,100,0,1,1557,-1,99,120,120,120,120,120,120,120,120,120,120,120,120,100,100,100,100,100,100,100,100,100,100,100,100,78,171,169,0.07,1.01,78,0,0,0.011465182028536159,0.0004927500527993862,1.000240162607362,-1,-1,0,-1,0,-1,0.10207203992161887
Daytona International Speedway,Road Course,"('Practice',)",Cadillac V-Series.R,0,0,Not Pacing,True,4,04:03.000849,True,0.0,0,0,00:00.000000,0.0,00:00.000000,0.0,0,100,100,0,1,1553,-1,99,120,120,120,120,120,120,120,120,120,120,120,120,100,100,100,100,100,100,100,100,100,100,100,100,78,171,169,0.07,1.01,78,0,0,0.011598605142334793,0.00013303826681730337,1.0004214676634373,-1,-1,0,-1,0,0,0.10209068466658629
Daytona International Speedway,Road Course,"('Practice',)",Cadillac V-Series.R,0,0,Not Pacing,True,4,04:03.000983,True,0.0,0,0,00:00.000000,0.0,00:00.000000,0.0,0,100,100,0,1,1551,-1,99,120,120,120,120,120,120,120,120,120,120,120,120,100,100,100,100,100,100,100,100,100,100,100,100,78,171,169,0.07,1.01,78,0,0,0.011608825576900827,-4.5013639631621334e-05,0.9988107204923328,-1,0,0,-1,0,0,0.10192634508938837
Daytona International Speedway,Road Course,"('Practice',)",Cadillac V-Series.R,0,0,Not Pacing,True,4,04:04.000116,True,0.0,0,0,00:00.000000,0.0,00:00.000000,0.0,0,100,100,0,1,1550,-1,99,120,120,120,120,120,120,120,120,120,120,120,120,100,100,100,100,100,100,100,100,100,100,100,100,78,171,169,0.07,1.01,78,0,0,0.011398921987453852,0.0004887925964095663,0.9984833992463247,-1,-1,0,0,0,-1,0.10189271256634193
Daytona International Speedway,Road Course,"('Practice',)",Cadillac V-Series.R,0,0,Not Pacing,True,4,04:04.000266,True,0.0,0,0,00:00.000000,0.0,00:00.000000,0.0,3,100,100,0,1,1568,-1,99,120,120,120,120,120,120,120,120,120,120,120,120,100,100,100,100,100,100,100,100,100,100,100,100,78,171,169,0.07,1.01,78,0,0,0.011591066461090647,0.00043000762942308797,0.9998268065224121,-1,0,0,-1,0,0,0.1020300086505631
Daytona International Speedway,Road Course,"('Practice',)",Cadillac V-Series.R,0,0,Not Pacing,True,4,04:04.000399,True,0.0,0,0,00:00.000000,0.0,00:00.000000,0.0,3,100,100,0,1,1641,-1,99,120,120,120,120,120,120,120,120,120,120,120,120,100,100,100,100,100,100,100,100,100,100,100,100,78,171,169,0.07,1.01,78,0,0,0.011562723875288812,-1.841004478396747e-05,1.000129629712586,-1,-1,0,0,0,0,0.10206086400775458
Daytona International Speedway,Road Course,"('Practice',)",Cadillac V-Series.R,0,0,Not Pacing,True,4,04:04.000533,True,0.0,0,0,00:00.000000,0.0,00:00.000000,0.0,0,100,100,0,1,1645,-1,99,120,120,120,120,120,120,120,120,120,120,120,120,100,100,100,100,100,100,100,100,100,100,100,100,78,171,169,0.07,1.01,78,0,0,0.01159446517140372,0.0005329100872702311,0.9962635059726104,-1,-1,0,-1,0,0,0.10166644021555886
Daytona International Speedway,Road Course,"('Practice',)",Cadillac V-Series.R,0,0,Not Pacing,True,4,04:04.000666,True,0.0,0,0,00:00.000000,0.0,00:00.000000,0.0,0,100,100,0,1,1590,-1,99,120,120,120,120,120,120,120,120,120,120,120,120,100,100,100,100,100,100,100,100,100,100,100,100,78,171,169,0.07,1.01,78,0,0,0.011687390848037299,0.00043797684561890316,0.9985609764231332,-1,0,0,0,0,-1,0.10190096592859708
Daytona International Speedway,Road Course,"('Practice',)",Cadillac V-Series.R,0,0,Not Pacing,True,4,04:04.000799,True,0.0,0,0,00:00.000000,0.0,00:00.000000,0.0,0,100,100,0,1,1566,-1,99,120,120,120,120,120,120,120,120,120,120,120,120,100,100,100,100,100,100,100,100,100,100,100,100,78,171,169,0.07,1.01,78,0,0,0.011928269409866021,0.0004283341918060903,0.999187912780575,-1,-1,0,0,0,-1,0.10196522466050686
Daytona International Speedway,Road Course,"('Practice',)",Cadillac V-Series.R,0,0,Not Pacing,True,4,04:04.000933,True,0.0,0,0,00:00.000000,0.0,00:00.000000,0.0,0,100,100,0,1,1557,-2,99,120,120,120,120,120,120,120,120,120,120,120,120,100,100,100,100,100,100,100,100,100,100,100,100,78,171,169,0.07,1.01,78,0,0,0.011870607536259533,0.0012761103435515384,1.000609966593051,-1,0,0,0,0,0,0.10211032556151706
Daytona International Speedway,Road Course,"('Practice',)",Cadillac V-Series.R,0,0,Not Pacing,True,4,04:05.000083,True,0.0,0,0,00:00.000000,0.0,00:00.000000,0.0,0,100,100,0,1,1552,-2,99,120,120,120,120,120,120,120,120,120,120,120,120,100,100,100,100,100,100,100,100,100,100,100,100,78,171,169,0.07,1.01,78,0,0,0.011463177738811869,0.00021134165688118802,0.9992816275655919,-1,0,0,-1,0,0,0.10197422420453556
Daytona International Speedway,Road Course,"('Practice',)",Cadillac V-Series.R,0,0,Not Pacing,True,4,04:05.000216,True,0.0,0,0,00:00.000000,0.0,00:00.000000,0.0,0,100,100,0,1,1551,-2,99,120,120,120,120,120,120,120,120,120,120,120,120,100,100,100,100,100,100,100,100,100,100,100,100,78,171,169,0.07,1.01,78,0,0,0.011793423014921757,0.000352098461274707,0.9987033956762968,-1,0,0,0,0,0,0.10191562122561594
Daytona International Speedway,Road Course,"('Practice',)",Cadillac V-Series.R,0,0,Not Pacing,True,4,04:05.000349,True,0.0,0,0,00:00.000000,0.0,00:00.000000,0.0,0,100,100,0,1,1550,-2,99,120,120,120,120,120,120,120,120,120,120,120,120,100,100,100,100,100,100,100,100,100,100,100,100,78,171,169,0.07,1.01,78,0,0,0.012042090129657864,0.0001817141829493335,1.0020530187390995,-1,-1,0,-1,0,-1,0.10225769285898716
Daytona International Speedway,Road Course,"('Practice',)",Cadillac V-Series.R,0,0,Not Pacing,True,4,04:05.000483,True,0.0,0,0,00:00.000000,0.0,00:00.000000,0.0,0,100,100,0,1,1550,-2,99,120,120,120,120,120,120,120,120,120,120,120,120,100,100,100,100,100,100,100,100,100,100,100,100,78,171,169,0.07,1.01,78,0,0,0.011401417666132905,0.0005390328449120215,1.0004038718376198,-1,0,0,-1,0,-1,0.10208867192459727
Daytona International Speedway,Road Course,"('Practice',)",Cadillac V-Series.R,0,0,Not Pacing,True,4,04:05.000616,True,0.0,0,0,00:00.000000,0.0,00:00.000000,0.0,0,100,100,0,1,1550,-2,99,120,120,120,120,120,120,120,120,120,120,120,120,100,100,100,100,100,100,100,100,100,100,100,100,78,171,169,0.07,1.01,78,0,0,0.011801242706851007,0.0007579751525389431,0.9998050304727816,-1,-1,0,0,0,0,0.1020280575092007
Daytona International Speedway,Road Course,"('Practice',)",Cadillac V-Series.R,0,0,Not Pacing,True,4,04:05.000749,True,0.0,0,0,00:00.000000,0.0,00:00.000000,0.0,0,100,100,0,1,1550,-2,99,120,120,120,120,120,120,120,120,120,120,120,120,100,100,100,100,100,100,100,100,100,100,100,100,78,171,169,0.07,1.01,78,0,0,0.011580454890030482,0.0006940171680774892,0.9998758026340807,-1,0,0,0,0,-1,0.10203501051281484
Daytona International Speedway,Road Course,"('Practice',)",Cadillac V-Series.R,0,0,Not Pacing,True,4,04:05.000883,True,0.0,0,0,00:00.000000,0.0,00:00.000000,0.0,0,100,100,0,1,1550,-2,99,120,120,120,120,120,120,120,120,120,120,120,120,100,100,100,100,100,100,100,100,100,100,100,100,78,171,169,0.07,1.01,78,0,0,0.011400655899329773,5.5074581646651905e-05,0.9963178488821793,-1,-1,0,-1,0,0,0.1016717424413057
Daytona International Speedway,Road Course,"('Practice',)",Cadillac V-Series.R,0,0,Not Pacing,True,4,04:06.000016,True,0.0,0,0,00:00.000000,0.0,00:00.000000,0.0,0,100,100,0,1,1550,-2,99,120,120,120,120,120,120,120,120,120,120,120,120,100,100,100,100,100,100,100,100,100,100,100,100,78,171,169,0.07,1.01,78,0,0,0.011629223155197625,0.000886875133539923,0.9986213466321534,-1,0,0,-1,0,-1,0.10190708682597721
Daytona International Speedway,Road Course,"('Practice',)",Cadillac V-Series.R,0,0,Not Pacing,True,4,04:06.000149,True,0.0,0,0,00:00.000000,0.0,00:00.000000,0.0,0,100,100,0,1,1550,-2,99,120,120,120,120,120,120,120,120,120,120,120,120,100,100,100,100,100,100,100,100,100,100,100,100,78,171,169,0.07,1.01,78,0,0,0.011852148172201609,0.0005510348967152147,1.0004202038748427,-1,-1,0,-1,0,-1,0.10209087350649308
Daytona International Speedway,Road Course,"('Practice',)",Cadillac V-Series.R,0,0,Not Pacing,True,4,04:06.000283,True,0.0,0,0,00:00.000000,0.0,00:00.000000,0.0,0,100,100,0,1,1550,-2,99,120,120,120,120,120,120,120,120,120,120,120,120,100,100,100,100,100,100,100,100,100,100,100,100,78,171,169,0.07,1.01,78,0,0,0.011568270418622077,0.0008144279207111498,1.000712041825694,-1,-1,0,-1,0,0,0.10212033018468461
Daytona International Speedway,Road Course,"('Practice',)",Cadillac V-Series.R,0,0,Not Pacing,True,4,04:06.000433,True,0.0,0,0,00:00.000000,0.0,00:00.000000,0.0,0,100,100,0,1,1550,-2,99,120,120,120,120,120,120,120,120,120,120,120,120,100,100,100,100,100,100,100,100,100,100,100,100,78,171,169,0.07,1.01,78,0,0,0.011700700881162792,0.000668564577806251,0.9990286754176522,-1,-1,0,0,0,0,0.10194871597089315
Daytona International Speedway,Road Course,"('Practice',)",Cadillac V-Series.R,0,0,Not Pacing,True,4,04:06.000566,True,0.0,0,0,00:00.000000,0.0,00:00.000000,0.0,0,100,100,0,1,1550,-2,99,120,120,120,120,120,120,120,120,120,120,120,120,100,100,100,100,100,100,100,100,100,100,100,100,78,171,169,0.07,1.01,78,0,0,0.011830762499576921,0.0004616073758989785,0.998718463924925,-1,-1,0,0,0,0,0.10191720830702122
Daytona International Speedway,Road Course,"('Practice',)",Cadillac V-Series.R,0,0,Not Pacing,True,4,04:06.000699,True,0.0,0,0,00:00.000000,0.0,00:00.000000,0.0,0,100,100,0,1,1550,-2,99,120,120,120,120,120,120,120,120,120,120,120,120,100,100,100,100,100,100,100,100,100,100,100,100,78,171,169,0.07,1.01,78,0,0,0.011858643316469183,0.0005003730847170836,0.9992115359058438,-1,0,0,0,0,-1,0.10196755386724023
Daytona International Speedway,Road Course,"('Practice',)",Cadillac V-Series.R,0,0,Not Pacing,True,4,04:06.000833,True,0.0,0,0,00:00.000000,0.0,00:00.000000,0.0,0,100,100,0,1,1550,-2,99,120,120,120,120,120,120,120,120,120,120,120,120,100,100,100,100,100,100,100,100,100,100,100,100,78,171,169,0.07,1.01,78,0,0,0.011442366239370798,0.00042088546246199065,0.9996152677545731,-1,-1,0,0,0,-1,0.10200824931412053
Daytona International Speedway,Road Course,"('Practice',)",Cadillac V-Series.R,0,0,Not Pacing,True,4,04:06.000966,True,0.0,0,0,00:00.000000,0.0,00:00.000000,0.0,0,100,100,0,1,1550,-2,99,120,120,120,120,120,120,120,120,120,120,120,120,100,100,100,100,100,100,100,100,100,100,100,100,78,171,169,0.07,1.01,78,0,0,0.0114793199039502,-8.909130482255623e-05,0.9994840281697466,-1,-1,0,0,0,-1,0.10199489299721294
Daytona International Speedway,Road Course,"('Practice',)",Cadillac V-Series.R,0,0,Not Pacing,True,4,04:07.000099,True,0.0,0,0,00:00.000000,0.0,00:00.000000,0.0,0,100,100,0,1,1550,-3,99,120,120,120,120,120,120,120,120,120,120,120,120,100,100,100,100,100,100,100,100,100,100,100,100,78,171,169,0.07,1.01,78,0,0,0.011898899995831052,0.00048422550822434436,0.99943853178034,-1,-1,0,0,0,-1,0.10199076308628079
Daytona International Speedway,Road Course,"('Practice',)",Cadillac V-Series.R,0,0,Not Pacing,True,4,04:07.000233,True,0.0,0,0,00:00.000000,0.0,00:00.000000,0.0,0,100,100,0,1,1550,-2,99,120,120,120,120,120,120,120,120,120,120,120,120,100,100,100,100,100,100,100,100,100,100,100,100,78,171,169,0.07,1.01,78,0,0,0.011658794593130533,0.00023321269002195283,1.0007763006150054,-1,-1,0,-1,0,-1,0.10212696290902537
Daytona International Speedway,Road Course,"('Practice',)",Cadillac V-Series.R,0,0,Not Pacing,True,4,04:07.000366,True,0.0,0,0,00:00.000000,0.0,00:00.000000,0.0,0,100,100,0,1,1550,-3,99,120,120,120,120,120,120,120,120,120,120,120,120,100,100,100,100,100,100,100,100,100,100,100,100,78,171,169,0.07,1.01,78,0,0,0.011615376163817083,0.000512556037148812,1.0002153729080059,-1,-1,0,0,0,0,0.10206968835817506
Daytona International Speedway,Road Course,"('Practice',)",Cadillac V-Series.R,0,0,Not Pacing,True,4,04:07.000499,True,0.0,0,0,00:00.000000,0.0,00:00.000000,0.0,0,100,100,0,1,1550,-3,99,120,120,120,120,120,120,120,120,120,120,120,120,100,100,100,100,100,100,100,100,100,100,100,100,78,171,169,0.07,1.01,78,0,0,0.011184627036435888,0.000463514356179947,1.0004965172630567,-1,-1,0,-1,0,0,0.10209787138499725
Daytona International Speedway,Road Course,"('Practice',)",Cadillac V-Series.R,0,0,Not Pacing,True,4,04:07.000633,True,0.0,0,0,00:00.000000,0.0,00:00.000000,0.0,0,100,100,0,1,1550,-3,99,120,120,120,120,120,120,120,120,120,120,120,120,100,100,100,100,100,100,100,100,100,100,100,100,78,171,169,0.07,1.01,78,0,0,0.011715429638503888,0.0005393682064813211,0.9989059907094662,-1,-1,0,-1,0,-1,0.10193620762863106
Daytona International Speedway,Road Course,"('Practice',)",Cadillac V-Series.R,0,0,Not Pacing,True,4,04:07.000766,True,0.0,0,0,00:00.000000,0.0,00:00.000000,0.0,0,100,100,0,1,1550,-3,99,120,120,120,120,120,120,120,120,120,120,120,120,100,100,100,100,100,100,100,100,100,100,100,100,78,171,169,0.07,1.01,78,0,0,0.011390039011851242,0.00047899443735952403,0.998712533839981,-1,-1,0,-1,0,-1,0.10191608129610276
Daytona International Speedway,Road Course,"('Practice',)",Cadillac V-Series.R,0,0,Not Pacing,True,4,04:07.000899,True,0.0,0,0,00:00.000000,0.0,00:00.000000,0.0,0,100,100,0,1,1550,-2,99,120,120,120,120,120,120,120,120,120,120,120,120,100,100,100,100,100,100,100,100,100,100,100,100,78,171,169,0.07,1.01,78,0,0,0.011374411020317816,0.0003516511226435563,1.001853826213685,-1,-1,0,0,0,-1,0.10223657701606709
Daytona International Speedway,Road Course,"('Practice',)",Cadillac V-Series.R,0,0,Not Pacing,True,4,04:08.000033,True,0.0,0,0,00:00.000000,0.0,00:00.000000,0.0,0,100,100,0,1,1550,-2,99,120,120,120,120,120,120,120,120,120,120,120,120,100,100,100,100,100,100,100,100,100,100,100,100,78,171,169,0.07,1.01,78,0,0,0.011426950145083707,0.0005056561330650438,1.0003452514897306,-1,-1,0,0,0,-1,0.10208271859330445
Daytona International Speedway,Road Course,"('Practice',)",Cadillac V-Series.R,0,0,Not Pacing,True,4,04:08.000166,True,0.0,0,0,00:00.000000,0.0,00:00.000000,0.0,0,100,100,0,1,1550,-2,99,120,120,120,120,120,120,120,120,120,120,120,120,100,100,100,100,100,100,100,100,100,100,100,100,78,171,169,0.07,1.01,78,0,0,0.011300802929564232,0.0004783603120652178,1.000319975717838,-1,-1,0,0,0,0,0.10207999201018904
Daytona International Speedway,Road Course,"('Practice',)",Cadillac V-Series.R,0,0,Not Pacing,True,4,04:08.000299,True,0.0,0,0,00:00.000000,0.0,00:00.000000,0.0,0,100,100,0,1,1550,-2,99,120,120,120,120,120,120,120,120,120,120,120,120,100,100,100,100,100,100,100,100,100,100,100,100,78,171,169,0.07,1.01,78,0,0,0.01179105113284182,0.00020254891798674878,0.9989248503238782,-1,0,0,0,0,-1,0.10193820996898668
Daytona International Speedway,Road Course,"('Practice',)",Cadillac V-Series.R,0,0,Not Pacing,True,4,04:08.000433,True,0.0,0,0,00:00.000000,0.0,00:00.000000,0.0,0,100,100,0,1,1550,-2,99,120,120,120,120,120,120,120,120,120,120,120,120,100,100,100,100,100,100,100,100,100,100,100,100,78,171,169,0.07,1.01,78,0,0,0.011759730593266229,0.0003941095586976266,0.9986498304827861,-1,0,0,0,0,0,0.10191011683263437
Daytona International Speedway,Road Course,"('Practice',)",Cadillac V-Series.R,0,0,Not Pacing,True,4,04:08.000566,True,0.0,0,0,00:00.000000,0.0,00:00.000000,0.0,0,100,100,0,1,1550,-2,99,120,120,120,120,120,120,120,120,120,120,120,120,100,100,100,100,100,100,100,100,100,100,100,100,78,171,169,0.07,1.01,78,0,0,0.01147047186481114,0.0007368569622133364,0.9998797884288791,-1,0,0,0,0,-1,0.10203529097242385
Daytona International Speedway,Road Course,"('Practice',)",Cadillac V-Series.R,0,0,Not Pacing,True,4,04:08.000699,True,0.0,0,0,00:00.000000,0.0,00:00.000000,0.0,0,100,100,0,1,1550,-2,99,120,120,120,120,120,120,120,120,120,120,120,120,100,100,100,100,100,100,100,100,100,100,100,100,78,171,169,0.07,1.01,78,0,0,0.011548468279182364,0.0005341194300446184,1.0003524453632693,-1,-1,0,0,0,-1,0.10208359650920411
Daytona International Speedway,Road Course,"('Practice',)",Cadillac V-Series.R,0,0,Not Pacing,True,4,04:08.000849,True,0.0,0,0,00:00.000000,0.0,00:00.000000,0.0,0,100,100,0,1,1550,-3,99,120,120,120,120,120,120,120,120,120,120,120,120,100,100,100,100,100,100,100,100,100,100,100,100,78,171,169,0.07,1.01,78,0,0,0.011543711603720738,0.0003219386572198644,1.0000884107614996,-1,-1,0,0,0,0,0.10205664113320312
Daytona International Speedway,Road Course,"('Practice',)",Cadillac V-Series.R,0,0,Not Pacing,True,4,04:08.000983,True,0.0,0,0,00:00.000000,0.0,00:00.000000,0.0,0,100,100,0,1,1550,-2,99,120,120,120,120,120,120,120,120,120,120,120,120,100,100,100,100,100,100,100,100,100,100,100,100,78,171,169,0.07,1.01,78,0,0,0.011672602850605831,0.0009137896913940146,0.9981819370592527,-1,0,0,0,0,-1,0.1018623063135951
Daytona International Speedway,Road Course,"('Practice',)",Cadillac V-Series.R,0,0,Not Pacing,True,4,04:09.000116,True,0.0,0,0,00:00.000000,0.0,00:00.000000,0.0,0,100,100,0,1,1550,-2,99,120,120,120,120,120,120,120,120,120,120,120,120,100,100,100,100,100,100,100,100,100,100,100,100,78,171,169,0.07,1.01,78,0,0,0.011542398448384136,0.0011604856490845831,0.9984716362909439,-1,0,0,0,0,-1,0.10189173712832189
Daytona International Speedway,Road Course,"('Practice',)",Cadillac V-Series.R,0,0,Not Pacing,True,4,04:09.000249,True,0.0,0,0,00:00.000000,0.0,00:00.000000,0.0,0,100,100,0,1,1550,-2,99,120,120,120,120,120,120,120,120,120,120,120,120,100,100,100,100,100,100,100,100,100,100,100,100,78,171,169,0.07,1.01,78,0,0,0.011728099422960348,0.00045699248741647635,1.0006903629905708,-1,-1,0,-1,0,0,0.10211828486573446
Daytona International Speedway,Road Course,"('Practice',)",Cadillac V-Series.R,0,0,Not Pacing,True,4,04:09.000383,True,0.0,0,0,00:00.000000,0.0,00:00.000000,0.0,0,100,100,0,1,1550,-2,99,120,120,120,120,120,120,120,120,120,120,120,120,100,100,100,100,100,100,100,100,100,100,100,100,78,171,169,0.07,1.01,78,0,0,0.01189933214469544,0.0010355008304665941,1.0006809331833648,-1,-1,0,0,0,0,0.10211757298858927
Daytona International Speedway,Road Course,"('Practice',)",Cadillac V-Series.R,0,0,Not Pacing,True,4,04:09.000516,True,0.0,0,0,00:00.000000,0.0,00:00.000000,0.0,0,100,100,0,1,1550,-2,99,120,120,120,120,120,120,120,120,120,120,120,120,100,100,100,100,100,100,100,100,100,100,100,100,78,171,169,0.07,1.01,78,0,0,0.011866521489000465,0.00047966235988487646,0.9986715093179094,-1,-1,0,0,0,-1,0.1019124615141115
Daytona International Speedway,Road Course,"('Practice',)",Cadillac V-Series.R,0,0,Not Pacing,True,4,04:09.000649,True,0.0,0,0,00:00.000000,0.0,00:00.000000,0.0,0,100,100,0,1,1550,-2,99,120,120,120,120,120,120,120,120,120,120,120,120,100,100,100,100,100,100,100,100,100,100,100,100,78,171,169,0.07,1.01,78,0,0,0.011461995215469423,0.0011078344997888189,0.9983705332033738,-1,0,0,0,0,-1,0.1018813205637035
Daytona International Speedway,Road Course,"('Practice',)",Cadillac V-Series.R,0,0,Not Pacing,True,4,04:09.000783,True,0.0,0,0,00:00.000000,0.0,00:00.000000,0.0,0,100,100,0,1,1550,-2,99,120,120,120,120,120,120,120,120,120,120,120,120,100,100,100,100,100,100,100,100,100,100,100,100,78,171,169,0.07,1.01,78,0,0,0.011799455630791418,0.00040217328372351617,1.0006707256601004,-1,0,0,0,0,0,0.10211636438471794
Daytona International Speedway,Road Course,"('Practice',)",Cadillac V-Series.R,0,0,Not Pacing,True,4,04:09.000916,True,0.0,0,0,00:00.000000,0.0,00:00.000000,0.0,0,100,100,0,1,1550,-2,99,120,120,120,120,120,120,120,120,120,120,120,120,100,100,100,100,100,100,100,100,100,100,100,100,78,171,169,0.07,1.01,78,0,0,0.011315790672428624,0.0006196504908781897,0.9982710827624275,-1,0,0,-1,0,0,0.101870959943703
Daytona International Speedway,Road Course,"('Practice',)",Cadillac V-Series.R,0,0,Not Pacing,True,4,04:10.000049,True,0.0,0,0,00:00.000000,0.0,00:00.000000,0.0,0,100,100,0,1,1550,-2,99,120,120,120,120,120,120,120,120,120,120,120,120,100,100,100,100,100,100,100,100,100,100,100,100,78,171,169,0.07,1.01,78,0,0,0.011993536040202072,0.00047840521681320893,0.9986742313241131,-1,0,0,-1,0,0,0.10191289400402884
Daytona International Speedway,Road Course,"('Practice',)",Cadillac V-Series.R,0,0,Not Pacing,True,4,04:10.000183,True,0.0,0,0,00:00.000000,0.0,00:00.000000,0.0,0,100,100,0,1,1550,-2,99,120,120,120,120,120,120,120,120,120,120,120,120,100,100,100,100,100,100,100,100,100,100,100,100,78,171,169,0.07,1.01,78,0,0,0.011294384493618808,0.0004953952082769829,0.998590529633346,-1,-1,0,-1,0,0,0.10190352265816299
Daytona International Speedway,Road Course,"('Practice',)",Cadillac V-Series.R,0,0,Not Pacing,True,4,04:10.000316,True,0.0,0,0,00:00.000000,0.0,00:00.000000,0.0,0,100,100,0,1,1550,-2,99,120,120,120,120,120,120,120,120,120,120,120,120,100,100,100,100,100,100,100,100,100,100,100,100,78,171,169,0.07,1.01,78,0,0,0.011572519755873839,0.001125210643604504,1.000776883902049,-1,0,0,-1,0,0,0.10212698202110318
Daytona International Speedway,Road Course,"('Practice',)",Cadillac V-Series.R,0,0,Not Pacing,True,4,04:10.000449,True,0.0,0,0,00:00.000000,0.0,00:00.000000,0.0,0,100,100,0,1,1550,-2,99,120,120,120,120,120,120,120,120,120,120,120,120,100,100,100,100,100,100,100,100,100,100,100,100,78,171,169,0.07,1.01,78,0,0,0.011581562983515795,7.875224767171157e-05,0.9987420870501938,-1,0,0,-1,0,0,0.10191931006815738
Daytona International Speedway,Road Course,"('Practice',)",Cadillac V-Series.R,0,0,Not Pacing,True,4,04:10.000583,True,0.0,0,0,00:00.000000,0.0,00:00.000000,0.0,0,100,100,0,1,1550,-2,99,120,120,120,120,120,120,120,120,120,120,120,120,100,100,100,100,100,100,100,100,100,100,100,100,78,171,169,0.07,1.01,78,0,0,0.011785487880765114,0.00019744067062660823,0.9988778957168625,-1,0,0,-1,0,0,0.1019334122130583
Daytona International Speedway,Road Course,"('Practice',)",Cadillac V-Series.R,0,0,Not Pacing,True,4,04:10.000716,True,0.0,0,0,00:00.000000,0.0,00:00.000000,0.0,0,100,100,0,1,1550,-2,99,120,120,120,120,120,120,120,120,120,120,120,120,100,100,100,100,100,100,100,100,100,100,100,100,78,171,169,0.07,1.01,78,0,0,0.011582739430951536,0.00018888664841044324,1.0009046237646135,-1,-1,0,0,0,-1,0.10213996516753865
Daytona International Speedway,Road Course,"('Practice',)",Cadillac V-Series.R,0,0,Not Pacing,True,4,04:10.000849,True,0.0,0,0,00:00.000000,0.0,00:00.000000,0.0,0,100,100,0,1,1550,-2,99,120,120,120,120,120,120,120,120,120,120,120,120,100,100,100,100,100,100,100,100,100,100,100,100,78,171,169,0.07,1.01,78,0,0,0.0116639127850411,0.00043079688021045455,1.000631937071696,-1,0,0,-1,0,0,0.10211224571041412
Daytona International Speedway,Road Course,"('Practice',)",Cadillac V-Series.R,0,0,Not Pacing,True,4,04:10.000983,True,0.0,0,0,00:00.000000,0.0,00:00.000000,0.0,0,100,100,0,1,1550,-2,99,120,120,120,120,120,120,120,120,120,120,120,120,100,100,100,100,100,100,100,100,100,100,100,100,78,171,169,0.07,1.01,78,0,0,0.011663967468201445,0.00047281457568831153,0.998978415517389,-1,0,0,-1,0,-1,0.1019435325216569
Daytona International Speedway,Road Course,"('Practice',)",Cadillac V-Series.R,0,0,Not Pacing,True,4,04:11.000116,True,0.0,0,0,00:00.000000,0.0,00:00.000000,0.0,0,100,100,0,1,1550,-2,99,120,120,120,120,120,120,120,120,120,120,120,120,100,100,100,100,100,100,100,100,100,100,100,100,78,171,169,0.07,1.01,78,0,0,0.011475492082726092,0.0008378408575823547,0.9984616231966942,-1,0,0,0,0,-1,0.10189060381965998
Daytona International Speedway,Road Course,"('Practice',)",Cadillac V-Series.R,0,0,Not Pacing,True,4,04:11.000249,True,0.0,0,0,00:00.000000,0.0,00:00.000000,0.0,0,100,100,0,1,1550,-2,99,120,120,120,120,120,120,120,120,120,120,120,120,100,100,100,100,100,100,100,100,100,100,100,100,78,171,168,0.07,1.01,78,0,0,0.011635347669156196,0.0006942411696692126,1.000658768275705,-1,-1,0,-1,0,0,0.10211496458106152
Daytona International Speedway,Road Course,"('Practice',)",Cadillac V-Series.R,0,0,Not Pacing,True,4,04:11.000383,True,0.0,0,0,00:00.000000,0.0,00:00.000000,0.0,0,100,100,0,1,1550,-2,99,120,120,120,120,120,120,120,120,120,120,120,120,100,100,100,100,100,100,100,100,100,100,100,100,78,171,168,0.07,1.01,78,0,0,0.011041041968673254,0.00041944267195967477,1.0012226124179229,-1,-1,0,0,0,0,0.10217179349942733
Daytona International Speedway,Road Course,"('Practice',)",Cadillac V-Series.R,0,0,Not Pacing,True,4,04:11.000516,True,0.0,0,0,00:00.000000,0.0,00:00.000000,0.0,0,100,100,0,1,1550,-2,99,120,120,120,120,120,120,120,120,120,120,120,120,100,100,100,100,100,100,100,100,100,100,100,100,78,171,168,0.07,1.01,78,0,0,0.011782910177345547,0.0010608171400491614,0.9978833913073991,-1,0,0,0,0,-1,0.10183199167681647
Daytona International Speedway,Road Course,"('Practice',)",Cadillac V-Series.R,0,0,Not Pacing,True,4,04:11.000649,True,0.0,0,0,00:00.000000,0.0,00:00.000000,0.0,0,100,100,0,1,1550,-2,99,120,120,120,120,120,120,120,120,120,120,120,120,100,100,100,100,100,100,100,100,100,100,100,100,78,171,168,0.07,1.01,78,0,0,0.011517924696176665,0.0003557392110275323,1.000209831681091,-1,0,0,-1,0,0,0.10206900103261118
Daytona International Speedway,Road Course,"('Practice',)",Cadillac V-Series.R,0,0,Not Pacing,True,4,04:11.000783,True,0.0,0,0,00:00.000000,0.0,00:00.000000,0.0,0,100,100,0,1,1550,-2,99,120,120,120,120,120,120,120,120,120,120,120,120,100,100,100,100,100,100,100,100,100,100,100,100,78,171,168,0.07,1.01,78,0,0,0.012122683994145445,0.0006875839695774938,1.0000175413856933,-1,0,0,-1,0,0,0.10205012790769508
Daytona International Speedway,Road Course,"('Practice',)",Cadillac V-Series.R,0,0,Not Pacing,True,4,04:11.000916,True,0.0,0,0,00:00.000000,0.0,00:00.000000,0.0,0,100,100,0,1,1550,-3,99,120,120,120,120,120,120,120,120,120,120,120,120,100,100,100,100,100,100,100,100,100,100,100,100,78,171,168,0.07,1.01,78,0,0,0.01193820959323529,0.00045084129643002777,1.0000985210702567,-1,-1,0,-1,0,-1,0.10205815036204383
Daytona International Speedway,Road Course,"('Practice',)",Cadillac V-Series.R,0,0,Not Pacing,True,4,04:12.000049,True,0.0,0,0,00:00.000000,0.0,00:00.000000,0.0,0,100,100,0,1,1550,-2,99,120,120,120,120,120,120,120,120,120,120,120,120,100,100,100,100,100,100,100,100,100,100,100,100,78,171,168,0.07,1.01,78,0,0,0.01197910424280118,0.0004705203038229247,0.9988094567037381,-1,0,0,0,0,-1,0.10192667346237341
Daytona International Speedway,Road Course,"('Practice',)",Cadillac V-Series.R,0,0,Not Pacing,True,4,04:12.000183,True,0.0,0,0,00:00.000000,0.0,00:00.000000,0.0,0,100,100,0,1,1550,-3,99,120,120,120,120,120,120,120,120,120,120,120,120,100,100,100,100,100,100,100,100,100,100,100,100,78,171,168,0.07,1.01,78,0,0,0.011365554626807038,0.0004970721110595232,0.9987988603224447,-1,0,0,0,0,0,0.10192486198964618
Daytona International Speedway,Road Course,"('Practice',)",Cadillac V-Series.R,0,0,Not Pacing,True,4,04:12.000316,True,0.0,0,0,00:00.000000,0.0,00:00.000000,0.0,0,100,100,0,1,1550,-2,99,120,120,120,120,120,120,120,120,120,120,120,120,100,100,100,100,100,100,100,100,100,100,100,100,78,171,168,0.07,1.01,78,0,0,0.011605747370666442,0.0004138391670010505,1.000732942944759,-1,-1,0,-1,0,0,0.1021224820006067
Daytona International Speedway,Road Course,"('Practice',)",Cadillac V-Series.R,0,0,Not Pacing,True,4,04:12.000449,True,0.0,0,0,00:00.000000,0.0,00:00.000000,0.0,0,100,100,0,1,1550,-2,99,120,120,120,120,120,120,120,120,120,120,120,120,100,100,100,100,100,100,100,100,100,100,100,100,78,171,168,0.07,1.01,78,0,0,0.011552725211317507,0.000488800760909201,1.0003836512201059,-1,-1,0,-1,0,-1,0.1020867832186861
Daytona International Speedway,Road Course,"('Practice',)",Cadillac V-Series.R,0,0,Not Pacing,True,4,04:12.000583,True,0.0,0,0,00:00.000000,0.0,00:00.000000,0.0,0,100,100,0,1,1550,-2,99,120,120,120,120,120,120,120,120,120,120,120,120,100,100,100,100,100,100,100,100,100,100,100,100,78,171,168,0.07,1.01,78,0,0,0.011585309539487724,0.0004988114817578737,1.0002570779316287,-1,-1,0,-1,0,0,0.10207390739779162
Daytona International Speedway,Road Course,"('Practice',)",Cadillac V-Series.R,0,0,Not Pacing,True,4,04:12.000716,True,0.0,0,0,00:00.000000,0.0,00:00.000000,0.0,0,100,100,0,1,1550,-3,99,120,120,120,120,120,120,120,120,120,120,120,120,100,100,100,100,100,100,100,100,100,100,100,100,78,171,168,0.07,1.01,78,0,0,0.011639807384677618,0.0005022712834141426,0.998740045545541,-1,-1,0,0,0,0,0.1019191834234113
Daytona International Speedway,Road Course,"('Practice',)",Cadillac V-Series.R,0,0,Not Pacing,True,4,04:12.000849,True,0.0,0,0,00:00.000000,0.0,00:00.000000,0.0,0,100,100,0,1,1550,-3,99,120,120,120,120,120,120,120,120,120,120,120,120,100,100,100,100,100,100,100,100,100,100,100,100,78,171,168,0.07,1.01,78,0,0,0.011695142186016118,0.000504229149413765,0.9987477254916161,-1,0,0,0,0,0,0.10192003309614284
Daytona International Speedway,Road Course,"('Practice',)",Cadillac V-Series.R,0,0,Not Pacing,True,4,04:12.000983,True,0.0,0,0,00:00.000000,0.0,00:00.000000,0.0,0,100,100,0,1,1550,-3,99,120,120,120,120,120,120,120,120,120,120,120,120,100,100,100,100,100,100,100,100,100,100,100,100,78,171,168,0.07,1.01,78,0,0,0.010890739986048318,0.00043989536062900684,1.0000933687013709,-1,0,0,0,0,0,0.10205640431171027
Daytona International Speedway,Road Course,"('Practice',)",Cadillac V-Series.R,0,0,Not Pacing,True,4,04:13.000133,True,0.0,0,0,00:00.000000,0.0,00:00.000000,0.0,0,100,100,0,1,1550,-3,99,120,120,120,120,120,120,120,120,120,120,120,120,100,100,100,100,100,100,100,100,100,100,100,100,78,171,168,0.07,1.01,78,0,0,0.011297612319055803,0.00048385691904025217,1.0005306395551115,-1,0,0,0,0,0,0.10210148353948671
Daytona International Speedway,Road Course,"('Practice',)",Cadillac V-Series.R,0,0,Not Pacing,True,4,04:13.000266,True,0.0,0,0,00:00.000000,0.0,00:00.000000,0.0,0,100,100,0,1,1550,-3,99,120,120,120,120,120,120,120,120,120,120,120,120,100,100,100,100,100,100,100,100,100,100,100,100,78,171,168,0.07,1.01,78,0,0,0.011511424994979064,0.000627357778533397,0.9981599665806077,-1,-1,0,-1,0,0,0.10185985103098945
Daytona International Speedway,Road Course,"('Practice',)",Cadillac V-Series.R,0,0,Not Pacing,True,4,04:13.000416,True,0.0,0,0,00:00.000000,0.0,00:00.000000,0.0,0,100,100,0,1,1550,-3,99,120,120,120,120,120,120,120,120,120,120,120,120,100,100,100,100,100,100,100,100,100,100,100,100,78,171,168,0.07,1.01,78,0,0,0.011152570552660663,0.0004788795647483839,0.9983415632802047,-1,-1,0,-1,0,0,0.10187795606197345
Daytona International Speedway,Road Course,"('Practice',)",Cadillac V-Series.R,0,0,Not Pacing,True,4,04:13.000549,True,0.0,0,0,00:00.000000,0.0,00:00.000000,0.0,0,100,100,0,1,1550,-3,99,120,120,120,120,120,120,120,120,120,120,120,120,100,100,100,100,100,100,100,100,100,100,100,100,78,171,168,0.07,1.01,78,0,0,0.01206178745970692,0.0005063805425355437,1.000125157845251,-1,0,0,0,0,0,0.10206102220826423
Daytona International Speedway,Road Course,"('Practice',)",Cadillac V-Series.R,0,0,Not Pacing,True,4,04:13.000683,True,0.0,0,0,00:00.000000,0.0,00:00.000000,0.0,0,100,100,0,1,1550,-3,99,120,120,120,120,120,120,120,120,120,120,120,120,100,100,100,100,100,100,100,100,100,100,100,100,78,171,168,0.07,1.01,78,0,0,0.011211065584974065,0.00043635377157232686,1.0005317089146917,-1,0,0,-1,0,-1,0.10210149109059537
Daytona International Speedway,Road Course,"('Practice',)",Cadillac V-Series.R,0,0,Not Pacing,True,4,04:13.000816,True,0.0,0,0,00:00.000000,0.0,00:00.000000,0.0,0,100,100,0,1,1550,-3,99,120,120,120,120,120,120,120,120,120,120,120,120,100,100,100,100,100,100,100,100,100,100,100,100,78,171,168,0.07,1.01,78,0,0,0.01131471143950016,0.0005695209852690361,0.9987021318877022,-1,-1,0,-1,0,0,0.10191493742267772
Daytona International Speedway,Road Course,"('Practice',)",Cadillac V-Series.R,0,0,Not Pacing,True,4,04:13.000949,True,0.0,0,0,00:00.000000,0.0,00:00.000000,0.0,0,100,100,0,1,1550,-3,99,120,120,120,120,120,120,120,120,120,120,120,120,100,100,100,100,100,100,100,100,100,100,100,100,78,171,168,0.07,1.01,78,0,0,0.011682078986600512,0.0004681018556142558,0.998645261400944,-1,-1,0,-1,0,0,0.10190956089956502
Daytona International Speedway,Road Course,"('Practice',)",Cadillac V-Series.R,0,0,Not Pacing,True,4,04:14.000099,True,0.0,0,0,00:00.000000,0.0,00:00.000000,0.0,0,100,100,0,1,1550,-3,99,120,120,120,120,120,120,120,120,120,120,120,120,100,100,100,100,100,100,100,100,100,100,100,100,78,171,168,0.07,1.01,78,0,0,0.011759668315222504,0.00038282398920540413,1.0002900336495961,-1,0,0,0,0,-1,0.10207747238398293
Daytona International Speedway,Road Course,"('Practice',)",Cadillac V-Series.R,0,0,Not Pacing,True,4,04:14.000233,True,0.0,0,0,00:00.000000,0.0,00:00.000000,0.0,0,100,100,0,1,1550,-3,99,120,120,120,120,120,120,120,120,120,120,120,120,100,100,100,100,100,100,100,100,100,100,100,100,78,171,168,0.07,1.01,78,0,0,0.012015533100938941,0.00048342965938204046,1.0004845598786614,-1,0,0,-1,0,-1,0.10209763526738583
Daytona International Speedway,Road Course,"('Practice',)",Cadillac V-Series.R,0,0,Not Pacing,True,4,04:14.000366,True,0.0,0,0,00:00.000000,0.0,00:00.000000,0.0,0,100,100,0,1,1550,-2,99,120,120,120,120,120,120,120,120,120,120,120,120,100,100,100,100,100,100,100,100,100,100,100,100,78,171,168,0.07,1.01,78,0,0,0.011615898691793707,0.00049030279150189,1.000437410842631,-1,-1,0,-1,0,0,0.10209234324103833
Daytona International Speedway,Road Course,"('Practice',)",Cadillac V-Series.R,0,0,Not Pacing,True,4,04:14.000499,True,0.0,0,0,00:00.000000,0.0,00:00.000000,0.0,0,100,100,0,1,1550,-2,99,120,120,120,120,120,120,120,120,120,120,120,120,100,100,100,100,100,100,100,100,100,100,100,100,78,171,168,0.07,1.01,78,0,0,0.011613556429758956,0.0005318227373101538,0.9985170354658431,-1,-1,0,0,0,-1,0.10189639921452039
Daytona International Speedway,Road Course,"('Practice',)",Cadillac V-Series.R,0,0,Not Pacing,True,4,04:14.000633,True,0.0,0,0,00:00.000000,0.0,00:00.000000,0.0,0,100,100,0,1,1550,-2,99,120,120,120,120,120,120,120,120,120,120,120,120,100,100,100,100,100,100,100,100,100,100,100,100,78,171,168,0.07,1.01,78,0,0,0.011680449124626914,0.00047791254622187696,0.9989583893288895,-1,0,0,-1,0,0,0.10194150906953278
Daytona International Speedway,Road Course,"('Practice',)",Cadillac V-Series.R,0,0,Not Pacing,True,4,04:14.000766,True,0.0,0,0,00:00.000000,0.0,00:00.000000,0.0,0,100,100,0,1,1550,-2,99,120,120,120,120,120,120,120,120,120,120,120,120,100,100,100,100,100,100,100,100,100,100,100,100,78,171,168,0.07,1.01,78,0,0,0.011985506729491502,0.0008438468913601807,1.0000656625667965,-1,-1,0,-1,0,-1,0.10205488137220114
Daytona International Speedway,Road Course,"('Practice',)",Cadillac V-Series.R,0,0,Not Pacing,True,4,04:14.000899,True,0.0,0,0,00:00.000000,0.0,00:00.000000,0.0,0,100,100,0,1,1550,-2,99,120,120,120,120,120,120,120,120,120,120,120,120,100,100,100,100,100,100,100,100,100,100,100,100,78,171,168,0.07,1.01,78,0,0,0.011674976251662444,0.0005257992353005512,1.0002650495212255,-1,-1,0,-1,0,-1,0.10207482855749392
Daytona International Speedway,Road Course,"('Practice',)",Cadillac V-Series.R,0,0,Not Pacing,True,4,04:15.000033,True,0.0,0,0,00:00.000000,0.0,00:00.000000,0.0,0,100,100,0,1,1550,-2,99,120,120,120,120,120,120,120,120,120,120,120,120,100,100,100,100,100,100,100,100,100,100,100,100,78,171,168,0.07,1.01,78,0,0,0.011169026386482634,0.00048615128584168126,1.0004324529027597,-1,-1,0,-1,0,0,0.10209131792719339
Daytona International Speedway,Road Course,"('Practice',)",Cadillac V-Series.R,0,0,Not Pacing,True,4,04:15.000166,True,0.0,0,0,00:00.000000,0.0,00:00.000000,0.0,0,100,100,0,1,1550,-2,99,120,120,120,120,120,120,120,120,120,120,120,120,100,100,100,100,100,100,100,100,100,100,100,100,78,171,168,0.07,1.01,78,0,0,0.011759009079345017,0.0008624942287817885,0.9987695987557538,-1,-1,0,0,0,0,0.10192236643429325
Daytona International Speedway,Road Course,"('Practice',)",Cadillac V-Series.R,0,0,Not Pacing,True,4,04:15.000299,True,0.0,0,0,00:00.000000,0.0,00:00.000000,0.0,0,100,100,0,1,1550,-2,99,120,120,120,120,120,120,120,120,120,120,120,120,100,100,100,100,100,100,100,100,100,100,100,100,78,171,168,0.07,1.01,78,0,0,0.011930675468921174,0.0006351702553234333,0.9989021993436823,-1,-1,0,0,0,0,0.10193608647512752
Daytona International Speedway,Road Course,"('Practice',)",Cadillac V-Series.R,0,0,Not Pacing,True,4,04:15.000433,True,0.0,0,0,00:00.000000,0.0,00:00.000000,0.0,0,100,100,0,1,1550,-2,99,120,120,120,120,120,120,120,120,120,120,120,120,100,100,100,100,100,100,100,100,100,100,100,100,78,171,168,0.07,1.01,78,0,0,0.011344288953339773,-7.40778817587307e-05,0.9986777310463752,-1,-1,0,-1,0,0,0.10191246564868905
Daytona International Speedway,Road Course,"('Practice',)",Cadillac V-Series.R,0,0,Not Pacing,True,4,04:15.000566,True,0.0,0,0,00:00.000000,0.0,00:00.000000,0.0,0,100,100,0,1,1550,-2,99,120,120,120,120,120,120,120,120,120,120,120,120,100,100,100,100,100,100,100,100,100,100,100,100,78,171,168,0.07,1.01,78,0,0,0.011983975601001859,0.0009454304502401633,1.000168709944512,-1,-1,0,-1,0,-1,0.10206540305128343
Daytona International Speedway,Road Course,"('Practice',)",Cadillac V-Series.R,0,0,Not Pacing,True,4,04:15.000699,True,0.0,0,0,00:00.000000,0.0,00:00.000000,0.0,0,100,100,0,1,1550,-2,99,120,120,120,120,120,120,120,120,120,120,120,120,100,100,100,100,100,100,100,100,100,100,100,100,78,171,168,0.07,1.01,78,0,0,0.011790429111892901,0.00041273012415531574,1.0003256141592602,-1,-1,0,-1,0,0,0.10208114095610121
Daytona International Speedway,Road Course,"('Practice',)",Cadillac V-Series.R,0,0,Not Pacing,True,4,04:15.000833,True,0.0,0,0,00:00.000000,0.0,00:00.000000,0.0,0,100,100,0,1,1550,-2,99,120,120,120,120,120,120,120,120,120,120,120,120,100,100,100,100,100,100,100,100,100,100,100,100,78,171,168,0.07,1.01,78,0,0,0.011924742346023807,0.0005416315291969297,0.9989908589743206,-1,0,0,0,0,0,0.10194511987974071
Daytona International Speedway,Road Course,"('Practice',)",Cadillac V-Series.R,0,0,Not Pacing,True,4,04:15.000966,True,0.0,0,0,00:00.000000,0.0,00:00.000000,0.0,0,100,100,0,1,1550,-2,99,120,120,120,120,120,120,120,120,120,120,120,120,100,100,100,100,100,100,100,100,100,100,100,100,78,171,168,0.07,1.01,78,0,0,0.011338787979306795,0.0004790524907493688,0.9987876806541077,-1,-1,0,-1,0,0,0.10192368934100204
Daytona International Speedway,Road Course,"('Practice',)",Cadillac V-Series.R,0,0,Not Pacing,True,4,04:16.000099,True,0.0,0,0,00:00.000000,0.0,00:00.000000,0.0,0,100,100,0,1,1550,-2,99,120,120,120,120,120,120,120,120,120,120,120,120,100,100,100,100,100,100,100,100,100,100,100,100,78,171,168,0.07,1.01,78,0,0,0.012037830919057708,0.0004083141266813579,1.0017557367758405,-1,0,0,0,0,-1,0.10222736174196771
Daytona International Speedway,Road Course,"('Practice',)",Cadillac V-Series.R,0,0,Not Pacing,True,4,04:16.000233,True,0.0,0,0,00:00.000000,0.0,00:00.000000,0.0,0,100,100,0,1,1550,-2,99,120,120,120,120,120,120,120,120,120,120,120,120,100,100,100,100,100,100,100,100,100,100,100,100,78,171,168,0.07,1.01,78,0,0,0.01137439659003939,0.0005241847054977786,1.0002154701225132,-1,0,0,-1,0,0,0.10206941631545793
Daytona International Speedway,Road Course,"('Practice',)",Cadillac V-Series.R,0,0,Not Pacing,True,4,04:16.000366,True,0.0,0,0,00:00.000000,0.0,00:00.000000,0.0,0,100,100,0,1,1550,-2,99,120,120,120,120,120,120,120,120,120,120,120,120,100,100,100,100,100,100,100,100,100,100,100,100,78,171,168,0.07,1.01,78,0,0,0.011395508087374018,0.0004909800652274054,1.0002336492353745,-1,-1,0,-1,0,0,0.1020712940060313
Daytona International Speedway,Road Course,"('Practice',)",Cadillac V-Series.R,0,0,Not Pacing,True,4,04:16.000499,True,0.0,0,0,00:00.000000,0.0,00:00.000000,0.0,0,100,100,0,1,1550,-2,99,120,120,120,120,120,120,120,120,120,120,120,120,100,100,100,100,100,100,100,100,100,100,100,100,78,171,168,0.07,1.01,78,0,0,0.011293267286273438,0.0005147963853421925,0.9987349903911625,-1,-1,0,0,0,-1,0.1019182623194718
Daytona International Speedway,Road Course,"('Practice',)",Cadillac V-Series.R,0,0,Not Pacing,True,4,04:16.000633,True,0.0,0,0,00:00.000000,0.0,00:00.000000,0.0,0,100,100,0,1,1550,-2,99,120,120,120,120,120,120,120,120,120,120,120,120,100,100,100,100,100,100,100,100,100,100,100,100,78,171,168,0.07,1.01,78,0,0,0.011609360256690862,0.0004932786566827154,0.9986098753202945,-1,-1,0,-1,0,0,0.10190586503011796
Daytona International Speedway,Road Course,"('Practice',)",Cadillac V-Series.R,0,0,Not Pacing,True,4,04:16.000766,True,0.0,0,0,00:00.000000,0.0,00:00.000000,0.0,0,100,100,0,1,1550,-2,99,120,120,120,120,120,120,120,120,120,120,120,120,100,100,100,100,100,100,100,100,100,100,100,100,78,171,168,0.07,1.01,78,0,0,0.011272202877215774,0.00034132915398031924,1.000154419411942,-1,-1,0,0,0,-1,0.1020630609290713
Daytona International Speedway,Road Course,"('Practice',)",Cadillac V-Series.R,0,0,Not Pacing,True,4,04:16.000899,True,0.0,0,0,00:00.000000,0.0,00:00.000000,0.0,0,100,100,0,1,1550,-2,99,120,120,120,120,120,120,120,120,120,120,120,120,100,100,100,100,100,100,100,100,100,100,100,100,78,171,168,0.07,1.01,78,0,0,0.011242115746701286,-2.457633060113613e-05,1.0004014414749378,-1,-1,0,-1,0,-1,0.10208822520489386
Daytona International Speedway,Road Course,"('Practice',)",Cadillac V-Series.R,0,0,Not Pacing,True,4,04:17.000033,True,0.0,0,0,00:00.000000,0.0,00:00.000000,0.0,0,100,100,0,1,1550,-2,99,120,120,120,120,120,120,120,120,120,120,120,120,100,100,100,100,100,100,100,100,100,100,100,100,78,171,168,0.07,1.01,78,0,0,0.011865683773363523,0.000812590433613119,1.0001480032544616,-1,0,0,-1,0,0,0.10206313445566795
Daytona International Speedway,Road Course,"('Practice',)",Cadillac V-Series.R,0,0,Not Pacing,True,4,04:17.000166,True,0.0,0,0,00:00.000000,0.0,00:00.000000,0.0,0,100,100,0,1,1550,-2,99,120,120,120,120,120,120,120,120,120,120,120,120,100,100,100,100,100,100,100,100,100,100,100,100,78,171,168,0.07,1.01,78,0,0,0.0115785683209986,0.000207456470553542,0.998644192041364,-1,-1,0,-1,0,0,0.10190931979185396
Daytona International Speedway,Road Course,"('Practice',)",Cadillac V-Series.R,0,0,Not Pacing,True,4,04:17.000299,True,0.0,0,0,00:00.000000,0.0,00:00.000000,0.0,0,100,100,0,1,1550,-2,99,120,120,120,120,120,120,120,120,120,120,120,120,100,100,100,100,100,100,100,100,100,100,100,100,78,171,168,0.07,1.01,78,0,0,0.011357980249611,0.0009201322734416686,0.9986980488783965,-1,-1,0,0,0,0,0.10191459761036975
Daytona International Speedway,Road Course,"('Practice',)",Cadillac V-Series.R,0,0,Not Pacing,True,4,04:17.000433,True,0.0,0,0,00:00.000000,0.0,00:00.000000,0.0,0,100,100,0,1,1550,-2,99,120,120,120,120,120,120,120,120,120,120,120,120,100,100,100,100,100,100,100,100,100,100,100,100,78,171,168,0.07,1.01,78,0,0,0.0116493313684376,0.0006013023918617999,1.000102506865055,-1,-1,0,-1,0,-1,0.10205821753278387
Daytona International Speedway,Road Course,"('Practice',)",Cadillac V-Series.R,0,0,Not Pacing,True,4,04:17.000566,True,0.0,0,0,00:00.000000,0.0,00:00.000000,0.0,0,100,100,0,1,1550,-2,99,120,120,120,120,120,120,120,120,120,120,120,120,100,100,100,100,100,100,100,100,100,100,100,100,78,171,168,0.07,1.01,78,0,0,0.011503091129444911,0.0005147406104173621,1.0002848812807104,-1,0,0,0,0,-1,0.10207664828946926
Daytona International Speedway,Road Course,"('Practice',)",Cadillac V-Series.R,0,0,Not Pacing,True,4,04:17.000699,True,0.0,0,0,00:00.000000,0.0,00:00.000000,0.0,0,100,100,0,1,1550,-2,99,120,120,120,120,120,120,120,120,120,120,120,120,100,100,100,100,100,100,100,100,100,100,100,100,78,171,168,0.07,1.01,78,0,0,0.011656874606611774,0.0004889873102322509,1.000158210777726,-1,-1,0,-1,0,-1,0.10206390394016969
Daytona International Speedway,Road Course,"('Practice',)",Cadillac V-Series.R,0,0,Not Pacing,True,4,04:17.000833,True,0.0,0,0,00:00.000000,0.0,00:00.000000,0.0,0,100,100,0,1,1550,-2,99,120,120,120,120,120,120,120,120,120,120,120,120,100,100,100,100,100,100,100,100,100,100,100,100,78,171,168,0.07,1.01,78,0,0,0.011886848434881818,0.000698503797966892,0.9988742987800932,-1,-1,0,0,0,0,0.10193319068257932
Daytona International Speedway,Road Course,"('Practice',)",Cadillac V-Series.R,0,0,Not Pacing,True,4,04:17.000966,True,0.0,0,0,00:00.000000,0.0,00:00.000000,0.0,0,100,100,0,1,1550,-2,99,120,120,120,120,120,120,120,120,120,120,120,120,100,100,100,100,100,100,100,100,100,100,100,100,78,171,168,0.07,1.01,78,0,0,0.011163032504518219,-0.00017760012955779814,0.9989056990659443,-1,-1,0,-1,0,0,0.10193551916429378
Daytona International Speedway,Road Course,"('Practice',)",Cadillac V-Series.R,0,0,Not Pacing,True,4,04:18.000083,True,0.0,0,0,00:00.000000,0.0,00:00.000000,0.0,0,100,100,0,1,1550,-2,99,120,120,120,120,120,120,120,120,120,120,120,120,100,100,100,100,100,100,100,100,100,100,100,100,78,171,168,0.07,1.01,78,0,0,0.01176990849648533,0.000690112021446957,1.001522713601893,-1,0,0,0,0,-1,0.10220327643112087
Daytona International Speedway,Road Course,"('Practice',)",Cadillac V-Series.R,0,0,Not Pacing,True,4,04:18.000216,True,0.0,0,0,00:00.000000,0.0,00:00.000000,0.0,0,100,100,0,1,1550,-2,99,120,120,120,120,120,120,120,120,120,120,120,120,100,100,100,100,100,100,100,100,100,100,100,100,78,171,168,0.07,1.01,78,0,0,0.011324391118369456,-0.00016962972666145464,1.000370818905145,-1,-1,0,-1,0,0,0.10208519677360713
